{
  "ciudad": "Alcorcón",
  "total": 41,
  "locales": [
    {
      "id": "osm_node_587346162",
      "nombre": "La Contemporanea",
      "tipo": "bar",
      "lat": 40.3373823,
      "lon": -3.855731,
      "direccion": null,
      "codigo_postal": null,
      "telefono": null,
      "web": null,
      "instagram": null,
      "horario": null,
      "terraza": false,
      "musica": null,
      "fuente": "openstreetmap"
    },
    {
      "id": "osm_node_1002448369",
      "nombre": "Cafetería del Buero Vallejo",
      "tipo": "cafe",
      "lat": 40.3450226,
      "lon": -3.8354304,
      "direccion": null,
      "codigo_postal": null,
      "telefono": null,
      "web": null,
      "instagram": null,
      "horario": null,
      "terraza": false,
      "musica": null,
      "fuente": "openstreetmap"
    },
    {
      "id": "osm_node_1002453925",
      "nombre": "Bar/Cafetería Avenida",
      "tipo": "cafe",
      "lat": 40.3444222,
      "lon": -3.8331328,
      "direccion": null,
      "codigo_postal": null,
      "telefono": null,
      "web": null,
      "instagram": null,
      "horario": null,
      "terraza": false,
      "musica": null,
      "fuente": "openstreetmap"
    },
    {
      "id": "osm_node_1511611719",
      "nombre": "La Gloriosa",
      "tipo": "cafe",
      "lat": 40.3374457,
      "lon": -3.8557524,
      "direccion": null,
      "codigo_postal": null,
      "telefono": null,
      "web": null,
      "instagram": null,
      "horario": null,
      "terraza": false,
      "musica": null,
      "fuente": "openstreetmap"
    },
    {
      "id": "osm_node_2463349971",
      "nombre": "L'Santina",
      "tipo": "pub",
      "lat": 40.3333977,
      "lon": -3.831062,
      "direccion": null,
      "codigo_postal": null,
      "telefono": null,
      "web": null,
      "instagram": null,
      "horario": null,
      "terraza": true,
      "musica": null,
      "fuente": "openstreetmap"
    },
    {
      "id": "osm_node_2973397943",
      "nombre": "La posada de Eva",
      "tipo": "bar",
      "lat": 40.3464135,
      "lon": -3.8129904,
      "direccion": null,
      "codigo_postal": null,
      "telefono": null,
      "web": null,
      "instagram": null,
      "horario": null,
      "terraza": false,
      "musica": null,
      "fuente": "openstreetmap"
    },
    {
      "id": "osm_node_3094916107",
      "nombre": "Taberna La Abuela",
      "tipo": "cafe",
      "lat": 40.3488829,
      "lon": -3.8078212,
      "direccion": null,
      "codigo_postal": null,
      "telefono": null,
      "web": null,
      "instagram": null,
      "horario": null,
      "terraza": false,
      "musica": null,
      "fuente": "openstreetmap"
    },
    {
      "id": "osm_node_3240045183",
      "nombre": "La Tabernita",
      "tipo": "cafe",
      "lat": 40.3516315,
      "lon": -3.8290424,
      "direccion": null,
      "codigo_postal": null,
      "telefono": null,
      "web": null,
      "instagram": null,
      "horario": null,
      "terraza": false,
      "musica": null,
      "fuente": "openstreetmap"
    },
    {
      "id": "osm_node_4195880680",
      "nombre": "Bar Restaurante Celedonio",
      "tipo": "bar",
      "lat": 40.3444783,
      "lon": -3.8154321,
      "direccion": "Calle Munich 4",
      "codigo_postal": null,
      "telefono": null,
      "web": null,
      "instagram": null,
      "horario": null,
      "terraza": false,
      "musica": null,
      "fuente": "openstreetmap"
    },
    {
      "id": "osm_node_4312940558",
      "nombre": "Somos1",
      "tipo": "cafe",
      "lat": 40.3377704,
      "lon": -3.8276285,
      "direccion": null,
      "codigo_postal": null,
      "telefono": null,
      "web": null,
      "instagram": null,
      "horario": null,
      "terraza": false,
      "musica": null,
      "fuente": "openstreetmap"
    },
    {
      "id": "osm_node_4312956895",
      "nombre": "Pickup",
      "tipo": "pub",
      "lat": 40.3381454,
      "lon": -3.8278074,
      "direccion": null,
      "codigo_postal": null,
      "telefono": null,
      "web": null,
      "instagram": null,
      "horario": null,
      "terraza": false,
      "musica": null,
      "fuente": "openstreetmap"
    },
    {
      "id": "osm_node_4312958456",
      "nombre": "Sanoa",
      "tipo": "cafe",
      "lat": 40.3380849,
      "lon": -3.8279942,
      "direccion": null,
      "codigo_postal": null,
      "telefono": null,
      "web": null,
      "instagram": null,
      "horario": null,
      "terraza": false,
      "musica": null,
      "fuente": "openstreetmap"
    },
    {
      "id": "osm_node_4457745911",
      "nombre": "La Barrita",
      "tipo": "bar",
      "lat": 40.3309669,
      "lon": -3.8388144,
      "direccion": null,
      "codigo_postal": null,
      "telefono": null,
      "web": null,
      "instagram": null,
      "horario": null,
      "terraza": false,
      "musica": null,
      "fuente": "openstreetmap"
    },
    {
      "id": "osm_node_4457745912",
      "nombre": "El Bar de Luis",
      "tipo": "bar",
      "lat": 40.3309278,
      "lon": -3.8379593,
      "direccion": null,
      "codigo_postal": null,
      "telefono": null,
      "web": null,
      "instagram": null,
      "horario": null,
      "terraza": false,
      "musica": null,
      "fuente": "openstreetmap"
    },
    {
      "id": "osm_node_4457745913",
      "nombre": "Queen",
      "tipo": "pub",
      "lat": 40.3305575,
      "lon": -3.8389225,
      "direccion": "Calle Pablo Picasso 3",
      "codigo_postal": "28922",
      "telefono": "+34 634 88 28 14",
      "web": null,
      "instagram": null,
      "horario": "Th-Su 22:00-03:00",
      "terraza": false,
      "musica": null,
      "fuente": "openstreetmap"
    },
    {
      "id": "osm_node_4910957313",
      "nombre": "La Piruleta",
      "tipo": "cafe",
      "lat": 40.3309633,
      "lon": -3.8357394,
      "direccion": "Calle Nilo 1",
      "codigo_postal": "28922",
      "telefono": "+34 912 00 20 24",
      "web": null,
      "instagram": null,
      "horario": null,
      "terraza": false,
      "musica": null,
      "fuente": "openstreetmap"
    },
    {
      "id": "osm_node_4910957315",
      "nombre": "PiKARA",
      "tipo": "bar",
      "lat": 40.328853,
      "lon": -3.8337969,
      "direccion": "Calle Martin Luther King",
      "codigo_postal": "28922",
      "telefono": "+34 911 56 48 40",
      "web": null,
      "instagram": null,
      "horario": null,
      "terraza": false,
      "musica": null,
      "fuente": "openstreetmap"
    },
    {
      "id": "osm_node_4913021889",
      "nombre": "Amphora Madrid",
      "tipo": "bar",
      "lat": 40.3447441,
      "lon": -3.8119649,
      "direccion": null,
      "codigo_postal": null,
      "telefono": null,
      "web": null,
      "instagram": null,
      "horario": null,
      "terraza": false,
      "musica": null,
      "fuente": "openstreetmap"
    },
    {
      "id": "osm_node_4949014821",
      "nombre": "La Traicionera",
      "tipo": "bar",
      "lat": 40.3309686,
      "lon": -3.8394541,
      "direccion": null,
      "codigo_postal": null,
      "telefono": null,
      "web": null,
      "instagram": null,
      "horario": null,
      "terraza": false,
      "musica": null,
      "fuente": "openstreetmap"
    },
    {
      "id": "osm_node_6435780630",
      "nombre": "Jamon y Pan",
      "tipo": "bar",
      "lat": 40.3404104,
      "lon": -3.828831,
      "direccion": null,
      "codigo_postal": null,
      "telefono": null,
      "web": null,
      "instagram": null,
      "horario": null,
      "terraza": false,
      "musica": null,
      "fuente": "openstreetmap"
    },
    {
      "id": "osm_node_8398265600",
      "nombre": "Café-bar Vico's Sandra",
      "tipo": "bar",
      "lat": 40.3430883,
      "lon": -3.8316389,
      "direccion": "Calle Zamora 7",
      "codigo_postal": "28922",
      "telefono": "+34 916 41 17 31",
      "web": null,
      "instagram": null,
      "horario": "Mo-Fr 07:30-15:30,18:00-23:00; Sa,Su 09:00-16:00,18:00-23:00",
      "terraza": true,
      "musica": null,
      "fuente": "openstreetmap"
    },
    {
      "id": "osm_node_9500428242",
      "nombre": "Cafetería Reyes",
      "tipo": "cafe",
      "lat": 40.3556896,
      "lon": -3.8105184,
      "direccion": null,
      "codigo_postal": null,
      "telefono": null,
      "web": null,
      "instagram": null,
      "horario": null,
      "terraza": false,
      "musica": null,
      "fuente": "openstreetmap"
    },
    {
      "id": "osm_node_9588578265",
      "nombre": "Si, o que",
      "tipo": "pub",
      "lat": 40.3288517,
      "lon": -3.8346106,
      "direccion": "Calle Martin Luther King",
      "codigo_postal": "28922",
      "telefono": "+34 911 56 48 40",
      "web": null,
      "instagram": null,
      "horario": null,
      "terraza": true,
      "musica": null,
      "fuente": "openstreetmap"
    },
    {
      "id": "osm_node_10090035161",
      "nombre": "Cafetería Panadería Royare",
      "tipo": "cafe",
      "lat": 40.3325389,
      "lon": -3.8244745,
      "direccion": "Calle de 8 de Marzo",
      "codigo_postal": "28923",
      "telefono": null,
      "web": null,
      "instagram": null,
      "horario": "Mo-Su 08:00-23:59",
      "terraza": true,
      "musica": null,
      "fuente": "openstreetmap"
    },
    {
      "id": "osm_node_10704532605",
      "nombre": "Bar Apolo",
      "tipo": "bar",
      "lat": 40.3559347,
      "lon": -3.8141871,
      "direccion": null,
      "codigo_postal": null,
      "telefono": null,
      "web": null,
      "instagram": null,
      "horario": "Mo-Su 06:00-00:00",
      "terraza": false,
      "musica": null,
      "fuente": "openstreetmap"
    },
    {
      "id": "osm_node_10913894559",
      "nombre": "Cafetería Roxanne",
      "tipo": "cafe",
      "lat": 40.3377867,
      "lon": -3.832135,
      "direccion": "Calle Vicente Aleixandre 1",
      "codigo_postal": "28922",
      "telefono": null,
      "web": null,
      "instagram": null,
      "horario": null,
      "terraza": false,
      "musica": null,
      "fuente": "openstreetmap"
    },
    {
      "id": "osm_node_10913894574",
      "nombre": "Cafetería Loemi",
      "tipo": "cafe",
      "lat": 40.3393199,
      "lon": -3.8368085,
      "direccion": null,
      "codigo_postal": null,
      "telefono": "+34 623 386 951",
      "web": null,
      "instagram": null,
      "horario": null,
      "terraza": false,
      "musica": null,
      "fuente": "openstreetmap"
    },
    {
      "id": "osm_node_10913894577",
      "nombre": "Bacterio Brewing CO",
      "tipo": "bar",
      "lat": 40.3391871,
      "lon": -3.8365597,
      "direccion": null,
      "codigo_postal": null,
      "telefono": null,
      "web": null,
      "instagram": null,
      "horario": null,
      "terraza": false,
      "musica": null,
      "fuente": "openstreetmap"
    },
    {
      "id": "osm_node_10913894589",
      "nombre": "Desi - Empre",
      "tipo": "cafe",
      "lat": 40.3383853,
      "lon": -3.8351703,
      "direccion": null,
      "codigo_postal": null,
      "telefono": null,
      "web": null,
      "instagram": null,
      "horario": null,
      "terraza": false,
      "musica": null,
      "fuente": "openstreetmap"
    },
    {
      "id": "osm_node_10913918326",
      "nombre": "Melius Café",
      "tipo": "cafe",
      "lat": 40.3372711,
      "lon": -3.8296949,
      "direccion": null,
      "codigo_postal": null,
      "telefono": null,
      "web": null,
      "instagram": null,
      "horario": null,
      "terraza": false,
      "musica": null,
      "fuente": "openstreetmap"
    },
    {
      "id": "osm_node_11248458723",
      "nombre": "Kiriki Bar",
      "tipo": "pub",
      "lat": 40.3427514,
      "lon": -3.8282381,
      "direccion": null,
      "codigo_postal": null,
      "telefono": null,
      "web": null,
      "instagram": null,
      "horario": null,
      "terraza": false,
      "musica": null,
      "fuente": "openstreetmap"
    },
    {
      "id": "osm_node_11281077370",
      "nombre": "La Tasca 2",
      "tipo": "cafe",
      "lat": 40.3496191,
      "lon": -3.8097559,
      "direccion": "Calle Timanfaya",
      "codigo_postal": null,
      "telefono": null,
      "web": null,
      "instagram": null,
      "horario": null,
      "terraza": false,
      "musica": null,
      "fuente": "openstreetmap"
    },
    {
      "id": "osm_node_11435570350",
      "nombre": "Dublin 98",
      "tipo": "pub",
      "lat": 40.3494959,
      "lon": -3.8236827,
      "direccion": "Calle Jabonería 59",
      "codigo_postal": null,
      "telefono": null,
      "web": null,
      "instagram": null,
      "horario": null,
      "terraza": false,
      "musica": null,
      "fuente": "openstreetmap"
    },
    {
      "id": "osm_node_11435666913",
      "nombre": "Beerseker",
      "tipo": "pub",
      "lat": 40.3421531,
      "lon": -3.8200398,
      "direccion": "Calle de Polvoranca 66",
      "codigo_postal": null,
      "telefono": null,
      "web": null,
      "instagram": null,
      "horario": null,
      "terraza": false,
      "musica": null,
      "fuente": "openstreetmap"
    },
    {
      "id": "osm_node_11810077436",
      "nombre": "Calima",
      "tipo": "pub",
      "lat": 40.3445852,
      "lon": -3.8120965,
      "direccion": null,
      "codigo_postal": null,
      "telefono": null,
      "web": null,
      "instagram": null,
      "horario": null,
      "terraza": false,
      "musica": null,
      "fuente": "openstreetmap"
    },
    {
      "id": "osm_node_12121057101",
      "nombre": "La Tasca",
      "tipo": "bar",
      "lat": 40.3491189,
      "lon": -3.8096512,
      "direccion": "Calle Timanfaya",
      "codigo_postal": null,
      "telefono": null,
      "web": null,
      "instagram": null,
      "horario": null,
      "terraza": false,
      "musica": null,
      "fuente": "openstreetmap"
    },
    {
      "id": "osm_node_12229700035",
      "nombre": "Martonela",
      "tipo": "cafe",
      "lat": 40.3393627,
      "lon": -3.848486,
      "direccion": null,
      "codigo_postal": null,
      "telefono": null,
      "web": null,
      "instagram": null,
      "horario": null,
      "terraza": false,
      "musica": null,
      "fuente": "openstreetmap"
    },
    {
      "id": "osm_node_12444414200",
      "nombre": "Café-Bar Oasis Amélie",
      "tipo": "cafe",
      "lat": 40.3457033,
      "lon": -3.810663,
      "direccion": null,
      "codigo_postal": null,
      "telefono": null,
      "web": null,
      "instagram": null,
      "horario": null,
      "terraza": false,
      "musica": null,
      "fuente": "openstreetmap"
    },
    {
      "id": "osm_node_13019334967",
      "nombre": "Felipe",
      "tipo": "pub",
      "lat": 40.3512722,
      "lon": -3.8321975,
      "direccion": null,
      "codigo_postal": null,
      "telefono": null,
      "web": null,
      "instagram": null,
      "horario": null,
      "terraza": false,
      "musica": null,
      "fuente": "openstreetmap"
    },
    {
      "id": "osm_node_13609686409",
      "nombre": "Heladería Cafetería Fakin",
      "tipo": "cafe",
      "lat": 40.3378376,
      "lon": -3.8292059,
      "direccion": "Av. las Retamas, 63, 28922 Alcorcón, Madrid 63",
      "codigo_postal": null,
      "telefono": "+34916436923",
      "web": "https://heladeriacafeteriafakin.eatbu.com",
      "instagram": null,
      "horario": "Tu-Fr 08:30-13:00; Tu-Th 17:00-21:00; Fr 17:00-22:00; Sa 10:00-22:00; Su 10:00-21:00",
      "terraza": false,
      "musica": null,
      "fuente": "openstreetmap"
    },
    {
      "id": "osm_way_503362670",
      "nombre": "Acuario",
      "tipo": "cafe",
      "lat": 40.353327,
      "lon": -3.816538,
      "direccion": null,
      "codigo_postal": null,
      "telefono": null,
      "web": null,
      "instagram": null,
      "horario": null,
      "terraza": false,
      "musica": null,
      "fuente": "openstreetmap"
    }
  ]
}