{
  "ciudad": "Almería",
  "total": 714,
  "locales": [
    {
      "id": "osm_node_261654799",
      "nombre": "El Cortijo",
      "tipo": "bar",
      "lat": 37.1925055,
      "lon": -1.9803954,
      "direccion": null,
      "codigo_postal": null,
      "telefono": null,
      "web": null,
      "instagram": null,
      "horario": null,
      "terraza": false
    },
    {
      "id": "osm_node_261654842",
      "nombre": "El Paso",
      "tipo": "bar",
      "lat": 37.1923179,
      "lon": -1.9802211,
      "direccion": null,
      "codigo_postal": null,
      "telefono": null,
      "web": null,
      "instagram": null,
      "horario": null,
      "terraza": false
    },
    {
      "id": "osm_node_261654886",
      "nombre": "Bar Empalme",
      "tipo": "bar",
      "lat": 37.1919245,
      "lon": -1.9808299,
      "direccion": null,
      "codigo_postal": null,
      "telefono": null,
      "web": null,
      "instagram": null,
      "horario": null,
      "terraza": false
    },
    {
      "id": "osm_node_261654929",
      "nombre": "The Piano Bar",
      "tipo": "pub",
      "lat": 37.1542443,
      "lon": -1.8949629,
      "direccion": null,
      "codigo_postal": null,
      "telefono": null,
      "web": null,
      "instagram": null,
      "horario": null,
      "terraza": false
    },
    {
      "id": "osm_node_289882062",
      "nombre": "Cheers",
      "tipo": "cafe",
      "lat": 37.3558735,
      "lon": -2.2984587,
      "direccion": null,
      "codigo_postal": null,
      "telefono": null,
      "web": null,
      "instagram": null,
      "horario": null,
      "terraza": false
    },
    {
      "id": "osm_node_289882063",
      "nombre": "La Bodega",
      "tipo": "pub",
      "lat": 37.3557715,
      "lon": -2.298437,
      "direccion": null,
      "codigo_postal": null,
      "telefono": null,
      "web": null,
      "instagram": null,
      "horario": null,
      "terraza": false
    },
    {
      "id": "osm_node_290855803",
      "nombre": "Alexandra",
      "tipo": "cafe",
      "lat": 37.3556275,
      "lon": -2.295913,
      "direccion": "Avenida del Almanzora 12",
      "codigo_postal": "04860",
      "telefono": null,
      "web": null,
      "instagram": null,
      "horario": null,
      "terraza": false
    },
    {
      "id": "osm_node_290855816",
      "nombre": "Reina",
      "tipo": "cafe",
      "lat": 37.3550163,
      "lon": -2.2954948,
      "direccion": null,
      "codigo_postal": null,
      "telefono": null,
      "web": null,
      "instagram": null,
      "horario": null,
      "terraza": false
    },
    {
      "id": "osm_node_291072859",
      "nombre": "La Jaima",
      "tipo": "pub",
      "lat": 37.3548813,
      "lon": -2.2953253,
      "direccion": null,
      "codigo_postal": null,
      "telefono": null,
      "web": null,
      "instagram": null,
      "horario": null,
      "terraza": false
    },
    {
      "id": "osm_node_292727140",
      "nombre": "Taperia El Hogar",
      "tipo": "pub",
      "lat": 37.3343766,
      "lon": -2.3044024,
      "direccion": null,
      "codigo_postal": null,
      "telefono": null,
      "web": null,
      "instagram": null,
      "horario": null,
      "terraza": false
    },
    {
      "id": "osm_node_292727149",
      "nombre": "Pinky's",
      "tipo": "pub",
      "lat": 37.3354798,
      "lon": -2.3019563,
      "direccion": null,
      "codigo_postal": null,
      "telefono": null,
      "web": null,
      "instagram": null,
      "horario": null,
      "terraza": false
    },
    {
      "id": "osm_node_292734332",
      "nombre": "Consigliere Cafe Pub",
      "tipo": "pub",
      "lat": 37.3347938,
      "lon": -2.3015091,
      "direccion": null,
      "codigo_postal": null,
      "telefono": null,
      "web": null,
      "instagram": null,
      "horario": null,
      "terraza": false
    },
    {
      "id": "osm_node_292747207",
      "nombre": "Taberna McCoy",
      "tipo": "pub",
      "lat": 37.3340631,
      "lon": -2.3022351,
      "direccion": null,
      "codigo_postal": null,
      "telefono": null,
      "web": null,
      "instagram": null,
      "horario": null,
      "terraza": false
    },
    {
      "id": "osm_node_293459361",
      "nombre": "El Playa",
      "tipo": "pub",
      "lat": 36.9392014,
      "lon": -1.9342358,
      "direccion": null,
      "codigo_postal": null,
      "telefono": null,
      "web": null,
      "instagram": null,
      "horario": null,
      "terraza": false
    },
    {
      "id": "osm_node_294278581",
      "nombre": "Cafetería Yoli",
      "tipo": "cafe",
      "lat": 37.3567812,
      "lon": -2.3006533,
      "direccion": null,
      "codigo_postal": null,
      "telefono": null,
      "web": null,
      "instagram": null,
      "horario": null,
      "terraza": false
    },
    {
      "id": "osm_node_294278601",
      "nombre": "Hechizo",
      "tipo": "pub",
      "lat": 37.3565237,
      "lon": -2.2991131,
      "direccion": null,
      "codigo_postal": null,
      "telefono": null,
      "web": null,
      "instagram": null,
      "horario": null,
      "terraza": false
    },
    {
      "id": "osm_node_294960984",
      "nombre": "Banana",
      "tipo": "cafe",
      "lat": 37.3593874,
      "lon": -2.2663299,
      "direccion": null,
      "codigo_postal": null,
      "telefono": null,
      "web": null,
      "instagram": null,
      "horario": null,
      "terraza": false
    },
    {
      "id": "osm_node_294960986",
      "nombre": "Minibar",
      "tipo": "pub",
      "lat": 37.3593809,
      "lon": -2.2662038,
      "direccion": null,
      "codigo_postal": null,
      "telefono": null,
      "web": null,
      "instagram": null,
      "horario": null,
      "terraza": false
    },
    {
      "id": "osm_node_294960987",
      "nombre": "2mm",
      "tipo": "cafe",
      "lat": 37.3593552,
      "lon": -2.2660505,
      "direccion": null,
      "codigo_postal": null,
      "telefono": null,
      "web": null,
      "instagram": null,
      "horario": null,
      "terraza": false
    },
    {
      "id": "osm_node_294960989",
      "nombre": "Eclipse",
      "tipo": "pub",
      "lat": 37.3592147,
      "lon": -2.2653348,
      "direccion": null,
      "codigo_postal": null,
      "telefono": null,
      "web": null,
      "instagram": null,
      "horario": null,
      "terraza": false
    },
    {
      "id": "osm_node_295523618",
      "nombre": "Templo de Horus",
      "tipo": "pub",
      "lat": 37.3536953,
      "lon": -2.2960852,
      "direccion": null,
      "codigo_postal": null,
      "telefono": null,
      "web": null,
      "instagram": null,
      "horario": null,
      "terraza": false
    },
    {
      "id": "osm_node_298019058",
      "nombre": "La Parada",
      "tipo": "pub",
      "lat": 36.8381778,
      "lon": -2.465744,
      "direccion": null,
      "codigo_postal": null,
      "telefono": null,
      "web": null,
      "instagram": null,
      "horario": null,
      "terraza": false
    },
    {
      "id": "osm_node_377068726",
      "nombre": "El Paniajo",
      "tipo": "bar",
      "lat": 37.2154144,
      "lon": -2.0236401,
      "direccion": null,
      "codigo_postal": null,
      "telefono": null,
      "web": null,
      "instagram": null,
      "horario": null,
      "terraza": false
    },
    {
      "id": "osm_node_378350752",
      "nombre": "La Montaña",
      "tipo": "bar",
      "lat": 37.2026695,
      "lon": -2.01016,
      "direccion": null,
      "codigo_postal": null,
      "telefono": null,
      "web": null,
      "instagram": null,
      "horario": null,
      "terraza": false
    },
    {
      "id": "osm_node_439236076",
      "nombre": "Cafetería Pastelería Hernández",
      "tipo": "cafe",
      "lat": 36.8351772,
      "lon": -2.4455687,
      "direccion": null,
      "codigo_postal": null,
      "telefono": null,
      "web": null,
      "instagram": null,
      "horario": null,
      "terraza": false
    },
    {
      "id": "osm_node_439236504",
      "nombre": "Boulevard Café",
      "tipo": "cafe",
      "lat": 36.8422145,
      "lon": -2.4468902,
      "direccion": null,
      "codigo_postal": null,
      "telefono": null,
      "web": null,
      "instagram": null,
      "horario": null,
      "terraza": false
    },
    {
      "id": "osm_node_440752611",
      "nombre": "Soda",
      "tipo": "cafe",
      "lat": 36.8314509,
      "lon": -2.4437187,
      "direccion": null,
      "codigo_postal": null,
      "telefono": null,
      "web": null,
      "instagram": null,
      "horario": null,
      "terraza": false
    },
    {
      "id": "osm_node_440752652",
      "nombre": "Boston",
      "tipo": "cafe",
      "lat": 36.828792,
      "lon": -2.4459762,
      "direccion": null,
      "codigo_postal": null,
      "telefono": null,
      "web": null,
      "instagram": null,
      "horario": null,
      "terraza": false
    },
    {
      "id": "osm_node_441236298",
      "nombre": "Mombasa",
      "tipo": "cafe",
      "lat": 36.8372147,
      "lon": -2.4342286,
      "direccion": null,
      "codigo_postal": null,
      "telefono": null,
      "web": null,
      "instagram": null,
      "horario": null,
      "terraza": false
    },
    {
      "id": "osm_node_443691782",
      "nombre": "La Habana",
      "tipo": "cafe",
      "lat": 36.829667,
      "lon": -2.4522657,
      "direccion": null,
      "codigo_postal": null,
      "telefono": null,
      "web": null,
      "instagram": null,
      "horario": null,
      "terraza": false
    },
    {
      "id": "osm_node_452058225",
      "nombre": "La Mara",
      "tipo": "bar",
      "lat": 36.8274005,
      "lon": -2.4515595,
      "direccion": null,
      "codigo_postal": null,
      "telefono": null,
      "web": null,
      "instagram": null,
      "horario": null,
      "terraza": false
    },
    {
      "id": "osm_node_504044076",
      "nombre": "El 340",
      "tipo": "cafe",
      "lat": 36.846718,
      "lon": -2.0408485,
      "direccion": "Calle Santa Bárbara 42",
      "codigo_postal": "04115",
      "telefono": "+34 680 402 855",
      "web": null,
      "instagram": null,
      "horario": "24/7, Mo-Su 12:00-24:00",
      "terraza": true
    },
    {
      "id": "osm_node_965997529",
      "nombre": "Q Café",
      "tipo": "cafe",
      "lat": 36.829932,
      "lon": -2.4431357,
      "direccion": null,
      "codigo_postal": null,
      "telefono": null,
      "web": null,
      "instagram": null,
      "horario": null,
      "terraza": false
    },
    {
      "id": "osm_node_975927743",
      "nombre": "Humanidades",
      "tipo": "cafe",
      "lat": 36.8297327,
      "lon": -2.404293,
      "direccion": null,
      "codigo_postal": null,
      "telefono": null,
      "web": null,
      "instagram": null,
      "horario": null,
      "terraza": false
    },
    {
      "id": "osm_node_975928504",
      "nombre": "Edificio Central",
      "tipo": "cafe",
      "lat": 36.8290027,
      "lon": -2.4028768,
      "direccion": null,
      "codigo_postal": null,
      "telefono": null,
      "web": null,
      "instagram": null,
      "horario": null,
      "terraza": false
    },
    {
      "id": "osm_node_999512945",
      "nombre": "Cuore",
      "tipo": "pub",
      "lat": 36.8389137,
      "lon": -2.4648084,
      "direccion": null,
      "codigo_postal": null,
      "telefono": null,
      "web": null,
      "instagram": null,
      "horario": null,
      "terraza": false
    },
    {
      "id": "osm_node_1045118182",
      "nombre": "Paso Doble",
      "tipo": "pub",
      "lat": 37.2253718,
      "lon": -1.8018302,
      "direccion": null,
      "codigo_postal": null,
      "telefono": null,
      "web": null,
      "instagram": null,
      "horario": null,
      "terraza": false
    },
    {
      "id": "osm_node_1092056523",
      "nombre": "Buena Vista",
      "tipo": "pub",
      "lat": 37.113931,
      "lon": -1.9181217,
      "direccion": null,
      "codigo_postal": null,
      "telefono": null,
      "web": null,
      "instagram": null,
      "horario": null,
      "terraza": false
    },
    {
      "id": "osm_node_1092314576",
      "nombre": "El Gato",
      "tipo": "pub",
      "lat": 37.2505056,
      "lon": -1.7701241,
      "direccion": null,
      "codigo_postal": null,
      "telefono": null,
      "web": null,
      "instagram": null,
      "horario": null,
      "terraza": false
    },
    {
      "id": "osm_node_1092315256",
      "nombre": "La Plaza",
      "tipo": "cafe",
      "lat": 37.2505223,
      "lon": -1.7696577,
      "direccion": null,
      "codigo_postal": "04616",
      "telefono": null,
      "web": null,
      "instagram": null,
      "horario": null,
      "terraza": false
    },
    {
      "id": "osm_node_1172453747",
      "nombre": "Route 66 Café",
      "tipo": "pub",
      "lat": 37.3555715,
      "lon": -2.2953226,
      "direccion": null,
      "codigo_postal": null,
      "telefono": null,
      "web": null,
      "instagram": null,
      "horario": null,
      "terraza": false
    },
    {
      "id": "osm_node_1478091908",
      "nombre": "Bar Dolar",
      "tipo": "pub",
      "lat": 37.1992725,
      "lon": -1.8146937,
      "direccion": null,
      "codigo_postal": null,
      "telefono": null,
      "web": null,
      "instagram": null,
      "horario": null,
      "terraza": false
    },
    {
      "id": "osm_node_1478091922",
      "nombre": "Millionaires",
      "tipo": "pub",
      "lat": 37.1980156,
      "lon": -1.8140671,
      "direccion": null,
      "codigo_postal": null,
      "telefono": null,
      "web": null,
      "instagram": null,
      "horario": null,
      "terraza": false
    },
    {
      "id": "osm_node_1531454878",
      "nombre": "Bar Chispa",
      "tipo": "cafe",
      "lat": 37.1748289,
      "lon": -2.1250937,
      "direccion": null,
      "codigo_postal": null,
      "telefono": null,
      "web": null,
      "instagram": null,
      "horario": null,
      "terraza": false
    },
    {
      "id": "osm_node_1630355719",
      "nombre": "Pub Principal",
      "tipo": "pub",
      "lat": 37.3457492,
      "lon": -2.4411846,
      "direccion": null,
      "codigo_postal": null,
      "telefono": null,
      "web": null,
      "instagram": null,
      "horario": null,
      "terraza": false
    },
    {
      "id": "osm_node_1640534339",
      "nombre": "Gintonic",
      "tipo": "pub",
      "lat": 37.3452322,
      "lon": -2.440582,
      "direccion": null,
      "codigo_postal": null,
      "telefono": null,
      "web": null,
      "instagram": null,
      "horario": null,
      "terraza": false
    },
    {
      "id": "osm_node_1640534342",
      "nombre": "Bar Carpetas",
      "tipo": "bar",
      "lat": 37.3446377,
      "lon": -2.4413706,
      "direccion": null,
      "codigo_postal": null,
      "telefono": null,
      "web": null,
      "instagram": null,
      "horario": null,
      "terraza": false
    },
    {
      "id": "osm_node_1640534347",
      "nombre": "Ababeli",
      "tipo": "bar",
      "lat": 37.3454045,
      "lon": -2.4389051,
      "direccion": null,
      "codigo_postal": null,
      "telefono": null,
      "web": null,
      "instagram": null,
      "horario": null,
      "terraza": false
    },
    {
      "id": "osm_node_1640534363",
      "nombre": "Café Central",
      "tipo": "cafe",
      "lat": 37.3453201,
      "lon": -2.4376016,
      "direccion": null,
      "codigo_postal": null,
      "telefono": null,
      "web": null,
      "instagram": null,
      "horario": null,
      "terraza": false
    },
    {
      "id": "osm_node_1640534371",
      "nombre": "El rincón de la Pepi",
      "tipo": "bar",
      "lat": 37.3453038,
      "lon": -2.4392431,
      "direccion": null,
      "codigo_postal": null,
      "telefono": null,
      "web": null,
      "instagram": null,
      "horario": null,
      "terraza": false
    },
    {
      "id": "osm_node_1640534381",
      "nombre": "As de Copas",
      "tipo": "pub",
      "lat": 37.345167,
      "lon": -2.4381171,
      "direccion": null,
      "codigo_postal": null,
      "telefono": null,
      "web": null,
      "instagram": null,
      "horario": null,
      "terraza": false
    },
    {
      "id": "osm_node_1640572857",
      "nombre": "Bar la Piscina",
      "tipo": "bar",
      "lat": 37.3446554,
      "lon": -2.4333901,
      "direccion": null,
      "codigo_postal": null,
      "telefono": null,
      "web": null,
      "instagram": null,
      "horario": null,
      "terraza": false
    },
    {
      "id": "osm_node_1640577896",
      "nombre": "Bar el Portugués",
      "tipo": "bar",
      "lat": 37.3466093,
      "lon": -2.4319051,
      "direccion": null,
      "codigo_postal": null,
      "telefono": null,
      "web": null,
      "instagram": null,
      "horario": null,
      "terraza": false
    },
    {
      "id": "osm_node_1640577900",
      "nombre": "Avalon",
      "tipo": "pub",
      "lat": 37.3467021,
      "lon": -2.4317832,
      "direccion": null,
      "codigo_postal": null,
      "telefono": null,
      "web": null,
      "instagram": null,
      "horario": null,
      "terraza": false
    },
    {
      "id": "osm_node_1640577903",
      "nombre": "Café Luna",
      "tipo": "pub",
      "lat": 37.346774,
      "lon": -2.4315561,
      "direccion": null,
      "codigo_postal": null,
      "telefono": null,
      "web": null,
      "instagram": null,
      "horario": null,
      "terraza": false
    },
    {
      "id": "osm_node_1673415404",
      "nombre": "Las Piscinas",
      "tipo": "bar",
      "lat": 37.2160743,
      "lon": -2.0723461,
      "direccion": null,
      "codigo_postal": null,
      "telefono": null,
      "web": null,
      "instagram": null,
      "horario": null,
      "terraza": false
    },
    {
      "id": "osm_node_1675657603",
      "nombre": "La Plaza",
      "tipo": "bar",
      "lat": 37.2159068,
      "lon": -2.0668249,
      "direccion": null,
      "codigo_postal": null,
      "telefono": null,
      "web": null,
      "instagram": null,
      "horario": null,
      "terraza": false
    },
    {
      "id": "osm_node_1675781456",
      "nombre": "Pastelería Rafa",
      "tipo": "cafe",
      "lat": 37.3448882,
      "lon": -2.4388314,
      "direccion": null,
      "codigo_postal": null,
      "telefono": null,
      "web": null,
      "instagram": null,
      "horario": null,
      "terraza": false
    },
    {
      "id": "osm_node_1690160402",
      "nombre": "Los Chiveros",
      "tipo": "bar",
      "lat": 37.2153968,
      "lon": -2.0670046,
      "direccion": "Calle Álvarez de Sotomayor",
      "codigo_postal": null,
      "telefono": null,
      "web": null,
      "instagram": null,
      "horario": null,
      "terraza": false
    },
    {
      "id": "osm_node_1690160403",
      "nombre": "Las Delicias",
      "tipo": "bar",
      "lat": 37.2142317,
      "lon": -2.0658176,
      "direccion": null,
      "codigo_postal": null,
      "telefono": null,
      "web": null,
      "instagram": null,
      "horario": "Mo-Sa 06:30+",
      "terraza": false
    },
    {
      "id": "osm_node_1711191858",
      "nombre": "Bagua",
      "tipo": "bar",
      "lat": 36.8357821,
      "lon": -2.462408,
      "direccion": null,
      "codigo_postal": null,
      "telefono": null,
      "web": null,
      "instagram": null,
      "horario": null,
      "terraza": false
    },
    {
      "id": "osm_node_1711196938",
      "nombre": "Vhada",
      "tipo": "pub",
      "lat": 36.8380663,
      "lon": -2.4656251,
      "direccion": null,
      "codigo_postal": null,
      "telefono": null,
      "web": null,
      "instagram": null,
      "horario": null,
      "terraza": false
    },
    {
      "id": "osm_node_1711197085",
      "nombre": "Porrón",
      "tipo": "pub",
      "lat": 36.8379482,
      "lon": -2.4655607,
      "direccion": null,
      "codigo_postal": null,
      "telefono": null,
      "web": null,
      "instagram": null,
      "horario": null,
      "terraza": false
    },
    {
      "id": "osm_node_1711197535",
      "nombre": "Campanilla",
      "tipo": "pub",
      "lat": 36.8386395,
      "lon": -2.4648017,
      "direccion": null,
      "codigo_postal": null,
      "telefono": null,
      "web": null,
      "instagram": null,
      "horario": null,
      "terraza": false
    },
    {
      "id": "osm_node_1711197993",
      "nombre": "La chica de ayer",
      "tipo": "pub",
      "lat": 36.8388906,
      "lon": -2.4645978,
      "direccion": null,
      "codigo_postal": null,
      "telefono": null,
      "web": null,
      "instagram": null,
      "horario": null,
      "terraza": false
    },
    {
      "id": "osm_node_1711198215",
      "nombre": "Caramelo",
      "tipo": "bar",
      "lat": 36.8399446,
      "lon": -2.4642223,
      "direccion": null,
      "codigo_postal": null,
      "telefono": null,
      "web": null,
      "instagram": null,
      "horario": null,
      "terraza": false
    },
    {
      "id": "osm_node_1711201295",
      "nombre": "La Calle",
      "tipo": "pub",
      "lat": 36.8432244,
      "lon": -2.4581211,
      "direccion": null,
      "codigo_postal": null,
      "telefono": null,
      "web": null,
      "instagram": null,
      "horario": null,
      "terraza": false
    },
    {
      "id": "osm_node_1719197926",
      "nombre": "La Caverna",
      "tipo": "pub",
      "lat": 36.8469656,
      "lon": -2.4575578,
      "direccion": null,
      "codigo_postal": null,
      "telefono": null,
      "web": null,
      "instagram": null,
      "horario": null,
      "terraza": false
    },
    {
      "id": "osm_node_1781677461",
      "nombre": "Quiosco Amalia",
      "tipo": "bar",
      "lat": 36.8416724,
      "lon": -2.4643847,
      "direccion": null,
      "codigo_postal": null,
      "telefono": null,
      "web": null,
      "instagram": null,
      "horario": null,
      "terraza": true
    },
    {
      "id": "osm_node_1877872900",
      "nombre": "Nomar",
      "tipo": "cafe",
      "lat": 36.8317733,
      "lon": -2.4430566,
      "direccion": null,
      "codigo_postal": null,
      "telefono": null,
      "web": null,
      "instagram": null,
      "horario": null,
      "terraza": false
    },
    {
      "id": "osm_node_1921489437",
      "nombre": "Gastrobar Distrito",
      "tipo": "bar",
      "lat": 37.0983023,
      "lon": -2.1258674,
      "direccion": null,
      "codigo_postal": null,
      "telefono": null,
      "web": null,
      "instagram": null,
      "horario": null,
      "terraza": false
    },
    {
      "id": "osm_node_1921489496",
      "nombre": "Cafetería Caymar",
      "tipo": "cafe",
      "lat": 37.0982247,
      "lon": -2.1237378,
      "direccion": null,
      "codigo_postal": null,
      "telefono": null,
      "web": null,
      "instagram": null,
      "horario": null,
      "terraza": false
    },
    {
      "id": "osm_node_1921489556",
      "nombre": "Pub Candela",
      "tipo": "pub",
      "lat": 37.0973127,
      "lon": -2.1259794,
      "direccion": null,
      "codigo_postal": null,
      "telefono": null,
      "web": null,
      "instagram": null,
      "horario": null,
      "terraza": true
    },
    {
      "id": "osm_node_1921489568",
      "nombre": "Rincón El Bomba",
      "tipo": "cafe",
      "lat": 37.0950714,
      "lon": -2.1208253,
      "direccion": null,
      "codigo_postal": null,
      "telefono": "+34 671 23 23 93",
      "web": null,
      "instagram": null,
      "horario": null,
      "terraza": true
    },
    {
      "id": "osm_node_1957966501",
      "nombre": "Salon Social de Guainos",
      "tipo": "bar",
      "lat": 36.7471251,
      "lon": -3.0711639,
      "direccion": "Calle Torre Vigia 2",
      "codigo_postal": "04770",
      "telefono": "+34 622853105",
      "web": null,
      "instagram": null,
      "horario": null,
      "terraza": false
    },
    {
      "id": "osm_node_1993746096",
      "nombre": "Kiosco Luis Marín",
      "tipo": "cafe",
      "lat": 36.841196,
      "lon": -2.4495376,
      "direccion": null,
      "codigo_postal": null,
      "telefono": null,
      "web": null,
      "instagram": null,
      "horario": null,
      "terraza": false
    },
    {
      "id": "osm_node_1993746123",
      "nombre": "Karaoke Aqualung",
      "tipo": "bar",
      "lat": 36.8385879,
      "lon": -2.4472014,
      "direccion": null,
      "codigo_postal": null,
      "telefono": null,
      "web": null,
      "instagram": null,
      "horario": null,
      "terraza": false
    },
    {
      "id": "osm_node_2098296256",
      "nombre": "Bar de Jo",
      "tipo": "bar",
      "lat": 36.8019055,
      "lon": -2.0734763,
      "direccion": null,
      "codigo_postal": null,
      "telefono": null,
      "web": null,
      "instagram": null,
      "horario": null,
      "terraza": false
    },
    {
      "id": "osm_node_2135514909",
      "nombre": "Carma Café",
      "tipo": "pub",
      "lat": 36.8787939,
      "lon": -2.4388301,
      "direccion": null,
      "codigo_postal": null,
      "telefono": null,
      "web": null,
      "instagram": null,
      "horario": null,
      "terraza": false
    },
    {
      "id": "osm_node_2401702088",
      "nombre": "Café Bar Fernández",
      "tipo": "bar",
      "lat": 37.1416212,
      "lon": -2.7794603,
      "direccion": null,
      "codigo_postal": null,
      "telefono": null,
      "web": null,
      "instagram": null,
      "horario": null,
      "terraza": false
    },
    {
      "id": "osm_node_2409739695",
      "nombre": "Café Bar La Cueva",
      "tipo": "bar",
      "lat": 37.1437288,
      "lon": -2.777048,
      "direccion": null,
      "codigo_postal": null,
      "telefono": null,
      "web": null,
      "instagram": null,
      "horario": null,
      "terraza": false
    },
    {
      "id": "osm_node_2434602226",
      "nombre": "Rodríguez",
      "tipo": "pub",
      "lat": 36.9940331,
      "lon": -2.8899629,
      "direccion": null,
      "codigo_postal": null,
      "telefono": null,
      "web": null,
      "instagram": null,
      "horario": null,
      "terraza": true
    },
    {
      "id": "osm_node_2461006002",
      "nombre": "Teo",
      "tipo": "cafe",
      "lat": 36.7803805,
      "lon": -2.7755894,
      "direccion": null,
      "codigo_postal": null,
      "telefono": null,
      "web": null,
      "instagram": null,
      "horario": null,
      "terraza": false
    },
    {
      "id": "osm_node_2461015303",
      "nombre": "Marines",
      "tipo": "cafe",
      "lat": 36.7796422,
      "lon": -2.776379,
      "direccion": null,
      "codigo_postal": null,
      "telefono": null,
      "web": null,
      "instagram": null,
      "horario": null,
      "terraza": true
    },
    {
      "id": "osm_node_2493142594",
      "nombre": "Quiosco Alhambra",
      "tipo": "cafe",
      "lat": 36.8353852,
      "lon": -2.462747,
      "direccion": null,
      "codigo_postal": null,
      "telefono": null,
      "web": null,
      "instagram": null,
      "horario": null,
      "terraza": false
    },
    {
      "id": "osm_node_2493451830",
      "nombre": "El Rincón de Yebra",
      "tipo": "cafe",
      "lat": 36.8275808,
      "lon": -2.4520177,
      "direccion": null,
      "codigo_postal": null,
      "telefono": null,
      "web": null,
      "instagram": null,
      "horario": null,
      "terraza": false
    },
    {
      "id": "osm_node_2505145994",
      "nombre": "Dayma",
      "tipo": "cafe",
      "lat": 36.8253672,
      "lon": -2.4485777,
      "direccion": null,
      "codigo_postal": null,
      "telefono": null,
      "web": null,
      "instagram": null,
      "horario": null,
      "terraza": false
    },
    {
      "id": "osm_node_2509472079",
      "nombre": "Essencia",
      "tipo": "cafe",
      "lat": 36.8250047,
      "lon": -2.4479295,
      "direccion": null,
      "codigo_postal": null,
      "telefono": null,
      "web": null,
      "instagram": null,
      "horario": null,
      "terraza": false
    },
    {
      "id": "osm_node_2509500155",
      "nombre": "Mini Bar",
      "tipo": "bar",
      "lat": 36.8377307,
      "lon": -2.4617548,
      "direccion": null,
      "codigo_postal": null,
      "telefono": null,
      "web": null,
      "instagram": null,
      "horario": null,
      "terraza": false
    },
    {
      "id": "osm_node_2677837540",
      "nombre": "Las Palmas",
      "tipo": "cafe",
      "lat": 36.9951162,
      "lon": -1.8963488,
      "direccion": null,
      "codigo_postal": null,
      "telefono": null,
      "web": null,
      "instagram": null,
      "horario": null,
      "terraza": false
    },
    {
      "id": "osm_node_2679642589",
      "nombre": "Akaba",
      "tipo": "cafe",
      "lat": 36.9969378,
      "lon": -1.8941986,
      "direccion": null,
      "codigo_postal": null,
      "telefono": null,
      "web": null,
      "instagram": null,
      "horario": null,
      "terraza": false
    },
    {
      "id": "osm_node_2679642619",
      "nombre": "Fénix",
      "tipo": "bar",
      "lat": 36.9960707,
      "lon": -1.8957095,
      "direccion": null,
      "codigo_postal": null,
      "telefono": null,
      "web": null,
      "instagram": null,
      "horario": null,
      "terraza": false
    },
    {
      "id": "osm_node_2682643307",
      "nombre": "La Frontera",
      "tipo": "bar",
      "lat": 36.9991225,
      "lon": -1.8918488,
      "direccion": "4",
      "codigo_postal": null,
      "telefono": null,
      "web": null,
      "instagram": null,
      "horario": null,
      "terraza": false
    },
    {
      "id": "osm_node_2682643308",
      "nombre": "La Taberna",
      "tipo": "bar",
      "lat": 36.9964998,
      "lon": -1.892931,
      "direccion": null,
      "codigo_postal": null,
      "telefono": null,
      "web": null,
      "instagram": null,
      "horario": null,
      "terraza": false
    },
    {
      "id": "osm_node_2692615454",
      "nombre": "EL Bribón de la Habana",
      "tipo": "cafe",
      "lat": 36.8144589,
      "lon": -2.5621886,
      "direccion": null,
      "codigo_postal": null,
      "telefono": null,
      "web": null,
      "instagram": null,
      "horario": null,
      "terraza": false
    },
    {
      "id": "osm_node_2692616270",
      "nombre": "Karibe",
      "tipo": "bar",
      "lat": 36.8160801,
      "lon": -2.5623871,
      "direccion": null,
      "codigo_postal": null,
      "telefono": null,
      "web": null,
      "instagram": null,
      "horario": null,
      "terraza": false
    },
    {
      "id": "osm_node_2694316302",
      "nombre": "disco pub coconut",
      "tipo": "bar",
      "lat": 36.6986006,
      "lon": -2.7940037,
      "direccion": null,
      "codigo_postal": null,
      "telefono": null,
      "web": null,
      "instagram": null,
      "horario": null,
      "terraza": false
    },
    {
      "id": "osm_node_2694316315",
      "nombre": "Muelle Trece",
      "tipo": "bar",
      "lat": 36.6986565,
      "lon": -2.789047,
      "direccion": "Darsena Conde de Barcelona 2",
      "codigo_postal": null,
      "telefono": "+34647590190",
      "web": null,
      "instagram": null,
      "horario": "Mo-Su 12:00-23:00",
      "terraza": false
    },
    {
      "id": "osm_node_2694321690",
      "nombre": "CARBŌN Lounge Club",
      "tipo": "pub",
      "lat": 36.6982645,
      "lon": -2.7937946,
      "direccion": "Calle Draga 37",
      "codigo_postal": "04711",
      "telefono": null,
      "web": null,
      "instagram": null,
      "horario": null,
      "terraza": false
    },
    {
      "id": "osm_node_2961034232",
      "nombre": "Orinoco",
      "tipo": "cafe",
      "lat": 36.8244232,
      "lon": -2.446328,
      "direccion": null,
      "codigo_postal": null,
      "telefono": null,
      "web": null,
      "instagram": null,
      "horario": null,
      "terraza": false
    },
    {
      "id": "osm_node_3035103277",
      "nombre": "Royma",
      "tipo": "pub",
      "lat": 37.1845588,
      "lon": -2.2051953,
      "direccion": null,
      "codigo_postal": null,
      "telefono": null,
      "web": null,
      "instagram": null,
      "horario": null,
      "terraza": false
    },
    {
      "id": "osm_node_3035103278",
      "nombre": "Café Los arcos",
      "tipo": "cafe",
      "lat": 37.1842185,
      "lon": -2.2051182,
      "direccion": null,
      "codigo_postal": null,
      "telefono": null,
      "web": null,
      "instagram": null,
      "horario": null,
      "terraza": false
    },
    {
      "id": "osm_node_3035103282",
      "nombre": "Los Molinas",
      "tipo": "bar",
      "lat": 37.1845247,
      "lon": -2.2047448,
      "direccion": null,
      "codigo_postal": null,
      "telefono": null,
      "web": null,
      "instagram": null,
      "horario": null,
      "terraza": false
    },
    {
      "id": "osm_node_3035932404",
      "nombre": "Bar Joserra",
      "tipo": "bar",
      "lat": 37.2118767,
      "lon": -2.2415657,
      "direccion": null,
      "codigo_postal": null,
      "telefono": null,
      "web": null,
      "instagram": null,
      "horario": null,
      "terraza": false
    },
    {
      "id": "osm_node_3041536549",
      "nombre": "Cazadores",
      "tipo": "bar",
      "lat": 37.2277818,
      "lon": -2.2851064,
      "direccion": null,
      "codigo_postal": null,
      "telefono": null,
      "web": null,
      "instagram": null,
      "horario": null,
      "terraza": false
    },
    {
      "id": "osm_node_3041536557",
      "nombre": "Boliche",
      "tipo": "bar",
      "lat": 37.2276949,
      "lon": -2.2847535,
      "direccion": null,
      "codigo_postal": null,
      "telefono": null,
      "web": null,
      "instagram": null,
      "horario": null,
      "terraza": false
    },
    {
      "id": "osm_node_3047961535",
      "nombre": "Mesón la Plaza",
      "tipo": "bar",
      "lat": 37.0403869,
      "lon": -2.2012413,
      "direccion": null,
      "codigo_postal": null,
      "telefono": null,
      "web": null,
      "instagram": null,
      "horario": null,
      "terraza": false
    },
    {
      "id": "osm_node_3058987328",
      "nombre": "Bodega Punto de Encuentro",
      "tipo": "pub",
      "lat": 36.9403017,
      "lon": -2.1375091,
      "direccion": null,
      "codigo_postal": null,
      "telefono": null,
      "web": null,
      "instagram": null,
      "horario": null,
      "terraza": false
    },
    {
      "id": "osm_node_3075284484",
      "nombre": "Virgen de Fátima",
      "tipo": "cafe",
      "lat": 36.9638764,
      "lon": -2.2075992,
      "direccion": null,
      "codigo_postal": null,
      "telefono": null,
      "web": null,
      "instagram": null,
      "horario": null,
      "terraza": false
    },
    {
      "id": "osm_node_3075284485",
      "nombre": "El Gigante",
      "tipo": "bar",
      "lat": 36.9640741,
      "lon": -2.2075241,
      "direccion": null,
      "codigo_postal": null,
      "telefono": null,
      "web": null,
      "instagram": null,
      "horario": null,
      "terraza": false
    },
    {
      "id": "osm_node_3075284486",
      "nombre": "Villas de Níjar",
      "tipo": "bar",
      "lat": 36.9640247,
      "lon": -2.2076787,
      "direccion": null,
      "codigo_postal": null,
      "telefono": null,
      "web": null,
      "instagram": null,
      "horario": null,
      "terraza": false
    },
    {
      "id": "osm_node_3075284487",
      "nombre": "El Rinconcito",
      "tipo": "cafe",
      "lat": 36.964173,
      "lon": -2.2077803,
      "direccion": null,
      "codigo_postal": null,
      "telefono": null,
      "web": null,
      "instagram": null,
      "horario": null,
      "terraza": false
    },
    {
      "id": "osm_node_3075284489",
      "nombre": "Ortiz",
      "tipo": "bar",
      "lat": 36.9643353,
      "lon": -2.2076875,
      "direccion": null,
      "codigo_postal": null,
      "telefono": null,
      "web": null,
      "instagram": null,
      "horario": null,
      "terraza": false
    },
    {
      "id": "osm_node_3075292858",
      "nombre": "La Parada",
      "tipo": "bar",
      "lat": 36.9646128,
      "lon": -2.2078677,
      "direccion": null,
      "codigo_postal": null,
      "telefono": null,
      "web": null,
      "instagram": null,
      "horario": null,
      "terraza": false
    },
    {
      "id": "osm_node_3075292869",
      "nombre": "La Glorieta",
      "tipo": "bar",
      "lat": 36.9659716,
      "lon": -2.2064635,
      "direccion": null,
      "codigo_postal": null,
      "telefono": null,
      "web": null,
      "instagram": null,
      "horario": null,
      "terraza": false
    },
    {
      "id": "osm_node_3229561471",
      "nombre": "Gelateria Il Gelato",
      "tipo": "cafe",
      "lat": 36.7627563,
      "lon": -2.1082864,
      "direccion": null,
      "codigo_postal": null,
      "telefono": null,
      "web": null,
      "instagram": null,
      "horario": null,
      "terraza": false
    },
    {
      "id": "osm_node_3236008213",
      "nombre": "El Duende",
      "tipo": "bar",
      "lat": 36.7628193,
      "lon": -2.108352,
      "direccion": null,
      "codigo_postal": null,
      "telefono": null,
      "web": null,
      "instagram": null,
      "horario": null,
      "terraza": false
    },
    {
      "id": "osm_node_3359344448",
      "nombre": "Boha",
      "tipo": "bar",
      "lat": 36.7748894,
      "lon": -2.6095018,
      "direccion": "Pasaje Auditorio 5",
      "codigo_postal": "04740",
      "telefono": null,
      "web": null,
      "instagram": null,
      "horario": null,
      "terraza": false
    },
    {
      "id": "osm_node_3359344449",
      "nombre": "7",
      "tipo": "cafe",
      "lat": 36.7748515,
      "lon": -2.6093421,
      "direccion": "Pasaje Auditorio",
      "codigo_postal": "04740",
      "telefono": null,
      "web": null,
      "instagram": null,
      "horario": null,
      "terraza": true
    },
    {
      "id": "osm_node_3421310772",
      "nombre": "Cafetería Coimbra",
      "tipo": "cafe",
      "lat": 36.8408582,
      "lon": -2.4639172,
      "direccion": null,
      "codigo_postal": null,
      "telefono": null,
      "web": null,
      "instagram": null,
      "horario": null,
      "terraza": false
    },
    {
      "id": "osm_node_3421366852",
      "nombre": "Cornelia's",
      "tipo": "bar",
      "lat": 36.8404986,
      "lon": -2.4621838,
      "direccion": null,
      "codigo_postal": null,
      "telefono": null,
      "web": null,
      "instagram": null,
      "horario": null,
      "terraza": true
    },
    {
      "id": "osm_node_3421366870",
      "nombre": "Bar Habibi",
      "tipo": "bar",
      "lat": 36.8402195,
      "lon": -2.4621221,
      "direccion": null,
      "codigo_postal": null,
      "telefono": null,
      "web": null,
      "instagram": null,
      "horario": null,
      "terraza": true
    },
    {
      "id": "osm_node_3421378813",
      "nombre": "Bella Ciao Pub",
      "tipo": "pub",
      "lat": 36.8381337,
      "lon": -2.4653047,
      "direccion": null,
      "codigo_postal": null,
      "telefono": null,
      "web": null,
      "instagram": null,
      "horario": null,
      "terraza": false
    },
    {
      "id": "osm_node_3421381651",
      "nombre": "Demodé Pub",
      "tipo": "pub",
      "lat": 36.8378343,
      "lon": -2.4660517,
      "direccion": null,
      "codigo_postal": null,
      "telefono": null,
      "web": null,
      "instagram": null,
      "horario": null,
      "terraza": false
    },
    {
      "id": "osm_node_3421381843",
      "nombre": "Aguaviva",
      "tipo": "cafe",
      "lat": 36.8412767,
      "lon": -2.4636408,
      "direccion": null,
      "codigo_postal": null,
      "telefono": null,
      "web": null,
      "instagram": null,
      "horario": null,
      "terraza": true
    },
    {
      "id": "osm_node_3421401172",
      "nombre": "La Luna",
      "tipo": "pub",
      "lat": 36.8395195,
      "lon": -2.456335,
      "direccion": null,
      "codigo_postal": null,
      "telefono": null,
      "web": null,
      "instagram": null,
      "horario": null,
      "terraza": false
    },
    {
      "id": "osm_node_3473169253",
      "nombre": "La esquina",
      "tipo": "bar",
      "lat": 37.1442696,
      "lon": -2.7751501,
      "direccion": null,
      "codigo_postal": null,
      "telefono": null,
      "web": null,
      "instagram": null,
      "horario": null,
      "terraza": true
    },
    {
      "id": "osm_node_3547820379",
      "nombre": "Karaoke Ágora",
      "tipo": "pub",
      "lat": 36.765505,
      "lon": -2.8045078,
      "direccion": "Calle Las Lanzas 47",
      "codigo_postal": "04700",
      "telefono": null,
      "web": null,
      "instagram": null,
      "horario": null,
      "terraza": false
    },
    {
      "id": "osm_node_3707652266",
      "nombre": "Aljibe 19",
      "tipo": "bar",
      "lat": 36.9407609,
      "lon": -1.9332792,
      "direccion": null,
      "codigo_postal": null,
      "telefono": null,
      "web": null,
      "instagram": null,
      "horario": null,
      "terraza": false
    },
    {
      "id": "osm_node_3828544490",
      "nombre": "El Condado",
      "tipo": "bar",
      "lat": 36.9938109,
      "lon": -2.6598241,
      "direccion": null,
      "codigo_postal": null,
      "telefono": null,
      "web": null,
      "instagram": null,
      "horario": null,
      "terraza": false
    },
    {
      "id": "osm_node_3859814657",
      "nombre": "Los Tres Morales",
      "tipo": "bar",
      "lat": 37.3358682,
      "lon": -2.5972628,
      "direccion": null,
      "codigo_postal": null,
      "telefono": null,
      "web": null,
      "instagram": null,
      "horario": null,
      "terraza": false
    },
    {
      "id": "osm_node_3862490364",
      "nombre": "Bar Calipso",
      "tipo": "bar",
      "lat": 36.7631934,
      "lon": -2.6110808,
      "direccion": "Calle Romanila",
      "codigo_postal": null,
      "telefono": null,
      "web": null,
      "instagram": null,
      "horario": null,
      "terraza": false
    },
    {
      "id": "osm_node_4119437836",
      "nombre": "Chester Café",
      "tipo": "cafe",
      "lat": 36.837977,
      "lon": -2.4601106,
      "direccion": "Avenida de la Estación 2",
      "codigo_postal": "04005",
      "telefono": "+34 950 04 85 90",
      "web": null,
      "instagram": null,
      "horario": null,
      "terraza": true
    },
    {
      "id": "osm_node_4246005242",
      "nombre": "Taberna El Cortijo",
      "tipo": "bar",
      "lat": 37.0007211,
      "lon": -1.8911975,
      "direccion": "Avenida de Garrucha",
      "codigo_postal": null,
      "telefono": null,
      "web": null,
      "instagram": null,
      "horario": "Mo-Su 10:00-22:00",
      "terraza": false
    },
    {
      "id": "osm_node_4251330592",
      "nombre": "Viejo café de Manila",
      "tipo": "cafe",
      "lat": 36.8540583,
      "lon": -2.4449692,
      "direccion": "Calle Felipe II 44",
      "codigo_postal": null,
      "telefono": null,
      "web": null,
      "instagram": null,
      "horario": null,
      "terraza": false
    },
    {
      "id": "osm_node_4252184997",
      "nombre": "Oasis 55 coffee&drink",
      "tipo": "cafe",
      "lat": 36.8416015,
      "lon": -2.4645807,
      "direccion": "Plaza Manuel Pérez García ",
      "codigo_postal": null,
      "telefono": null,
      "web": null,
      "instagram": null,
      "horario": null,
      "terraza": true
    },
    {
      "id": "osm_node_4284887989",
      "nombre": "La Cava",
      "tipo": "bar",
      "lat": 36.837482,
      "lon": -2.463785,
      "direccion": null,
      "codigo_postal": null,
      "telefono": null,
      "web": null,
      "instagram": null,
      "horario": null,
      "terraza": true
    },
    {
      "id": "osm_node_4318551835",
      "nombre": "Carmelo",
      "tipo": "pub",
      "lat": 36.9942634,
      "lon": -2.8911889,
      "direccion": null,
      "codigo_postal": null,
      "telefono": null,
      "web": null,
      "instagram": null,
      "horario": null,
      "terraza": false
    },
    {
      "id": "osm_node_4321082822",
      "nombre": "Casa Paco Bar Restaurante",
      "tipo": "cafe",
      "lat": 37.4027847,
      "lon": -1.9417821,
      "direccion": "Calle de los Pinos",
      "codigo_postal": "04600",
      "telefono": null,
      "web": null,
      "instagram": null,
      "horario": null,
      "terraza": false
    },
    {
      "id": "osm_node_4322664691",
      "nombre": "Marea",
      "tipo": "pub",
      "lat": 36.7607999,
      "lon": -2.6062342,
      "direccion": "Calle José Ojeda",
      "codigo_postal": "04740",
      "telefono": null,
      "web": null,
      "instagram": null,
      "horario": null,
      "terraza": true
    },
    {
      "id": "osm_node_4323012031",
      "nombre": "Nuevo Gnomo's Bar Cafetería",
      "tipo": "cafe",
      "lat": 37.3906441,
      "lon": -1.9418655,
      "direccion": "Calle de las Monjas",
      "codigo_postal": "04600",
      "telefono": null,
      "web": null,
      "instagram": null,
      "horario": null,
      "terraza": false
    },
    {
      "id": "osm_node_4323048059",
      "nombre": "Café Pub M'apetan",
      "tipo": "pub",
      "lat": 37.3510661,
      "lon": -1.9895813,
      "direccion": null,
      "codigo_postal": null,
      "telefono": null,
      "web": null,
      "instagram": null,
      "horario": null,
      "terraza": false
    },
    {
      "id": "osm_node_4333655831",
      "nombre": "Las Cañas",
      "tipo": "pub",
      "lat": 37.39281,
      "lon": -1.9434936,
      "direccion": "Calle Mirador",
      "codigo_postal": "04600",
      "telefono": null,
      "web": null,
      "instagram": null,
      "horario": null,
      "terraza": false
    },
    {
      "id": "osm_node_4357653847",
      "nombre": "San-Seb Café",
      "tipo": "bar",
      "lat": 37.2154483,
      "lon": -2.066957,
      "direccion": "Calle Alvarez de Sotomayor",
      "codigo_postal": null,
      "telefono": null,
      "web": null,
      "instagram": null,
      "horario": null,
      "terraza": false
    },
    {
      "id": "osm_node_4357655500",
      "nombre": "Loro Azul Jazz",
      "tipo": "cafe",
      "lat": 37.1400966,
      "lon": -1.8522787,
      "direccion": null,
      "codigo_postal": null,
      "telefono": null,
      "web": null,
      "instagram": null,
      "horario": null,
      "terraza": false
    },
    {
      "id": "osm_node_4357955500",
      "nombre": "Taberna del Faro",
      "tipo": "pub",
      "lat": 36.8497489,
      "lon": -2.0331356,
      "direccion": null,
      "codigo_postal": null,
      "telefono": null,
      "web": null,
      "instagram": null,
      "horario": null,
      "terraza": false
    },
    {
      "id": "osm_node_4363688992",
      "nombre": "La Pinta",
      "tipo": "bar",
      "lat": 37.1851373,
      "lon": -1.8193078,
      "direccion": null,
      "codigo_postal": "04630",
      "telefono": null,
      "web": null,
      "instagram": null,
      "horario": null,
      "terraza": false
    },
    {
      "id": "osm_node_4384085594",
      "nombre": "Bar la Piscina",
      "tipo": "bar",
      "lat": 37.4791791,
      "lon": -2.15129,
      "direccion": null,
      "codigo_postal": null,
      "telefono": null,
      "web": null,
      "instagram": null,
      "horario": null,
      "terraza": false
    },
    {
      "id": "osm_node_4392849486",
      "nombre": "Bodega Bar",
      "tipo": "bar",
      "lat": 37.2160345,
      "lon": -2.0654558,
      "direccion": null,
      "codigo_postal": null,
      "telefono": null,
      "web": null,
      "instagram": null,
      "horario": null,
      "terraza": false
    },
    {
      "id": "osm_node_4395824526",
      "nombre": "Pub Eligeme",
      "tipo": "pub",
      "lat": 37.2949987,
      "lon": -2.2195494,
      "direccion": null,
      "codigo_postal": null,
      "telefono": null,
      "web": null,
      "instagram": null,
      "horario": null,
      "terraza": true
    },
    {
      "id": "osm_node_4396434225",
      "nombre": "Capri",
      "tipo": "bar",
      "lat": 37.2883754,
      "lon": -2.1810582,
      "direccion": null,
      "codigo_postal": null,
      "telefono": null,
      "web": null,
      "instagram": null,
      "horario": null,
      "terraza": false
    },
    {
      "id": "osm_node_4402339174",
      "nombre": "Miraflores",
      "tipo": "bar",
      "lat": 37.1844255,
      "lon": -1.9256751,
      "direccion": null,
      "codigo_postal": null,
      "telefono": null,
      "web": null,
      "instagram": null,
      "horario": null,
      "terraza": false
    },
    {
      "id": "osm_node_4408614491",
      "nombre": "CLÁSICO & MODERNO",
      "tipo": "cafe",
      "lat": 36.7725669,
      "lon": -2.6060605,
      "direccion": null,
      "codigo_postal": null,
      "telefono": null,
      "web": null,
      "instagram": null,
      "horario": null,
      "terraza": false
    },
    {
      "id": "osm_node_4414018948",
      "nombre": "Café Paseo",
      "tipo": "cafe",
      "lat": 36.8215064,
      "lon": -2.441956,
      "direccion": null,
      "codigo_postal": null,
      "telefono": null,
      "web": null,
      "instagram": null,
      "horario": null,
      "terraza": false
    },
    {
      "id": "osm_node_4414057558",
      "nombre": "Vértice",
      "tipo": "pub",
      "lat": 36.8384205,
      "lon": -2.4662844,
      "direccion": null,
      "codigo_postal": null,
      "telefono": null,
      "web": null,
      "instagram": null,
      "horario": null,
      "terraza": false
    },
    {
      "id": "osm_node_4414057564",
      "nombre": "Déja Vu",
      "tipo": "pub",
      "lat": 36.8380255,
      "lon": -2.4641708,
      "direccion": null,
      "codigo_postal": null,
      "telefono": null,
      "web": null,
      "instagram": null,
      "horario": null,
      "terraza": false
    },
    {
      "id": "osm_node_4414057569",
      "nombre": "Lupión",
      "tipo": "pub",
      "lat": 36.8376284,
      "lon": -2.4657694,
      "direccion": null,
      "codigo_postal": null,
      "telefono": null,
      "web": null,
      "instagram": null,
      "horario": null,
      "terraza": false
    },
    {
      "id": "osm_node_4414057576",
      "nombre": "Nacional Music Club",
      "tipo": "pub",
      "lat": 36.8365821,
      "lon": -2.4621239,
      "direccion": "Calle Marqués de Comillas 18",
      "codigo_postal": "04004",
      "telefono": null,
      "web": null,
      "instagram": null,
      "horario": null,
      "terraza": false
    },
    {
      "id": "osm_node_4414057580",
      "nombre": "Mamá Ya Lo Sabe",
      "tipo": "pub",
      "lat": 36.8382166,
      "lon": -2.4658767,
      "direccion": null,
      "codigo_postal": null,
      "telefono": null,
      "web": null,
      "instagram": null,
      "horario": null,
      "terraza": false
    },
    {
      "id": "osm_node_4414057581",
      "nombre": "Shambala",
      "tipo": "cafe",
      "lat": 36.8381737,
      "lon": -2.4618641,
      "direccion": null,
      "codigo_postal": null,
      "telefono": null,
      "web": null,
      "instagram": null,
      "horario": null,
      "terraza": false
    },
    {
      "id": "osm_node_4414057585",
      "nombre": "El Duende",
      "tipo": "pub",
      "lat": 36.8382552,
      "lon": -2.4660457,
      "direccion": null,
      "codigo_postal": null,
      "telefono": null,
      "web": null,
      "instagram": null,
      "horario": null,
      "terraza": false
    },
    {
      "id": "osm_node_4414057588",
      "nombre": "Guarapo",
      "tipo": "pub",
      "lat": 36.8388185,
      "lon": -2.4650222,
      "direccion": null,
      "codigo_postal": null,
      "telefono": null,
      "web": null,
      "instagram": null,
      "horario": null,
      "terraza": false
    },
    {
      "id": "osm_node_4414063789",
      "nombre": "Premium Pub Grand Café",
      "tipo": "pub",
      "lat": 36.8369479,
      "lon": -2.4621323,
      "direccion": null,
      "codigo_postal": null,
      "telefono": null,
      "web": null,
      "instagram": null,
      "horario": null,
      "terraza": false
    },
    {
      "id": "osm_node_4415765364",
      "nombre": "Andén",
      "tipo": "cafe",
      "lat": 36.835095,
      "lon": -2.4519414,
      "direccion": null,
      "codigo_postal": null,
      "telefono": null,
      "web": null,
      "instagram": null,
      "horario": null,
      "terraza": false
    },
    {
      "id": "osm_node_4415773959",
      "nombre": "Holidays",
      "tipo": "bar",
      "lat": 36.841921,
      "lon": -2.4518224,
      "direccion": null,
      "codigo_postal": null,
      "telefono": null,
      "web": null,
      "instagram": null,
      "horario": null,
      "terraza": false
    },
    {
      "id": "osm_node_4415773980",
      "nombre": "Roypa",
      "tipo": "cafe",
      "lat": 36.8396964,
      "lon": -2.4492769,
      "direccion": null,
      "codigo_postal": null,
      "telefono": null,
      "web": null,
      "instagram": null,
      "horario": null,
      "terraza": false
    },
    {
      "id": "osm_node_4417954385",
      "nombre": "72",
      "tipo": "cafe",
      "lat": 36.8310921,
      "lon": -2.44908,
      "direccion": null,
      "codigo_postal": null,
      "telefono": null,
      "web": null,
      "instagram": null,
      "horario": null,
      "terraza": false
    },
    {
      "id": "osm_node_4417986960",
      "nombre": "Angelo",
      "tipo": "cafe",
      "lat": 36.8285123,
      "lon": -2.4471906,
      "direccion": null,
      "codigo_postal": null,
      "telefono": null,
      "web": null,
      "instagram": null,
      "horario": null,
      "terraza": false
    },
    {
      "id": "osm_node_4417986968",
      "nombre": "Taberna Tercer Tiempo",
      "tipo": "pub",
      "lat": 36.8284801,
      "lon": -2.448081,
      "direccion": null,
      "codigo_postal": null,
      "telefono": null,
      "web": null,
      "instagram": null,
      "horario": null,
      "terraza": false
    },
    {
      "id": "osm_node_4419162722",
      "nombre": "Lorca 41 Retro Bar",
      "tipo": "cafe",
      "lat": 36.9626138,
      "lon": -2.2067434,
      "direccion": "Avenida de Federico García Lorca 41",
      "codigo_postal": null,
      "telefono": "+34 608 552 875",
      "web": null,
      "instagram": null,
      "horario": null,
      "terraza": false
    },
    {
      "id": "osm_node_4423450249",
      "nombre": "Café Bar Auditorio",
      "tipo": "cafe",
      "lat": 36.824142,
      "lon": -2.4452164,
      "direccion": null,
      "codigo_postal": null,
      "telefono": null,
      "web": null,
      "instagram": null,
      "horario": null,
      "terraza": false
    },
    {
      "id": "osm_node_4423450263",
      "nombre": "Café Bar Ronda-C",
      "tipo": "cafe",
      "lat": 36.8242687,
      "lon": -2.4452405,
      "direccion": null,
      "codigo_postal": null,
      "telefono": null,
      "web": null,
      "instagram": null,
      "horario": null,
      "terraza": false
    },
    {
      "id": "osm_node_4423987536",
      "nombre": "Café Estación",
      "tipo": "cafe",
      "lat": 36.8348793,
      "lon": -2.4554716,
      "direccion": null,
      "codigo_postal": null,
      "telefono": null,
      "web": null,
      "instagram": null,
      "horario": "Mo-Su,PH 05:30-21:00",
      "terraza": false
    },
    {
      "id": "osm_node_4425272571",
      "nombre": "Café Portillón",
      "tipo": "cafe",
      "lat": 36.8289572,
      "lon": -2.4513445,
      "direccion": null,
      "codigo_postal": null,
      "telefono": null,
      "web": null,
      "instagram": null,
      "horario": null,
      "terraza": false
    },
    {
      "id": "osm_node_4425272578",
      "nombre": "El Despacho III",
      "tipo": "cafe",
      "lat": 36.8289228,
      "lon": -2.451653,
      "direccion": null,
      "codigo_postal": null,
      "telefono": null,
      "web": null,
      "instagram": null,
      "horario": null,
      "terraza": false
    },
    {
      "id": "osm_node_4425821854",
      "nombre": "Entre tú y yo",
      "tipo": "cafe",
      "lat": 36.835819,
      "lon": -2.449794,
      "direccion": null,
      "codigo_postal": null,
      "telefono": null,
      "web": null,
      "instagram": null,
      "horario": null,
      "terraza": false
    },
    {
      "id": "osm_node_4425893174",
      "nombre": "Stress",
      "tipo": "cafe",
      "lat": 36.832841,
      "lon": -2.4494954,
      "direccion": null,
      "codigo_postal": null,
      "telefono": null,
      "web": null,
      "instagram": null,
      "horario": null,
      "terraza": false
    },
    {
      "id": "osm_node_4432670520",
      "nombre": "Cafetería El Indio",
      "tipo": "cafe",
      "lat": 36.8466614,
      "lon": -2.4414564,
      "direccion": null,
      "codigo_postal": null,
      "telefono": null,
      "web": null,
      "instagram": null,
      "horario": null,
      "terraza": false
    },
    {
      "id": "osm_node_4432671939",
      "nombre": "Cafetería Valverde",
      "tipo": "cafe",
      "lat": 36.8488014,
      "lon": -2.4632011,
      "direccion": null,
      "codigo_postal": null,
      "telefono": null,
      "web": null,
      "instagram": null,
      "horario": "Mo-Sa 08:00-23:30",
      "terraza": false
    },
    {
      "id": "osm_node_4432755533",
      "nombre": "Bar El Andaluz",
      "tipo": "pub",
      "lat": 36.8552912,
      "lon": -2.4549093,
      "direccion": null,
      "codigo_postal": null,
      "telefono": null,
      "web": null,
      "instagram": null,
      "horario": null,
      "terraza": false
    },
    {
      "id": "osm_node_4433077306",
      "nombre": "Bar Antoñica",
      "tipo": "cafe",
      "lat": 36.7809285,
      "lon": -2.2432487,
      "direccion": null,
      "codigo_postal": null,
      "telefono": null,
      "web": null,
      "instagram": null,
      "horario": null,
      "terraza": false
    },
    {
      "id": "osm_node_4433178844",
      "nombre": "La Salada",
      "tipo": "cafe",
      "lat": 36.8278097,
      "lon": -2.4462845,
      "direccion": null,
      "codigo_postal": null,
      "telefono": null,
      "web": null,
      "instagram": null,
      "horario": null,
      "terraza": false
    },
    {
      "id": "osm_node_4433178847",
      "nombre": "Churrería Ana y Rosa",
      "tipo": "cafe",
      "lat": 36.8265044,
      "lon": -2.4482184,
      "direccion": null,
      "codigo_postal": null,
      "telefono": null,
      "web": null,
      "instagram": null,
      "horario": null,
      "terraza": false
    },
    {
      "id": "osm_node_4435106640",
      "nombre": "Cafetería Presidente",
      "tipo": "cafe",
      "lat": 36.8317455,
      "lon": -2.4564241,
      "direccion": "Calle la Marina",
      "codigo_postal": "04007",
      "telefono": null,
      "web": null,
      "instagram": null,
      "horario": null,
      "terraza": false
    },
    {
      "id": "osm_node_4441353589",
      "nombre": "Café Colombia",
      "tipo": "cafe",
      "lat": 36.8350293,
      "lon": -2.4619854,
      "direccion": null,
      "codigo_postal": null,
      "telefono": null,
      "web": null,
      "instagram": null,
      "horario": null,
      "terraza": false
    },
    {
      "id": "osm_node_4441353689",
      "nombre": "VeraCruz",
      "tipo": "cafe",
      "lat": 36.8397834,
      "lon": -2.4608736,
      "direccion": null,
      "codigo_postal": null,
      "telefono": null,
      "web": null,
      "instagram": null,
      "horario": null,
      "terraza": false
    },
    {
      "id": "osm_node_4441572589",
      "nombre": "CIDU",
      "tipo": "cafe",
      "lat": 36.8281564,
      "lon": -2.406966,
      "direccion": null,
      "codigo_postal": null,
      "telefono": null,
      "web": null,
      "instagram": null,
      "horario": null,
      "terraza": false
    },
    {
      "id": "osm_node_4446231796",
      "nombre": "come en panaderia",
      "tipo": "cafe",
      "lat": 36.8394582,
      "lon": -2.4602893,
      "direccion": null,
      "codigo_postal": null,
      "telefono": null,
      "web": null,
      "instagram": null,
      "horario": null,
      "terraza": false
    },
    {
      "id": "osm_node_4446288289",
      "nombre": "el aroma",
      "tipo": "cafe",
      "lat": 36.8374919,
      "lon": -2.4641112,
      "direccion": null,
      "codigo_postal": null,
      "telefono": null,
      "web": null,
      "instagram": null,
      "horario": null,
      "terraza": false
    },
    {
      "id": "osm_node_4446288290",
      "nombre": "Parrilla Pasaje",
      "tipo": "cafe",
      "lat": 36.8380468,
      "lon": -2.4630323,
      "direccion": null,
      "codigo_postal": null,
      "telefono": null,
      "web": null,
      "instagram": null,
      "horario": null,
      "terraza": false
    },
    {
      "id": "osm_node_4448471318",
      "nombre": "Bay Bay Jaya",
      "tipo": "bar",
      "lat": 36.8379135,
      "lon": -2.4350527,
      "direccion": null,
      "codigo_postal": null,
      "telefono": null,
      "web": null,
      "instagram": null,
      "horario": null,
      "terraza": false
    },
    {
      "id": "osm_node_4448471319",
      "nombre": "Hadar",
      "tipo": "bar",
      "lat": 36.8372491,
      "lon": -2.4330518,
      "direccion": null,
      "codigo_postal": null,
      "telefono": null,
      "web": null,
      "instagram": null,
      "horario": null,
      "terraza": false
    },
    {
      "id": "osm_node_4448531592",
      "nombre": "Cantón",
      "tipo": "cafe",
      "lat": 36.8370033,
      "lon": -2.4396677,
      "direccion": null,
      "codigo_postal": null,
      "telefono": null,
      "web": null,
      "instagram": null,
      "horario": null,
      "terraza": false
    },
    {
      "id": "osm_node_4448537183",
      "nombre": "Cafetería Bar Alhamilla",
      "tipo": "cafe",
      "lat": 36.8424429,
      "lon": -2.4387767,
      "direccion": null,
      "codigo_postal": null,
      "telefono": null,
      "web": null,
      "instagram": null,
      "horario": null,
      "terraza": false
    },
    {
      "id": "osm_node_4448543897",
      "nombre": "Blue Martini",
      "tipo": "cafe",
      "lat": 36.8285769,
      "lon": -2.4517,
      "direccion": null,
      "codigo_postal": null,
      "telefono": null,
      "web": null,
      "instagram": null,
      "horario": null,
      "terraza": false
    },
    {
      "id": "osm_node_4450216744",
      "nombre": "Abrigo de las Colmenas",
      "tipo": "cafe",
      "lat": 37.6831171,
      "lon": -2.1015891,
      "direccion": null,
      "codigo_postal": null,
      "telefono": null,
      "web": null,
      "instagram": null,
      "horario": null,
      "terraza": false
    },
    {
      "id": "osm_node_4462752893",
      "nombre": "cafeteria living room",
      "tipo": "cafe",
      "lat": 36.7718072,
      "lon": -2.6090753,
      "direccion": "Avenida Reino de España 32",
      "codigo_postal": "04740",
      "telefono": "+34950324345",
      "web": null,
      "instagram": null,
      "horario": "Mo-Su 08:00-00:00",
      "terraza": false
    },
    {
      "id": "osm_node_4469362291",
      "nombre": "Cafetería Alborán",
      "tipo": "cafe",
      "lat": 36.8533595,
      "lon": -2.4282654,
      "direccion": null,
      "codigo_postal": null,
      "telefono": null,
      "web": null,
      "instagram": null,
      "horario": null,
      "terraza": false
    },
    {
      "id": "osm_node_4477620443",
      "nombre": "Romano's Pub",
      "tipo": "pub",
      "lat": 36.725008,
      "lon": -2.6251619,
      "direccion": null,
      "codigo_postal": null,
      "telefono": null,
      "web": null,
      "instagram": null,
      "horario": null,
      "terraza": false
    },
    {
      "id": "osm_node_4483430790",
      "nombre": "Thai Curry",
      "tipo": "cafe",
      "lat": 37.1374793,
      "lon": -1.8321936,
      "direccion": "Avenida de la Luz 14-72",
      "codigo_postal": "04638",
      "telefono": null,
      "web": null,
      "instagram": null,
      "horario": null,
      "terraza": false
    },
    {
      "id": "osm_node_4487153677",
      "nombre": "Museo Puertomaro",
      "tipo": "pub",
      "lat": 36.8451864,
      "lon": -2.4470706,
      "direccion": null,
      "codigo_postal": null,
      "telefono": null,
      "web": null,
      "instagram": null,
      "horario": null,
      "terraza": false
    },
    {
      "id": "osm_node_4487153683",
      "nombre": "Café-bar Avenida",
      "tipo": "cafe",
      "lat": 36.8448164,
      "lon": -2.4470653,
      "direccion": null,
      "codigo_postal": null,
      "telefono": null,
      "web": null,
      "instagram": null,
      "horario": null,
      "terraza": false
    },
    {
      "id": "osm_node_4496883965",
      "nombre": "La Suite",
      "tipo": "cafe",
      "lat": 36.8517382,
      "lon": -2.4476292,
      "direccion": null,
      "codigo_postal": null,
      "telefono": null,
      "web": null,
      "instagram": null,
      "horario": null,
      "terraza": false
    },
    {
      "id": "osm_node_4496896192",
      "nombre": "Dayamon",
      "tipo": "bar",
      "lat": 36.8517902,
      "lon": -2.4461296,
      "direccion": null,
      "codigo_postal": null,
      "telefono": null,
      "web": null,
      "instagram": null,
      "horario": null,
      "terraza": false
    },
    {
      "id": "osm_node_4496964486",
      "nombre": "Cafetería Los Pacos",
      "tipo": "cafe",
      "lat": 36.8381847,
      "lon": -2.4554453,
      "direccion": null,
      "codigo_postal": null,
      "telefono": null,
      "web": null,
      "instagram": null,
      "horario": null,
      "terraza": false
    },
    {
      "id": "osm_node_4496965510",
      "nombre": "Rosadaza café",
      "tipo": "cafe",
      "lat": 36.8401725,
      "lon": -2.4543268,
      "direccion": null,
      "codigo_postal": null,
      "telefono": null,
      "web": null,
      "instagram": null,
      "horario": null,
      "terraza": false
    },
    {
      "id": "osm_node_4496965520",
      "nombre": "Habibi",
      "tipo": "cafe",
      "lat": 36.8423427,
      "lon": -2.4527926,
      "direccion": null,
      "codigo_postal": null,
      "telefono": null,
      "web": null,
      "instagram": null,
      "horario": null,
      "terraza": false
    },
    {
      "id": "osm_node_4497673771",
      "nombre": "2mil6",
      "tipo": "cafe",
      "lat": 36.8380235,
      "lon": -2.4517919,
      "direccion": null,
      "codigo_postal": null,
      "telefono": null,
      "web": null,
      "instagram": null,
      "horario": null,
      "terraza": false
    },
    {
      "id": "osm_node_4497678847",
      "nombre": "tal como suena",
      "tipo": "cafe",
      "lat": 36.83848,
      "lon": -2.4489297,
      "direccion": null,
      "codigo_postal": null,
      "telefono": null,
      "web": null,
      "instagram": null,
      "horario": null,
      "terraza": false
    },
    {
      "id": "osm_node_4497678848",
      "nombre": "Museo El Quijote",
      "tipo": "cafe",
      "lat": 36.8384934,
      "lon": -2.4487709,
      "direccion": null,
      "codigo_postal": null,
      "telefono": null,
      "web": null,
      "instagram": null,
      "horario": null,
      "terraza": false
    },
    {
      "id": "osm_node_4498384277",
      "nombre": "La Dulce Alianza",
      "tipo": "cafe",
      "lat": 36.8381575,
      "lon": -2.4599306,
      "direccion": "Avenida de la Estación 1",
      "codigo_postal": "04005",
      "telefono": null,
      "web": "https://www.ladulcealianza.com/",
      "instagram": null,
      "horario": null,
      "terraza": true
    },
    {
      "id": "osm_node_4498427197",
      "nombre": "Tirso",
      "tipo": "cafe",
      "lat": 36.8369767,
      "lon": -2.457229,
      "direccion": null,
      "codigo_postal": null,
      "telefono": null,
      "web": null,
      "instagram": null,
      "horario": null,
      "terraza": true
    },
    {
      "id": "osm_node_4498459502",
      "nombre": "Córdoba",
      "tipo": "cafe",
      "lat": 36.8343846,
      "lon": -2.4587497,
      "direccion": null,
      "codigo_postal": null,
      "telefono": null,
      "web": null,
      "instagram": null,
      "horario": null,
      "terraza": false
    },
    {
      "id": "osm_node_4498459512",
      "nombre": "Entre horas",
      "tipo": "cafe",
      "lat": 36.8354494,
      "lon": -2.4590153,
      "direccion": null,
      "codigo_postal": null,
      "telefono": null,
      "web": null,
      "instagram": null,
      "horario": "Mo-Fr 07:30-17:00; Sa 08:30-14:00",
      "terraza": false
    },
    {
      "id": "osm_node_4498459514",
      "nombre": "Nevada",
      "tipo": "cafe",
      "lat": 36.8349338,
      "lon": -2.4585042,
      "direccion": null,
      "codigo_postal": null,
      "telefono": null,
      "web": null,
      "instagram": null,
      "horario": null,
      "terraza": false
    },
    {
      "id": "osm_node_4498459515",
      "nombre": "Arcos",
      "tipo": "cafe",
      "lat": 36.835014,
      "lon": -2.4587267,
      "direccion": null,
      "codigo_postal": null,
      "telefono": null,
      "web": null,
      "instagram": null,
      "horario": null,
      "terraza": false
    },
    {
      "id": "osm_node_4506632280",
      "nombre": "Los Pirineos",
      "tipo": "cafe",
      "lat": 36.8387381,
      "lon": -2.4497772,
      "direccion": null,
      "codigo_postal": null,
      "telefono": null,
      "web": null,
      "instagram": null,
      "horario": null,
      "terraza": false
    },
    {
      "id": "osm_node_4506632281",
      "nombre": "DKFé",
      "tipo": "cafe",
      "lat": 36.8387939,
      "lon": -2.4502312,
      "direccion": null,
      "codigo_postal": null,
      "telefono": null,
      "web": null,
      "instagram": null,
      "horario": null,
      "terraza": false
    },
    {
      "id": "osm_node_4506632283",
      "nombre": "Matilda Beer Good Vibes",
      "tipo": "pub",
      "lat": 36.8390083,
      "lon": -2.4513165,
      "direccion": null,
      "codigo_postal": null,
      "telefono": null,
      "web": null,
      "instagram": null,
      "horario": null,
      "terraza": true
    },
    {
      "id": "osm_node_4512148561",
      "nombre": "Café Pascana",
      "tipo": "cafe",
      "lat": 36.8350528,
      "lon": -2.4615254,
      "direccion": null,
      "codigo_postal": null,
      "telefono": null,
      "web": null,
      "instagram": null,
      "horario": "Mo-Fr 07:00-18:00; Su 05:30-18:00",
      "terraza": false
    },
    {
      "id": "osm_node_4512148562",
      "nombre": "La Cueva",
      "tipo": "pub",
      "lat": 36.8352729,
      "lon": -2.459691,
      "direccion": null,
      "codigo_postal": null,
      "telefono": null,
      "web": null,
      "instagram": null,
      "horario": "Mo-Su 16:00-24:00+",
      "terraza": false
    },
    {
      "id": "osm_node_4512148565",
      "nombre": "Lubrín",
      "tipo": "cafe",
      "lat": 36.8350346,
      "lon": -2.460214,
      "direccion": null,
      "codigo_postal": null,
      "telefono": null,
      "web": null,
      "instagram": null,
      "horario": null,
      "terraza": false
    },
    {
      "id": "osm_node_4512497612",
      "nombre": "Nela",
      "tipo": "cafe",
      "lat": 36.8376829,
      "lon": -2.4622438,
      "direccion": null,
      "codigo_postal": null,
      "telefono": null,
      "web": null,
      "instagram": null,
      "horario": null,
      "terraza": false
    },
    {
      "id": "osm_node_4512632836",
      "nombre": "Los Tulipanes",
      "tipo": "cafe",
      "lat": 36.839291,
      "lon": -2.457559,
      "direccion": null,
      "codigo_postal": null,
      "telefono": null,
      "web": null,
      "instagram": null,
      "horario": null,
      "terraza": false
    },
    {
      "id": "osm_node_4512831267",
      "nombre": "Nepenthe",
      "tipo": "cafe",
      "lat": 36.8388152,
      "lon": -2.4489909,
      "direccion": null,
      "codigo_postal": null,
      "telefono": null,
      "web": null,
      "instagram": null,
      "horario": null,
      "terraza": false
    },
    {
      "id": "osm_node_4512833528",
      "nombre": "Stanford 88",
      "tipo": "cafe",
      "lat": 36.8386177,
      "lon": -2.450783,
      "direccion": null,
      "codigo_postal": null,
      "telefono": null,
      "web": null,
      "instagram": null,
      "horario": null,
      "terraza": false
    },
    {
      "id": "osm_node_4512845953",
      "nombre": "Moonlight",
      "tipo": "cafe",
      "lat": 36.8390578,
      "lon": -2.4490342,
      "direccion": null,
      "codigo_postal": null,
      "telefono": null,
      "web": null,
      "instagram": null,
      "horario": null,
      "terraza": false
    },
    {
      "id": "osm_node_4512845954",
      "nombre": "Zahora",
      "tipo": "cafe",
      "lat": 36.839133,
      "lon": -2.4490476,
      "direccion": null,
      "codigo_postal": null,
      "telefono": null,
      "web": null,
      "instagram": null,
      "horario": null,
      "terraza": false
    },
    {
      "id": "osm_node_4513483241",
      "nombre": "Picos de Europa",
      "tipo": "cafe",
      "lat": 36.8380623,
      "lon": -2.4498673,
      "direccion": null,
      "codigo_postal": null,
      "telefono": null,
      "web": null,
      "instagram": null,
      "horario": null,
      "terraza": false
    },
    {
      "id": "osm_node_4514088339",
      "nombre": "Habana Cristal",
      "tipo": "cafe",
      "lat": 36.8382742,
      "lon": -2.4585747,
      "direccion": null,
      "codigo_postal": null,
      "telefono": null,
      "web": null,
      "instagram": null,
      "horario": null,
      "terraza": false
    },
    {
      "id": "osm_node_4514103597",
      "nombre": "Te-Gusta",
      "tipo": "cafe",
      "lat": 36.8391212,
      "lon": -2.4576946,
      "direccion": null,
      "codigo_postal": null,
      "telefono": null,
      "web": null,
      "instagram": null,
      "horario": null,
      "terraza": false
    },
    {
      "id": "osm_node_4514119949",
      "nombre": "Cattaleya",
      "tipo": "cafe",
      "lat": 36.8394976,
      "lon": -2.4577444,
      "direccion": null,
      "codigo_postal": null,
      "telefono": null,
      "web": null,
      "instagram": null,
      "horario": null,
      "terraza": false
    },
    {
      "id": "osm_node_4515994169",
      "nombre": "Chevalier",
      "tipo": "cafe",
      "lat": 36.8397087,
      "lon": -2.4615516,
      "direccion": null,
      "codigo_postal": null,
      "telefono": null,
      "web": null,
      "instagram": null,
      "horario": null,
      "terraza": false
    },
    {
      "id": "osm_node_4525081939",
      "nombre": "Loro Snack",
      "tipo": "cafe",
      "lat": 36.8413151,
      "lon": -2.450222,
      "direccion": null,
      "codigo_postal": null,
      "telefono": null,
      "web": null,
      "instagram": null,
      "horario": null,
      "terraza": false
    },
    {
      "id": "osm_node_4525087820",
      "nombre": "Rincón al Sur",
      "tipo": "cafe",
      "lat": 36.8412791,
      "lon": -2.4506442,
      "direccion": null,
      "codigo_postal": null,
      "telefono": null,
      "web": null,
      "instagram": null,
      "horario": null,
      "terraza": false
    },
    {
      "id": "osm_node_4582110742",
      "nombre": "Elena's Café",
      "tipo": "cafe",
      "lat": 36.8367058,
      "lon": -2.4556699,
      "direccion": null,
      "codigo_postal": null,
      "telefono": null,
      "web": null,
      "instagram": null,
      "horario": null,
      "terraza": false
    },
    {
      "id": "osm_node_4638644297",
      "nombre": "Bar Restaurante Rompeolas",
      "tipo": "bar",
      "lat": 36.7477584,
      "lon": -3.0341557,
      "direccion": "Avenida Poniente 15",
      "codigo_postal": "04770",
      "telefono": "+34 627587725",
      "web": null,
      "instagram": null,
      "horario": null,
      "terraza": false
    },
    {
      "id": "osm_node_4638645190",
      "nombre": "Cafe Bar La Habana",
      "tipo": "bar",
      "lat": 36.7582874,
      "lon": -2.9796345,
      "direccion": "Calle Carretera Antigua 1",
      "codigo_postal": "04770",
      "telefono": "+34 950568062",
      "web": null,
      "instagram": null,
      "horario": null,
      "terraza": false
    },
    {
      "id": "osm_node_4638647390",
      "nombre": "Taberna La Caracola",
      "tipo": "bar",
      "lat": 36.7480486,
      "lon": -3.0343758,
      "direccion": "Avenida Poniente 12",
      "codigo_postal": "04770",
      "telefono": "+34 605398018",
      "web": null,
      "instagram": null,
      "horario": "Fr-We 07:15-02:30",
      "terraza": false
    },
    {
      "id": "osm_node_4638647391",
      "nombre": "Cafe Bar Avenida",
      "tipo": "bar",
      "lat": 36.7479758,
      "lon": -3.033358,
      "direccion": "Avenida Poniente 10",
      "codigo_postal": "04770",
      "telefono": "+34 603158545",
      "web": null,
      "instagram": null,
      "horario": "Tu-Su 06:00-00:00",
      "terraza": false
    },
    {
      "id": "osm_node_4639379789",
      "nombre": "Cafeteria Area Sur",
      "tipo": "cafe",
      "lat": 36.7650473,
      "lon": -2.9857083,
      "direccion": "Autovía del Mediterráneo 391",
      "codigo_postal": "04770",
      "telefono": "+34 637331701",
      "web": null,
      "instagram": null,
      "horario": "Mo-Sa 06:00-00:00",
      "terraza": false
    },
    {
      "id": "osm_node_4639379790",
      "nombre": "Cibeles Cafetería",
      "tipo": "cafe",
      "lat": 36.7588045,
      "lon": -2.9789566,
      "direccion": "Calle Cibeles 1",
      "codigo_postal": "04770",
      "telefono": "+34 610054015",
      "web": null,
      "instagram": null,
      "horario": null,
      "terraza": false
    },
    {
      "id": "osm_node_4639476889",
      "nombre": "Cafetería Minerva",
      "tipo": "cafe",
      "lat": 36.7596144,
      "lon": -2.9739555,
      "direccion": "Calle Minerva 31",
      "codigo_postal": "04770",
      "telefono": "+34 655946899",
      "web": null,
      "instagram": null,
      "horario": "Mo-Su 06:00-18:00",
      "terraza": true
    },
    {
      "id": "osm_node_4640129596",
      "nombre": "Bodega El Labrador",
      "tipo": "bar",
      "lat": 36.7483504,
      "lon": -3.0041639,
      "direccion": "Carretera de Almería 95",
      "codigo_postal": "04770",
      "telefono": "+34 696769837",
      "web": null,
      "instagram": null,
      "horario": null,
      "terraza": false
    },
    {
      "id": "osm_node_4640255592",
      "nombre": "Taberna del Censo",
      "tipo": "bar",
      "lat": 36.748482,
      "lon": -3.0071049,
      "direccion": "Carretera de Almería 76",
      "codigo_postal": "04770",
      "telefono": "+34 950400319",
      "web": null,
      "instagram": null,
      "horario": null,
      "terraza": false
    },
    {
      "id": "osm_node_4640257997",
      "nombre": "Cafe Bar Isandrés",
      "tipo": "cafe",
      "lat": 36.7486827,
      "lon": -3.0062782,
      "direccion": "Carretera de Almería 71",
      "codigo_postal": "04770",
      "telefono": "+34 687721458",
      "web": null,
      "instagram": null,
      "horario": null,
      "terraza": false
    },
    {
      "id": "osm_node_4640258996",
      "nombre": "Bodega Ramón Pérez",
      "tipo": "bar",
      "lat": 36.7503434,
      "lon": -3.0114132,
      "direccion": "Calle Guatemala 6",
      "codigo_postal": "04770",
      "telefono": "+34 950560811",
      "web": null,
      "instagram": null,
      "horario": null,
      "terraza": false
    },
    {
      "id": "osm_node_4640259001",
      "nombre": "Los Gemelos Barrera",
      "tipo": "cafe",
      "lat": 36.7496586,
      "lon": -3.0132612,
      "direccion": "Calle San Sebastián 6",
      "codigo_postal": "04770",
      "telefono": "+34 685847689",
      "web": null,
      "instagram": null,
      "horario": null,
      "terraza": false
    },
    {
      "id": "osm_node_4640269790",
      "nombre": "Avanti",
      "tipo": "cafe",
      "lat": 36.7492772,
      "lon": -3.0102773,
      "direccion": "Carretera de Almería 35",
      "codigo_postal": "04770",
      "telefono": "+34 680638549",
      "web": null,
      "instagram": null,
      "horario": "Mo-Sa 09:00-23:00; Su 09:00-20:00",
      "terraza": true
    },
    {
      "id": "osm_node_4640269990",
      "nombre": "Cafe - Bar Abdera",
      "tipo": "cafe",
      "lat": 36.749227,
      "lon": -3.0120234,
      "direccion": "Carretera de Almería 20",
      "codigo_postal": "04770",
      "telefono": "+34 950402910",
      "web": null,
      "instagram": null,
      "horario": null,
      "terraza": true
    },
    {
      "id": "osm_node_4642330992",
      "nombre": "Bright Colours Irish Pub Guinness",
      "tipo": "pub",
      "lat": 36.7482807,
      "lon": -3.0132047,
      "direccion": "Calle Valdez Leal 7",
      "codigo_postal": "04770",
      "telefono": "+34 647833637",
      "web": null,
      "instagram": null,
      "horario": null,
      "terraza": false
    },
    {
      "id": "osm_node_4643085589",
      "nombre": "Tropicana Pub",
      "tipo": "pub",
      "lat": 36.7486388,
      "lon": -3.0135829,
      "direccion": "Calle Valdez Leal 7",
      "codigo_postal": "04770",
      "telefono": "+34 950560450",
      "web": null,
      "instagram": null,
      "horario": null,
      "terraza": false
    },
    {
      "id": "osm_node_4643085789",
      "nombre": "Bodega del Tapeo",
      "tipo": "bar",
      "lat": 36.7484992,
      "lon": -3.0140486,
      "direccion": "Calle Valdez Leal 6",
      "codigo_postal": "04770",
      "telefono": "+34 673683391",
      "web": null,
      "instagram": null,
      "horario": null,
      "terraza": false
    },
    {
      "id": "osm_node_4643088689",
      "nombre": "El Doblón",
      "tipo": "pub",
      "lat": 36.7473064,
      "lon": -3.0155162,
      "direccion": "Calle Paseo de los Tristes 36",
      "codigo_postal": "04770",
      "telefono": "+34 686841139",
      "web": null,
      "instagram": null,
      "horario": null,
      "terraza": true
    },
    {
      "id": "osm_node_4648623789",
      "nombre": "La taberna de Mami",
      "tipo": "bar",
      "lat": 36.7470118,
      "lon": -3.0150597,
      "direccion": "Calle El Greco 5",
      "codigo_postal": "04770",
      "telefono": "+34 679950027",
      "web": null,
      "instagram": null,
      "horario": null,
      "terraza": false
    },
    {
      "id": "osm_node_4649103897",
      "nombre": "Cafe Blacky",
      "tipo": "cafe",
      "lat": 36.7471005,
      "lon": -3.0157136,
      "direccion": "Calle Paseo de los Tristes 38",
      "codigo_postal": "04770",
      "telefono": null,
      "web": null,
      "instagram": null,
      "horario": null,
      "terraza": false
    },
    {
      "id": "osm_node_4649148890",
      "nombre": "Cafe Pub La Luna",
      "tipo": "cafe",
      "lat": 36.7470871,
      "lon": -3.0154663,
      "direccion": "Calle Paseo de los Tristes 39",
      "codigo_postal": "04770",
      "telefono": "+34 667013822",
      "web": null,
      "instagram": null,
      "horario": null,
      "terraza": false
    },
    {
      "id": "osm_node_4649264989",
      "nombre": "Bar Johanna",
      "tipo": "cafe",
      "lat": 36.7463882,
      "lon": -3.0161234,
      "direccion": "Calle Paseo de los Tristes 53",
      "codigo_postal": "04770",
      "telefono": "+34 950560848",
      "web": null,
      "instagram": null,
      "horario": null,
      "terraza": false
    },
    {
      "id": "osm_node_4649702190",
      "nombre": "Cafe Bar Bahía",
      "tipo": "cafe",
      "lat": 36.7458714,
      "lon": -3.016006,
      "direccion": "Avenida Mediterráneo 70",
      "codigo_postal": "04770",
      "telefono": "+34 634453301",
      "web": null,
      "instagram": null,
      "horario": null,
      "terraza": false
    },
    {
      "id": "osm_node_4649711390",
      "nombre": "Bodega Cafe La Alegría",
      "tipo": "cafe",
      "lat": 36.7459731,
      "lon": -3.0156821,
      "direccion": "Calle Jumilla 8",
      "codigo_postal": "04770",
      "telefono": "+34 627635742",
      "web": null,
      "instagram": null,
      "horario": null,
      "terraza": false
    },
    {
      "id": "osm_node_4650083699",
      "nombre": "Bar Restaurante El Malagueño",
      "tipo": "bar",
      "lat": 36.7478663,
      "lon": -3.015207,
      "direccion": "Calle Paseo de Navegantes 23",
      "codigo_postal": "04770",
      "telefono": null,
      "web": null,
      "instagram": null,
      "horario": null,
      "terraza": false
    },
    {
      "id": "osm_node_4650083702",
      "nombre": "Cafe de Luxe La Ramblilla",
      "tipo": "cafe",
      "lat": 36.7482639,
      "lon": -3.0151649,
      "direccion": "Rambla de las Cruces 11",
      "codigo_postal": "04770",
      "telefono": null,
      "web": null,
      "instagram": null,
      "horario": null,
      "terraza": false
    },
    {
      "id": "osm_node_4650083715",
      "nombre": "Bar Josemi",
      "tipo": "pub",
      "lat": 36.7479884,
      "lon": -3.0182174,
      "direccion": "Calle Carril de Cuenca 4",
      "codigo_postal": "04770",
      "telefono": "+34 950401010",
      "web": null,
      "instagram": null,
      "horario": null,
      "terraza": false
    },
    {
      "id": "osm_node_4650083716",
      "nombre": "Cafetería El Fenicio",
      "tipo": "cafe",
      "lat": 36.7483338,
      "lon": -3.0137313,
      "direccion": "Calle Valdez Leal 2",
      "codigo_postal": "04770",
      "telefono": "+34 689248961",
      "web": null,
      "instagram": null,
      "horario": null,
      "terraza": true
    },
    {
      "id": "osm_node_4650083718",
      "nombre": "Mesón La Torre",
      "tipo": "bar",
      "lat": 36.7483791,
      "lon": -3.0206585,
      "direccion": "Carrera de Natalio Rivas 110",
      "codigo_postal": "04770",
      "telefono": "+34 650402855",
      "web": null,
      "instagram": null,
      "horario": null,
      "terraza": false
    },
    {
      "id": "osm_node_4650115393",
      "nombre": "Bodega Gómez",
      "tipo": "bar",
      "lat": 36.746086,
      "lon": -3.0130699,
      "direccion": "Calle Ingenio 28",
      "codigo_postal": "04770",
      "telefono": "+34 630636708",
      "web": null,
      "instagram": null,
      "horario": null,
      "terraza": false
    },
    {
      "id": "osm_node_4650115394",
      "nombre": "Bar El Pajar",
      "tipo": "bar",
      "lat": 36.7459668,
      "lon": -3.0168559,
      "direccion": "Paseo Marítimo 3",
      "codigo_postal": "04770",
      "telefono": "+34 950401008",
      "web": null,
      "instagram": null,
      "horario": null,
      "terraza": false
    },
    {
      "id": "osm_node_4650115398",
      "nombre": "Coines Especialidad en Pescado",
      "tipo": "bar",
      "lat": 36.7481554,
      "lon": -3.0151307,
      "direccion": "Rambla de las Cruces 10",
      "codigo_postal": "04770",
      "telefono": "+34 950568869",
      "web": null,
      "instagram": null,
      "horario": null,
      "terraza": false
    },
    {
      "id": "osm_node_4650129594",
      "nombre": "Pub Big Ben",
      "tipo": "pub",
      "lat": 36.7463001,
      "lon": -3.0170099,
      "direccion": "Calle Fenicios 6",
      "codigo_postal": "04770",
      "telefono": "+34 657553192",
      "web": null,
      "instagram": null,
      "horario": null,
      "terraza": false
    },
    {
      "id": "osm_node_4650129609",
      "nombre": "Bar Emilio",
      "tipo": "bar",
      "lat": 36.7480793,
      "lon": -3.020415,
      "direccion": "Calle Cervantes 2",
      "codigo_postal": "04770",
      "telefono": "+34 950401600",
      "web": null,
      "instagram": null,
      "horario": null,
      "terraza": false
    },
    {
      "id": "osm_node_4650129611",
      "nombre": "Mesón Bonillo",
      "tipo": "bar",
      "lat": 36.7462385,
      "lon": -3.0153142,
      "direccion": "Calle Guadix 11",
      "codigo_postal": "04770",
      "telefono": "+34 950581412",
      "web": null,
      "instagram": null,
      "horario": null,
      "terraza": false
    },
    {
      "id": "osm_node_4650254193",
      "nombre": "Pastelería Virgen del Carmen",
      "tipo": "cafe",
      "lat": 36.7470607,
      "lon": -3.0167264,
      "direccion": "Calle Sirenas 11",
      "codigo_postal": "04770",
      "telefono": null,
      "web": null,
      "instagram": null,
      "horario": null,
      "terraza": false
    },
    {
      "id": "osm_node_4650270389",
      "nombre": "Bar Géminis",
      "tipo": "bar",
      "lat": 36.7442089,
      "lon": -3.0124424,
      "direccion": "Playa San Nicolas",
      "codigo_postal": "04770",
      "telefono": "+34 950402525",
      "web": null,
      "instagram": null,
      "horario": null,
      "terraza": false
    },
    {
      "id": "osm_node_4650270393",
      "nombre": "Bar Mohoso",
      "tipo": "bar",
      "lat": 36.7479888,
      "lon": -3.0249174,
      "direccion": "Calle Canarias 16",
      "codigo_postal": "04770",
      "telefono": "+34 950400253",
      "web": null,
      "instagram": null,
      "horario": "Mo-Fr 08:30-23:00",
      "terraza": false
    },
    {
      "id": "osm_node_4650270394",
      "nombre": "La Boca del Lobo",
      "tipo": "bar",
      "lat": 36.7478555,
      "lon": -3.0168252,
      "direccion": "Plaza Nereidas 11",
      "codigo_postal": "04770",
      "telefono": "+34 950933443",
      "web": null,
      "instagram": null,
      "horario": null,
      "terraza": false
    },
    {
      "id": "osm_node_4666357992",
      "nombre": "Rincon de gracia",
      "tipo": "bar",
      "lat": 36.732558,
      "lon": -2.6207704,
      "direccion": "Calle Alameda 77",
      "codigo_postal": "04740",
      "telefono": "+34 689304223",
      "web": null,
      "instagram": null,
      "horario": "Mo-Su 09:00-00:00",
      "terraza": false
    },
    {
      "id": "osm_node_4710066190",
      "nombre": "Ankara",
      "tipo": "bar",
      "lat": 36.6967601,
      "lon": -2.7892774,
      "direccion": null,
      "codigo_postal": null,
      "telefono": null,
      "web": null,
      "instagram": null,
      "horario": null,
      "terraza": false
    },
    {
      "id": "osm_node_4924156621",
      "nombre": "Los pitos",
      "tipo": "bar",
      "lat": 36.775874,
      "lon": -2.6082254,
      "direccion": null,
      "codigo_postal": null,
      "telefono": null,
      "web": null,
      "instagram": null,
      "horario": null,
      "terraza": false
    },
    {
      "id": "osm_node_4924475921",
      "nombre": "Los Mallorquines",
      "tipo": "bar",
      "lat": 36.8509363,
      "lon": -2.9407996,
      "direccion": "Plazeta de la Saliva",
      "codigo_postal": null,
      "telefono": null,
      "web": null,
      "instagram": null,
      "horario": null,
      "terraza": false
    },
    {
      "id": "osm_node_4924503321",
      "nombre": "La Brasa",
      "tipo": "bar",
      "lat": 36.8501318,
      "lon": -2.9352356,
      "direccion": null,
      "codigo_postal": null,
      "telefono": null,
      "web": null,
      "instagram": null,
      "horario": null,
      "terraza": false
    },
    {
      "id": "osm_node_4924535722",
      "nombre": "Azaña",
      "tipo": "cafe",
      "lat": 36.8434898,
      "lon": -2.4466739,
      "direccion": null,
      "codigo_postal": null,
      "telefono": null,
      "web": null,
      "instagram": null,
      "horario": null,
      "terraza": false
    },
    {
      "id": "osm_node_4924832821",
      "nombre": "El rincón del Vago",
      "tipo": "pub",
      "lat": 36.8383,
      "lon": -2.4661957,
      "direccion": null,
      "codigo_postal": null,
      "telefono": null,
      "web": null,
      "instagram": null,
      "horario": null,
      "terraza": false
    },
    {
      "id": "osm_node_4935415521",
      "nombre": "Ricomar",
      "tipo": "pub",
      "lat": 36.844151,
      "lon": -2.4470537,
      "direccion": null,
      "codigo_postal": null,
      "telefono": null,
      "web": null,
      "instagram": null,
      "horario": null,
      "terraza": false
    },
    {
      "id": "osm_node_5012993099",
      "nombre": "Fausto",
      "tipo": "bar",
      "lat": 36.8375207,
      "lon": -2.4556037,
      "direccion": null,
      "codigo_postal": null,
      "telefono": null,
      "web": null,
      "instagram": null,
      "horario": null,
      "terraza": false
    },
    {
      "id": "osm_node_5203106868",
      "nombre": "Café Maly",
      "tipo": "cafe",
      "lat": 36.8382008,
      "lon": -2.4585928,
      "direccion": null,
      "codigo_postal": null,
      "telefono": null,
      "web": null,
      "instagram": null,
      "horario": null,
      "terraza": false
    },
    {
      "id": "osm_node_5215760621",
      "nombre": "Bar Herminia",
      "tipo": "bar",
      "lat": 36.8528024,
      "lon": -2.3550905,
      "direccion": null,
      "codigo_postal": null,
      "telefono": null,
      "web": null,
      "instagram": null,
      "horario": null,
      "terraza": false
    },
    {
      "id": "osm_node_5221601022",
      "nombre": "Torre Marcelo",
      "tipo": "cafe",
      "lat": 36.8130555,
      "lon": -2.2333474,
      "direccion": null,
      "codigo_postal": null,
      "telefono": null,
      "web": null,
      "instagram": null,
      "horario": null,
      "terraza": false
    },
    {
      "id": "osm_node_5274791821",
      "nombre": "Marisquería Baviera",
      "tipo": "bar",
      "lat": 36.8411675,
      "lon": -2.4643704,
      "direccion": null,
      "codigo_postal": null,
      "telefono": null,
      "web": null,
      "instagram": null,
      "horario": "We-Mo 12:00-16:00,19:30-24:00",
      "terraza": false
    },
    {
      "id": "osm_node_5277348021",
      "nombre": "Bar tola Bar",
      "tipo": "bar",
      "lat": 37.2965831,
      "lon": -1.8796682,
      "direccion": null,
      "codigo_postal": null,
      "telefono": null,
      "web": null,
      "instagram": null,
      "horario": null,
      "terraza": false
    },
    {
      "id": "osm_node_5282919372",
      "nombre": "Cafeteria Balisa",
      "tipo": "pub",
      "lat": 36.955828,
      "lon": -2.127956,
      "direccion": null,
      "codigo_postal": null,
      "telefono": null,
      "web": null,
      "instagram": null,
      "horario": null,
      "terraza": false
    },
    {
      "id": "osm_node_5296343699",
      "nombre": "Bar El Cabo",
      "tipo": "bar",
      "lat": 36.7803608,
      "lon": -2.244976,
      "direccion": null,
      "codigo_postal": null,
      "telefono": null,
      "web": null,
      "instagram": null,
      "horario": null,
      "terraza": false
    },
    {
      "id": "osm_node_5300420986",
      "nombre": "La Chumbera",
      "tipo": "cafe",
      "lat": 36.8405792,
      "lon": -2.4664598,
      "direccion": "Calle Jovellanos 10",
      "codigo_postal": "04003",
      "telefono": "+34 616 78 10 35",
      "web": null,
      "instagram": null,
      "horario": null,
      "terraza": true
    },
    {
      "id": "osm_node_5526197821",
      "nombre": "Bar Hermoso",
      "tipo": "bar",
      "lat": 36.8293386,
      "lon": -2.4470291,
      "direccion": "úbeda 73",
      "codigo_postal": null,
      "telefono": "+34 950206572",
      "web": null,
      "instagram": null,
      "horario": null,
      "terraza": false
    },
    {
      "id": "osm_node_5600226485",
      "nombre": "VAM Bar",
      "tipo": "cafe",
      "lat": 36.8306276,
      "lon": -2.4555734,
      "direccion": "Plaza Balneario San Miguel",
      "codigo_postal": null,
      "telefono": null,
      "web": null,
      "instagram": null,
      "horario": null,
      "terraza": false
    },
    {
      "id": "osm_node_5606948977",
      "nombre": "Patri II",
      "tipo": "cafe",
      "lat": 36.8435007,
      "lon": -2.4490959,
      "direccion": "Carrera del Perú 84",
      "codigo_postal": "04006",
      "telefono": "+34 950 22 06 50",
      "web": null,
      "instagram": null,
      "horario": "Mo-Su 07:00-23:00",
      "terraza": true
    },
    {
      "id": "osm_node_5629961424",
      "nombre": "Bar piscina municipal",
      "tipo": "bar",
      "lat": 37.1936337,
      "lon": -2.4064665,
      "direccion": "carretera a bacare",
      "codigo_postal": null,
      "telefono": "+34 666647282",
      "web": null,
      "instagram": null,
      "horario": "Mo-Su 09:00-23:00",
      "terraza": false
    },
    {
      "id": "osm_node_5691321604",
      "nombre": "Cervecería Casa Miguel",
      "tipo": "bar",
      "lat": 36.8492561,
      "lon": -2.4498595,
      "direccion": "Calle Javier Verdejo 32",
      "codigo_postal": "04009",
      "telefono": "+34950087421",
      "web": null,
      "instagram": null,
      "horario": null,
      "terraza": false
    },
    {
      "id": "osm_node_5745900499",
      "nombre": "Impasto",
      "tipo": "bar",
      "lat": 36.8386256,
      "lon": -2.462004,
      "direccion": null,
      "codigo_postal": null,
      "telefono": null,
      "web": null,
      "instagram": null,
      "horario": null,
      "terraza": true
    },
    {
      "id": "osm_node_5745904852",
      "nombre": "La Bodeguilla",
      "tipo": "pub",
      "lat": 36.8381526,
      "lon": -2.4650493,
      "direccion": null,
      "codigo_postal": null,
      "telefono": null,
      "web": null,
      "instagram": null,
      "horario": null,
      "terraza": false
    },
    {
      "id": "osm_node_5808466855",
      "nombre": "3s c's",
      "tipo": "bar",
      "lat": 36.8413105,
      "lon": -2.3222291,
      "direccion": null,
      "codigo_postal": null,
      "telefono": null,
      "web": null,
      "instagram": null,
      "horario": "Su-Th 07:30-20:00; Fr-Sa 09:00-22:30",
      "terraza": false
    },
    {
      "id": "osm_node_5921525164",
      "nombre": "Chiringuito La Romanilla",
      "tipo": "pub",
      "lat": 36.7613633,
      "lon": -2.6061439,
      "direccion": "Paseo Martmo Playa de la Romanilla",
      "codigo_postal": "04740",
      "telefono": "+34 850990515",
      "web": "https://www.grupotracata.com/",
      "instagram": null,
      "horario": null,
      "terraza": false
    },
    {
      "id": "osm_node_5943316786",
      "nombre": "Los Cuatro",
      "tipo": "cafe",
      "lat": 37.1400033,
      "lon": -1.8477017,
      "direccion": "Calle de la Fuente 30",
      "codigo_postal": "04638",
      "telefono": null,
      "web": null,
      "instagram": null,
      "horario": null,
      "terraza": true
    },
    {
      "id": "osm_node_5966242154",
      "nombre": "Café Sugar",
      "tipo": "cafe",
      "lat": 36.8520584,
      "lon": -2.3528876,
      "direccion": null,
      "codigo_postal": null,
      "telefono": null,
      "web": null,
      "instagram": null,
      "horario": null,
      "terraza": false
    },
    {
      "id": "osm_node_5966298881",
      "nombre": "Patri",
      "tipo": "cafe",
      "lat": 36.8427875,
      "lon": -2.4546566,
      "direccion": null,
      "codigo_postal": null,
      "telefono": null,
      "web": null,
      "instagram": null,
      "horario": null,
      "terraza": false
    },
    {
      "id": "osm_node_5985271790",
      "nombre": "Cafe Bar El Colorin",
      "tipo": "cafe",
      "lat": 36.8528184,
      "lon": -2.3543855,
      "direccion": null,
      "codigo_postal": null,
      "telefono": null,
      "web": null,
      "instagram": null,
      "horario": null,
      "terraza": false
    },