{
  "ciudad": "Barakaldo",
  "total": 313,
  "locales": [
    {
      "id": "osm_node_633231572",
      "nombre": "Bar Pepe's",
      "tipo": "pub",
      "lat": 43.2824678,
      "lon": -2.9918466,
      "direccion": null,
      "codigo_postal": null,
      "telefono": null,
      "web": null,
      "instagram": null,
      "horario": null,
      "terraza": false
    },
    {
      "id": "osm_node_1458502464",
      "nombre": "Juanitoren Taberna",
      "tipo": "pub",
      "lat": 43.2903252,
      "lon": -2.9787478,
      "direccion": null,
      "codigo_postal": null,
      "telefono": null,
      "web": null,
      "instagram": null,
      "horario": null,
      "terraza": false
    },
    {
      "id": "osm_node_1459786588",
      "nombre": "Hermanos Bilbao Taberna",
      "tipo": "pub",
      "lat": 43.2905126,
      "lon": -2.9793487,
      "direccion": null,
      "codigo_postal": null,
      "telefono": null,
      "web": null,
      "instagram": null,
      "horario": null,
      "terraza": false
    },
    {
      "id": "osm_node_1459791960",
      "nombre": "Alicia",
      "tipo": "pub",
      "lat": 43.2902158,
      "lon": -2.9784903,
      "direccion": null,
      "codigo_postal": null,
      "telefono": null,
      "web": null,
      "instagram": null,
      "horario": null,
      "terraza": false
    },
    {
      "id": "osm_node_1985771491",
      "nombre": "Cafetería Gaudí",
      "tipo": "cafe",
      "lat": 43.2900794,
      "lon": -2.9980388,
      "direccion": null,
      "codigo_postal": null,
      "telefono": null,
      "web": null,
      "instagram": null,
      "horario": null,
      "terraza": true
    },
    {
      "id": "osm_node_1986648733",
      "nombre": "Bitarte",
      "tipo": "cafe",
      "lat": 43.2910997,
      "lon": -2.9940949,
      "direccion": null,
      "codigo_postal": null,
      "telefono": null,
      "web": null,
      "instagram": null,
      "horario": null,
      "terraza": false
    },
    {
      "id": "osm_node_2445881425",
      "nombre": "El Caserío",
      "tipo": "cafe",
      "lat": 43.2907527,
      "lon": -2.994885,
      "direccion": null,
      "codigo_postal": null,
      "telefono": "+34 944902712",
      "web": null,
      "instagram": null,
      "horario": null,
      "terraza": false
    },
    {
      "id": "osm_node_2470011810",
      "nombre": "Cafetería Txalupa",
      "tipo": "cafe",
      "lat": 43.2908427,
      "lon": -2.9920852,
      "direccion": null,
      "codigo_postal": null,
      "telefono": "+34 944850172",
      "web": null,
      "instagram": null,
      "horario": "Tu-Su 10:30-23:00",
      "terraza": false
    },
    {
      "id": "osm_node_2576849226",
      "nombre": "El Rincón de la Cerveza",
      "tipo": "bar",
      "lat": 43.2906857,
      "lon": -2.9983439,
      "direccion": null,
      "codigo_postal": null,
      "telefono": null,
      "web": null,
      "instagram": null,
      "horario": null,
      "terraza": false
    },
    {
      "id": "osm_node_2576849230",
      "nombre": "Bar Rosi",
      "tipo": "pub",
      "lat": 43.2903083,
      "lon": -2.9988358,
      "direccion": null,
      "codigo_postal": null,
      "telefono": null,
      "web": null,
      "instagram": null,
      "horario": null,
      "terraza": false
    },
    {
      "id": "osm_node_2576849231",
      "nombre": "Abad",
      "tipo": "pub",
      "lat": 43.2909992,
      "lon": -2.9972225,
      "direccion": null,
      "codigo_postal": null,
      "telefono": null,
      "web": null,
      "instagram": null,
      "horario": null,
      "terraza": false
    },
    {
      "id": "osm_node_2576849232",
      "nombre": "Apolo",
      "tipo": "pub",
      "lat": 43.2909027,
      "lon": -2.9971342,
      "direccion": null,
      "codigo_postal": null,
      "telefono": null,
      "web": null,
      "instagram": null,
      "horario": null,
      "terraza": false
    },
    {
      "id": "osm_node_2576849832",
      "nombre": "Salón de Juego Zuazo",
      "tipo": "cafe",
      "lat": 43.2908025,
      "lon": -2.9966714,
      "direccion": null,
      "codigo_postal": null,
      "telefono": null,
      "web": null,
      "instagram": null,
      "horario": "Mo-Su,PH 08:00-24:00",
      "terraza": false
    },
    {
      "id": "osm_node_2709163866",
      "nombre": "Bodegón Quiroga",
      "tipo": "pub",
      "lat": 43.2918499,
      "lon": -2.9903621,
      "direccion": "Calle Landaberri 4",
      "codigo_postal": "48902",
      "telefono": "+34 944955639",
      "web": null,
      "instagram": null,
      "horario": null,
      "terraza": false
    },
    {
      "id": "osm_node_2741033460",
      "nombre": "Ayala Café Bar",
      "tipo": "cafe",
      "lat": 43.2966225,
      "lon": -2.9860314,
      "direccion": null,
      "codigo_postal": null,
      "telefono": null,
      "web": null,
      "instagram": null,
      "horario": null,
      "terraza": false
    },
    {
      "id": "osm_node_2813334474",
      "nombre": "Ñam",
      "tipo": "cafe",
      "lat": 43.2964132,
      "lon": -3.0024775,
      "direccion": null,
      "codigo_postal": null,
      "telefono": null,
      "web": null,
      "instagram": null,
      "horario": null,
      "terraza": false
    },
    {
      "id": "osm_node_2879905053",
      "nombre": "Number One Cafe bar",
      "tipo": "cafe",
      "lat": 43.2906943,
      "lon": -2.9953582,
      "direccion": null,
      "codigo_postal": null,
      "telefono": null,
      "web": null,
      "instagram": null,
      "horario": null,
      "terraza": true
    },
    {
      "id": "osm_node_2879905054",
      "nombre": "Degustación Gozari",
      "tipo": "cafe",
      "lat": 43.2909164,
      "lon": -2.9951919,
      "direccion": null,
      "codigo_postal": null,
      "telefono": null,
      "web": null,
      "instagram": null,
      "horario": null,
      "terraza": false
    },
    {
      "id": "osm_node_2879905055",
      "nombre": "Degustación Itxaro Pena",
      "tipo": "cafe",
      "lat": 43.2911587,
      "lon": -2.9951634,
      "direccion": null,
      "codigo_postal": null,
      "telefono": null,
      "web": null,
      "instagram": null,
      "horario": null,
      "terraza": false
    },
    {
      "id": "osm_node_2879905056",
      "nombre": "Gure Etxea",
      "tipo": "pub",
      "lat": 43.2910371,
      "lon": -2.9949867,
      "direccion": null,
      "codigo_postal": null,
      "telefono": null,
      "web": null,
      "instagram": null,
      "horario": null,
      "terraza": false
    },
    {
      "id": "osm_node_2893533751",
      "nombre": "Bazkuna",
      "tipo": "pub",
      "lat": 43.2901041,
      "lon": -2.9963805,
      "direccion": null,
      "codigo_postal": null,
      "telefono": "+34 946038761",
      "web": null,
      "instagram": null,
      "horario": "Tu-Th 10:30-23:00; Fr-Su 11:30-01:00",
      "terraza": false
    },
    {
      "id": "osm_node_2893533752",
      "nombre": "Bar Mosquera",
      "tipo": "pub",
      "lat": 43.2900125,
      "lon": -2.9963289,
      "direccion": null,
      "codigo_postal": null,
      "telefono": null,
      "web": null,
      "instagram": null,
      "horario": null,
      "terraza": false
    },
    {
      "id": "osm_node_2893533756",
      "nombre": "Bar Txikitin",
      "tipo": "pub",
      "lat": 43.2900692,
      "lon": -2.9959517,
      "direccion": null,
      "codigo_postal": null,
      "telefono": null,
      "web": null,
      "instagram": null,
      "horario": null,
      "terraza": true
    },
    {
      "id": "osm_node_2917450715",
      "nombre": "Fer",
      "tipo": "cafe",
      "lat": 43.2915202,
      "lon": -2.9940906,
      "direccion": null,
      "codigo_postal": null,
      "telefono": "+34 665830229",
      "web": null,
      "instagram": null,
      "horario": null,
      "terraza": false
    },
    {
      "id": "osm_node_2917450716",
      "nombre": "Joseba",
      "tipo": "cafe",
      "lat": 43.2904864,
      "lon": -2.9941885,
      "direccion": "Plaza Cantabria 3",
      "codigo_postal": "48902",
      "telefono": null,
      "web": null,
      "instagram": null,
      "horario": null,
      "terraza": false
    },
    {
      "id": "osm_node_2917450717",
      "nombre": "Nogueira",
      "tipo": "cafe",
      "lat": 43.2919629,
      "lon": -2.9907752,
      "direccion": null,
      "codigo_postal": null,
      "telefono": null,
      "web": null,
      "instagram": null,
      "horario": null,
      "terraza": false
    },
    {
      "id": "osm_node_2917450718",
      "nombre": "Bar Fleming",
      "tipo": "pub",
      "lat": 43.2912705,
      "lon": -2.9929893,
      "direccion": null,
      "codigo_postal": null,
      "telefono": "+34 944850160",
      "web": null,
      "instagram": null,
      "horario": null,
      "terraza": false
    },
    {
      "id": "osm_node_2917465417",
      "nombre": "Café Adagio",
      "tipo": "cafe",
      "lat": 43.2892913,
      "lon": -2.9980166,
      "direccion": "Plaza López de Ayala 7",
      "codigo_postal": "48902",
      "telefono": null,
      "web": null,
      "instagram": null,
      "horario": null,
      "terraza": true
    },
    {
      "id": "osm_node_2917495120",
      "nombre": "Bar Eukene",
      "tipo": "pub",
      "lat": 43.2911881,
      "lon": -2.9929784,
      "direccion": null,
      "codigo_postal": null,
      "telefono": null,
      "web": null,
      "instagram": null,
      "horario": null,
      "terraza": false
    },
    {
      "id": "osm_node_2918405118",
      "nombre": "Garu",
      "tipo": "pub",
      "lat": 43.2906008,
      "lon": -2.9966228,
      "direccion": null,
      "codigo_postal": null,
      "telefono": null,
      "web": null,
      "instagram": null,
      "horario": "Tu-Su,PH 11:30-23:00",
      "terraza": false
    },
    {
      "id": "osm_node_2918431122",
      "nombre": "Café - Pub Geographic",
      "tipo": "cafe",
      "lat": 43.2909113,
      "lon": -2.9916178,
      "direccion": null,
      "codigo_postal": null,
      "telefono": null,
      "web": null,
      "instagram": null,
      "horario": "Fr 09:00-01:00; Sa 11:00-02:00; Su 11:00-23:00; Mo,We,Th 09:00-23:00",
      "terraza": false
    },
    {
      "id": "osm_node_2918431124",
      "nombre": "Pata Negra",
      "tipo": "pub",
      "lat": 43.2913245,
      "lon": -2.9940654,
      "direccion": null,
      "codigo_postal": null,
      "telefono": null,
      "web": null,
      "instagram": null,
      "horario": null,
      "terraza": false
    },
    {
      "id": "osm_node_2918441027",
      "nombre": "Bar Andrés",
      "tipo": "pub",
      "lat": 43.2903204,
      "lon": -2.9961105,
      "direccion": null,
      "codigo_postal": null,
      "telefono": null,
      "web": null,
      "instagram": null,
      "horario": null,
      "terraza": false
    },
    {
      "id": "osm_node_2918451743",
      "nombre": "Café Restaurante Obregón",
      "tipo": "cafe",
      "lat": 43.2909399,
      "lon": -2.9947145,
      "direccion": null,
      "codigo_postal": null,
      "telefono": null,
      "web": null,
      "instagram": null,
      "horario": null,
      "terraza": false
    },
    {
      "id": "osm_node_3084642636",
      "nombre": "Dehesa de Don Saturnino",
      "tipo": "pub",
      "lat": 43.2913531,
      "lon": -2.989607,
      "direccion": null,
      "codigo_postal": null,
      "telefono": null,
      "web": null,
      "instagram": null,
      "horario": null,
      "terraza": false
    },
    {
      "id": "osm_node_3125526977",
      "nombre": "La Cata",
      "tipo": "pub",
      "lat": 43.2957166,
      "lon": -2.9947262,
      "direccion": null,
      "codigo_postal": null,
      "telefono": null,
      "web": null,
      "instagram": null,
      "horario": null,
      "terraza": false
    },
    {
      "id": "osm_node_3126140387",
      "nombre": "Bar Miño",
      "tipo": "pub",
      "lat": 43.2921963,
      "lon": -2.9925837,
      "direccion": null,
      "codigo_postal": null,
      "telefono": null,
      "web": null,
      "instagram": null,
      "horario": "Mo-Su 06:00-23:00",
      "terraza": false
    },
    {
      "id": "osm_node_3126172614",
      "nombre": "Cafetería Alaska",
      "tipo": "cafe",
      "lat": 43.2919718,
      "lon": -2.9926525,
      "direccion": null,
      "codigo_postal": null,
      "telefono": "+34 944991594",
      "web": null,
      "instagram": null,
      "horario": null,
      "terraza": false
    },
    {
      "id": "osm_node_3127813124",
      "nombre": "Bar Regio",
      "tipo": "pub",
      "lat": 43.2920667,
      "lon": -2.9916143,
      "direccion": null,
      "codigo_postal": null,
      "telefono": null,
      "web": null,
      "instagram": null,
      "horario": null,
      "terraza": false
    },
    {
      "id": "osm_node_3127813125",
      "nombre": "Bar Santoña",
      "tipo": "pub",
      "lat": 43.2920569,
      "lon": -2.9917062,
      "direccion": null,
      "codigo_postal": null,
      "telefono": null,
      "web": null,
      "instagram": null,
      "horario": null,
      "terraza": false
    },
    {
      "id": "osm_node_3207058443",
      "nombre": "Danita's Bakery",
      "tipo": "cafe",
      "lat": 43.2968339,
      "lon": -2.9845759,
      "direccion": "Calle Arrontegi 4",
      "codigo_postal": null,
      "telefono": "+34 944078366",
      "web": null,
      "instagram": null,
      "horario": null,
      "terraza": false
    },
    {
      "id": "osm_node_3207723007",
      "nombre": "Zara",
      "tipo": "pub",
      "lat": 43.2926996,
      "lon": -2.9880975,
      "direccion": null,
      "codigo_postal": null,
      "telefono": null,
      "web": null,
      "instagram": null,
      "horario": null,
      "terraza": false
    },
    {
      "id": "osm_node_3377959054",
      "nombre": "Concorde",
      "tipo": "cafe",
      "lat": 43.2946603,
      "lon": -2.9880695,
      "direccion": null,
      "codigo_postal": null,
      "telefono": null,
      "web": null,
      "instagram": null,
      "horario": null,
      "terraza": false
    },
    {
      "id": "osm_node_3391061919",
      "nombre": "Café Friol",
      "tipo": "cafe",
      "lat": 43.2926437,
      "lon": -2.9915028,
      "direccion": null,
      "codigo_postal": null,
      "telefono": null,
      "web": null,
      "instagram": null,
      "horario": null,
      "terraza": false
    },
    {
      "id": "osm_node_3391061920",
      "nombre": "Arantxa",
      "tipo": "pub",
      "lat": 43.2922374,
      "lon": -2.9910087,
      "direccion": null,
      "codigo_postal": null,
      "telefono": "+34 671916052",
      "web": null,
      "instagram": null,
      "horario": null,
      "terraza": false
    },
    {
      "id": "osm_node_3434456116",
      "nombre": "Bar Mendialde",
      "tipo": "bar",
      "lat": 43.2839552,
      "lon": -2.9952047,
      "direccion": null,
      "codigo_postal": null,
      "telefono": null,
      "web": null,
      "instagram": null,
      "horario": null,
      "terraza": false
    },
    {
      "id": "osm_node_3446691336",
      "nombre": "Antonio",
      "tipo": "pub",
      "lat": 43.2904102,
      "lon": -2.9947382,
      "direccion": null,
      "codigo_postal": null,
      "telefono": null,
      "web": null,
      "instagram": null,
      "horario": null,
      "terraza": true
    },
    {
      "id": "osm_node_3457373583",
      "nombre": "Las Esperanzas",
      "tipo": "pub",
      "lat": 43.2902856,
      "lon": -3.0014913,
      "direccion": null,
      "codigo_postal": null,
      "telefono": null,
      "web": null,
      "instagram": null,
      "horario": null,
      "terraza": false
    },
    {
      "id": "osm_node_3507077935",
      "nombre": "Zelaia",
      "tipo": "cafe",
      "lat": 43.2925923,
      "lon": -2.9909624,
      "direccion": null,
      "codigo_postal": null,
      "telefono": null,
      "web": null,
      "instagram": null,
      "horario": null,
      "terraza": false
    },
    {
      "id": "osm_node_3523523493",
      "nombre": "Venecia",
      "tipo": "pub",
      "lat": 43.2986599,
      "lon": -2.9907086,
      "direccion": null,
      "codigo_postal": null,
      "telefono": "+34 944783088",
      "web": null,
      "instagram": null,
      "horario": null,
      "terraza": false
    },
    {
      "id": "osm_node_3556441064",
      "nombre": "Q-2",
      "tipo": "cafe",
      "lat": 43.2921194,
      "lon": -2.990757,
      "direccion": null,
      "codigo_postal": null,
      "telefono": "+34 946039726",
      "web": null,
      "instagram": null,
      "horario": null,
      "terraza": false
    },
    {
      "id": "osm_node_3556441065",
      "nombre": "Londres",
      "tipo": "pub",
      "lat": 43.2921204,
      "lon": -2.9907051,
      "direccion": null,
      "codigo_postal": null,
      "telefono": null,
      "web": null,
      "instagram": null,
      "horario": null,
      "terraza": false
    },
    {
      "id": "osm_node_3556441066",
      "nombre": "Bar Rubén",
      "tipo": "pub",
      "lat": 43.2921524,
      "lon": -2.9900659,
      "direccion": null,
      "codigo_postal": null,
      "telefono": null,
      "web": null,
      "instagram": null,
      "horario": null,
      "terraza": false
    },
    {
      "id": "osm_node_3556441076",
      "nombre": "Cafetería Bakene",
      "tipo": "cafe",
      "lat": 43.2926524,
      "lon": -2.9882745,
      "direccion": null,
      "codigo_postal": null,
      "telefono": null,
      "web": null,
      "instagram": null,
      "horario": null,
      "terraza": false
    },
    {
      "id": "osm_node_3618290877",
      "nombre": "Basajaun",
      "tipo": "cafe",
      "lat": 43.2990798,
      "lon": -2.9937064,
      "direccion": null,
      "codigo_postal": null,
      "telefono": null,
      "web": null,
      "instagram": null,
      "horario": null,
      "terraza": false
    },
    {
      "id": "osm_node_3620124349",
      "nombre": "Café Loizaga",
      "tipo": "cafe",
      "lat": 43.2833123,
      "lon": -2.996846,
      "direccion": null,
      "codigo_postal": null,
      "telefono": null,
      "web": null,
      "instagram": null,
      "horario": null,
      "terraza": false
    },
    {
      "id": "osm_node_3638909690",
      "nombre": "Cafetería Las Torres",
      "tipo": "cafe",
      "lat": 43.2915114,
      "lon": -3.0039284,
      "direccion": null,
      "codigo_postal": null,
      "telefono": null,
      "web": null,
      "instagram": null,
      "horario": null,
      "terraza": false
    },
    {
      "id": "osm_node_3639069680",
      "nombre": "Iluntze",
      "tipo": "cafe",
      "lat": 43.2907915,
      "lon": -2.9949556,
      "direccion": null,
      "codigo_postal": null,
      "telefono": "+34 946564974",
      "web": null,
      "instagram": null,
      "horario": "PH,Mo-Su 11:00-23:00",
      "terraza": false
    },
    {
      "id": "osm_node_3655642405",
      "nombre": "Aroletza",
      "tipo": "pub",
      "lat": 43.2917103,
      "lon": -2.9922411,
      "direccion": null,
      "codigo_postal": null,
      "telefono": null,
      "web": null,
      "instagram": null,
      "horario": null,
      "terraza": false
    },
    {
      "id": "osm_node_3661733293",
      "nombre": "La Jarra",
      "tipo": "pub",
      "lat": 43.2912698,
      "lon": -2.9918272,
      "direccion": null,
      "codigo_postal": null,
      "telefono": null,
      "web": null,
      "instagram": null,
      "horario": null,
      "terraza": true
    },
    {
      "id": "osm_node_3661745466",
      "nombre": "Atoo",
      "tipo": "pub",
      "lat": 43.2919741,
      "lon": -2.9905746,
      "direccion": null,
      "codigo_postal": null,
      "telefono": null,
      "web": null,
      "instagram": null,
      "horario": null,
      "terraza": false
    },
    {
      "id": "osm_node_3668813290",
      "nombre": "El Patio",
      "tipo": "cafe",
      "lat": 43.2944362,
      "lon": -2.9961072,
      "direccion": null,
      "codigo_postal": null,
      "telefono": null,
      "web": null,
      "instagram": null,
      "horario": null,
      "terraza": false
    },
    {
      "id": "osm_node_3668813293",
      "nombre": "Café Bahía",
      "tipo": "cafe",
      "lat": 43.2944974,
      "lon": -2.9956091,
      "direccion": null,
      "codigo_postal": null,
      "telefono": null,
      "web": null,
      "instagram": null,
      "horario": null,
      "terraza": false
    },
    {
      "id": "osm_node_3697324672",
      "nombre": "Igor",
      "tipo": "pub",
      "lat": 43.2640424,
      "lon": -3.0166593,
      "direccion": null,
      "codigo_postal": null,
      "telefono": null,
      "web": null,
      "instagram": null,
      "horario": null,
      "terraza": false
    },
    {
      "id": "osm_node_3697324674",
      "nombre": "Txikia",
      "tipo": "pub",
      "lat": 43.2644943,
      "lon": -3.0167221,
      "direccion": null,
      "codigo_postal": null,
      "telefono": null,
      "web": null,
      "instagram": null,
      "horario": null,
      "terraza": false
    },
    {
      "id": "osm_node_3697324930",
      "nombre": "Sociedad Cultural Gorostiza",
      "tipo": "bar",
      "lat": 43.2724971,
      "lon": -2.9949366,
      "direccion": null,
      "codigo_postal": null,
      "telefono": null,
      "web": null,
      "instagram": null,
      "horario": null,
      "terraza": false
    },
    {
      "id": "osm_node_3762668284",
      "nombre": "Enrique",
      "tipo": "pub",
      "lat": 43.2929713,
      "lon": -2.9871744,
      "direccion": "Lurkizaga kalea",
      "codigo_postal": null,
      "telefono": null,
      "web": null,
      "instagram": null,
      "horario": null,
      "terraza": false
    },
    {
      "id": "osm_node_3762758697",
      "nombre": "Porben",
      "tipo": "cafe",
      "lat": 43.2965501,
      "lon": -2.9889913,
      "direccion": null,
      "codigo_postal": null,
      "telefono": null,
      "web": null,
      "instagram": null,
      "horario": null,
      "terraza": false
    },
    {
      "id": "osm_node_3762758698",
      "nombre": "Café Urbi",
      "tipo": "cafe",
      "lat": 43.2967826,
      "lon": -2.9885459,
      "direccion": null,
      "codigo_postal": null,
      "telefono": null,
      "web": null,
      "instagram": null,
      "horario": null,
      "terraza": false
    },
    {
      "id": "osm_node_3762759026",
      "nombre": "El Palacete",
      "tipo": "cafe",
      "lat": 43.2955131,
      "lon": -2.9965825,
      "direccion": null,
      "codigo_postal": null,
      "telefono": null,
      "web": null,
      "instagram": null,
      "horario": null,
      "terraza": true
    },
    {
      "id": "osm_node_3762759030",
      "nombre": "Café Norte",
      "tipo": "cafe",
      "lat": 43.2964018,
      "lon": -2.9868089,
      "direccion": null,
      "codigo_postal": null,
      "telefono": null,
      "web": null,
      "instagram": null,
      "horario": "Mo-Fr 07:00-23:00; Sa,Su 09:00-23:00",
      "terraza": false
    },
    {
      "id": "osm_node_3797438027",
      "nombre": "Tempus Fugit",
      "tipo": "cafe",
      "lat": 43.2946601,
      "lon": -2.9887727,
      "direccion": null,
      "codigo_postal": null,
      "telefono": null,
      "web": null,
      "instagram": null,
      "horario": "Su-Th 07:30-23:00; Fr,Sa 07:30-02:00",
      "terraza": true
    },
    {
      "id": "osm_node_3797438029",
      "nombre": "Batzoki Barakaldo",
      "tipo": "bar",
      "lat": 43.2961005,
      "lon": -2.9867862,
      "direccion": null,
      "codigo_postal": null,
      "telefono": null,
      "web": null,
      "instagram": null,
      "horario": "Mo-Th 09:00-21:00; Fr 09:00-23:00; Sa 10:00-00:00; Su 10:00-20:00",
      "terraza": false
    },
    {
      "id": "osm_node_3850060433",
      "nombre": "Itxaro Café",
      "tipo": "cafe",
      "lat": 43.2840747,
      "lon": -2.9967209,
      "direccion": null,
      "codigo_postal": null,
      "telefono": null,
      "web": null,
      "instagram": null,
      "horario": null,
      "terraza": true
    },
    {
      "id": "osm_node_3850060740",
      "nombre": "Café Monterrey",
      "tipo": "cafe",
      "lat": 43.2839448,
      "lon": -2.996407,
      "direccion": null,
      "codigo_postal": null,
      "telefono": null,
      "web": null,
      "instagram": null,
      "horario": null,
      "terraza": true
    },
    {
      "id": "osm_node_3886120816",
      "nombre": "Eugenio",
      "tipo": "cafe",
      "lat": 43.2958061,
      "lon": -2.9988116,
      "direccion": null,
      "codigo_postal": null,
      "telefono": null,
      "web": null,
      "instagram": null,
      "horario": null,
      "terraza": false
    },
    {
      "id": "osm_node_3896802999",
      "nombre": "Atari",
      "tipo": "cafe",
      "lat": 43.2961535,
      "lon": -2.997982,
      "direccion": null,
      "codigo_postal": null,
      "telefono": null,
      "web": null,
      "instagram": null,
      "horario": null,
      "terraza": false
    },
    {
      "id": "osm_node_3896803293",
      "nombre": "Unión Sport",
      "tipo": "pub",
      "lat": 43.2959766,
      "lon": -2.998429,
      "direccion": null,
      "codigo_postal": null,
      "telefono": null,
      "web": null,
      "instagram": null,
      "horario": null,
      "terraza": false
    },
    {
      "id": "osm_node_3902782302",
      "nombre": "Cafetería Dastaleku",
      "tipo": "cafe",
      "lat": 43.2962294,
      "lon": -2.9967069,
      "direccion": null,
      "codigo_postal": null,
      "telefono": null,
      "web": null,
      "instagram": null,
      "horario": null,
      "terraza": false
    },
    {
      "id": "osm_node_3902801470",
      "nombre": "Bulevar 42",
      "tipo": "cafe",
      "lat": 43.289779,
      "lon": -2.996449,
      "direccion": null,
      "codigo_postal": null,
      "telefono": null,
      "web": null,
      "instagram": null,
      "horario": null,
      "terraza": false
    },
    {
      "id": "osm_node_3947372612",
      "nombre": "Bar Mendi",
      "tipo": "pub",
      "lat": 43.2974415,
      "lon": -2.9882561,
      "direccion": null,
      "codigo_postal": null,
      "telefono": null,
      "web": null,
      "instagram": null,
      "horario": null,
      "terraza": false
    },
    {
      "id": "osm_node_3947372613",
      "nombre": "La Tabernita del Ron",
      "tipo": "pub",
      "lat": 43.2972634,
      "lon": -2.9881594,
      "direccion": null,
      "codigo_postal": null,
      "telefono": null,
      "web": null,
      "instagram": null,
      "horario": null,
      "terraza": false
    },
    {
      "id": "osm_node_3953399862",
      "nombre": "Café Armonia",
      "tipo": "cafe",
      "lat": 43.2927248,
      "lon": -2.9911568,
      "direccion": null,
      "codigo_postal": null,
      "telefono": null,
      "web": null,
      "instagram": null,
      "horario": null,
      "terraza": false
    },
    {
      "id": "osm_node_3953413933",
      "nombre": "Bar Lombardía",
      "tipo": "bar",
      "lat": 43.2934353,
      "lon": -2.9899194,
      "direccion": null,
      "codigo_postal": null,
      "telefono": null,
      "web": null,
      "instagram": null,
      "horario": null,
      "terraza": false
    },
    {
      "id": "osm_node_3964855120",
      "nombre": "El Caserío",
      "tipo": "pub",
      "lat": 43.2947201,
      "lon": -2.9964484,
      "direccion": null,
      "codigo_postal": null,
      "telefono": null,
      "web": null,
      "instagram": null,
      "horario": null,
      "terraza": true
    },
    {
      "id": "osm_node_3964855699",
      "nombre": "Novelty",
      "tipo": "cafe",
      "lat": 43.2943077,
      "lon": -2.9911096,
      "direccion": null,
      "codigo_postal": null,
      "telefono": null,
      "web": null,
      "instagram": null,
      "horario": null,
      "terraza": false
    },
    {
      "id": "osm_node_3964857637",
      "nombre": "Cafetería Gotzone",
      "tipo": "cafe",
      "lat": 43.2964153,
      "lon": -2.9966085,
      "direccion": null,
      "codigo_postal": null,
      "telefono": null,
      "web": null,
      "instagram": null,
      "horario": null,
      "terraza": false
    },
    {
      "id": "osm_node_3964857642",
      "nombre": "New Sony",
      "tipo": "pub",
      "lat": 43.2967162,
      "lon": -2.9883772,
      "direccion": null,
      "codigo_postal": null,
      "telefono": null,
      "web": null,
      "instagram": null,
      "horario": null,
      "terraza": false
    },
    {
      "id": "osm_node_3973567179",
      "nombre": "Sans Serif",
      "tipo": "cafe",
      "lat": 43.2982338,
      "lon": -2.993125,
      "direccion": null,
      "codigo_postal": null,
      "telefono": null,
      "web": null,
      "instagram": null,
      "horario": null,
      "terraza": false
    },
    {
      "id": "osm_node_3974944668",
      "nombre": "Sollube",
      "tipo": "pub",
      "lat": 43.3002331,
      "lon": -2.9929545,
      "direccion": null,
      "codigo_postal": null,
      "telefono": null,
      "web": null,
      "instagram": null,
      "horario": null,
      "terraza": false
    },
    {
      "id": "osm_node_3978131134",
      "nombre": "Nilos",
      "tipo": "pub",
      "lat": 43.2972922,
      "lon": -2.9808547,
      "direccion": null,
      "codigo_postal": null,
      "telefono": null,
      "web": null,
      "instagram": null,
      "horario": null,
      "terraza": false
    },
    {
      "id": "osm_node_3978131135",
      "nombre": "Bar Tolo",
      "tipo": "pub",
      "lat": 43.2972274,
      "lon": -2.9807923,
      "direccion": null,
      "codigo_postal": null,
      "telefono": null,
      "web": null,
      "instagram": null,
      "horario": null,
      "terraza": false
    },
    {
      "id": "osm_node_3980758694",
      "nombre": "La Bodeguilla",
      "tipo": "pub",
      "lat": 43.2960703,
      "lon": -2.9899772,
      "direccion": null,
      "codigo_postal": null,
      "telefono": null,
      "web": null,
      "instagram": null,
      "horario": null,
      "terraza": false
    },
    {
      "id": "osm_node_3991339388",
      "nombre": "Manhattan",
      "tipo": "cafe",
      "lat": 43.2943055,
      "lon": -2.9908388,
      "direccion": null,
      "codigo_postal": null,
      "telefono": null,
      "web": null,
      "instagram": null,
      "horario": null,
      "terraza": false
    },
    {
      "id": "osm_node_4020349345",
      "nombre": "Sotera",
      "tipo": "pub",
      "lat": 43.2993939,
      "lon": -2.9928668,
      "direccion": null,
      "codigo_postal": null,
      "telefono": null,
      "web": null,
      "instagram": null,
      "horario": null,
      "terraza": false
    },
    {
      "id": "osm_node_4020349346",
      "nombre": "Degustación Santi",
      "tipo": "cafe",
      "lat": 43.299847,
      "lon": -2.9929417,
      "direccion": null,
      "codigo_postal": null,
      "telefono": null,
      "web": null,
      "instagram": null,
      "horario": null,
      "terraza": false
    },
    {
      "id": "osm_node_4020349352",
      "nombre": "Anezka Café Bar",
      "tipo": "cafe",
      "lat": 43.3021166,
      "lon": -2.9853798,
      "direccion": null,
      "codigo_postal": null,
      "telefono": null,
      "web": null,
      "instagram": null,
      "horario": null,
      "terraza": false
    },
    {
      "id": "osm_node_4020352876",
      "nombre": "Cafetería Cervecería La Fragua",
      "tipo": "cafe",
      "lat": 43.2830505,
      "lon": -2.995299,
      "direccion": null,
      "codigo_postal": null,
      "telefono": null,
      "web": null,
      "instagram": null,
      "horario": null,
      "terraza": false
    },
    {
      "id": "osm_node_4020352877",
      "nombre": "Café Ushuaia",
      "tipo": "cafe",
      "lat": 43.2847774,
      "lon": -2.9974277,
      "direccion": null,
      "codigo_postal": null,
      "telefono": null,
      "web": null,
      "instagram": null,
      "horario": null,
      "terraza": false
    },
    {
      "id": "osm_node_4021997480",
      "nombre": "Café Izarra",
      "tipo": "cafe",
      "lat": 43.2957729,
      "lon": -2.9885181,
      "direccion": null,
      "codigo_postal": null,
      "telefono": null,
      "web": null,
      "instagram": null,
      "horario": null,
      "terraza": false
    },
    {
      "id": "osm_node_4021998713",
      "nombre": "Chaplin",
      "tipo": "pub",
      "lat": 43.2970015,
      "lon": -2.9911617,
      "direccion": null,
      "codigo_postal": null,
      "telefono": null,
      "web": null,
      "instagram": null,
      "horario": null,
      "terraza": false
    },
    {
      "id": "osm_node_4025858403",
      "nombre": "Ale",
      "tipo": "pub",
      "lat": 43.2972405,
      "lon": -2.9914239,
      "direccion": null,
      "codigo_postal": null,
      "telefono": null,
      "web": null,
      "instagram": null,
      "horario": null,
      "terraza": false
    },
    {
      "id": "osm_node_4025858552",
      "nombre": "Gran Parada",
      "tipo": "cafe",
      "lat": 43.2956048,
      "lon": -2.9943603,
      "direccion": null,
      "codigo_postal": null,
      "telefono": null,
      "web": null,
      "instagram": null,
      "horario": null,
      "terraza": false
    },
    {
      "id": "osm_node_4025858555",
      "nombre": "Café Osiris",
      "tipo": "cafe",
      "lat": 43.2952835,
      "lon": -2.9964115,
      "direccion": null,
      "codigo_postal": null,
      "telefono": null,
      "web": null,
      "instagram": null,
      "horario": null,
      "terraza": true
    },
    {
      "id": "osm_node_4025858590",
      "nombre": "Chema's Bar",
      "tipo": "pub",
      "lat": 43.2972892,
      "lon": -2.9915719,
      "direccion": null,
      "codigo_postal": null,
      "telefono": null,
      "web": null,
      "instagram": null,
      "horario": null,
      "terraza": false
    },
    {
      "id": "osm_node_4061450134",
      "nombre": "Bar Jukia",
      "tipo": "pub",
      "lat": 43.2900222,
      "lon": -2.9957208,
      "direccion": null,
      "codigo_postal": null,
      "telefono": null,
      "web": null,
      "instagram": null,
      "horario": null,
      "terraza": false
    },
    {
      "id": "osm_node_4083495689",
      "nombre": "Errioxa",
      "tipo": "pub",
      "lat": 43.2962888,
      "lon": -2.9914753,
      "direccion": null,
      "codigo_postal": null,
      "telefono": null,
      "web": null,
      "instagram": null,
      "horario": null,
      "terraza": false
    },
    {
      "id": "osm_node_4083495693",
      "nombre": "Café Melva",
      "tipo": "cafe",
      "lat": 43.3014532,
      "lon": -2.9825555,
      "direccion": "Calle Sociedad Santa Águeda",
      "codigo_postal": null,
      "telefono": null,
      "web": null,
      "instagram": null,
      "horario": null,
      "terraza": false
    },
    {
      "id": "osm_node_4108337689",
      "nombre": "Cafeteria El Hospital Kafetegia",
      "tipo": "cafe",
      "lat": 43.2830549,
      "lon": -2.9843101,
      "direccion": null,
      "codigo_postal": null,
      "telefono": null,
      "web": null,
      "instagram": null,
      "horario": null,
      "terraza": false
    },
    {
      "id": "osm_node_4121404917",
      "nombre": "Albatross Kafetegia",
      "tipo": "cafe",
      "lat": 43.3006947,
      "lon": -2.9825128,
      "direccion": null,
      "codigo_postal": null,
      "telefono": null,
      "web": null,
      "instagram": null,
      "horario": null,
      "terraza": false
    },
    {
      "id": "osm_node_4126513540",
      "nombre": "Sine Die",
      "tipo": "cafe",
      "lat": 43.2943636,
      "lon": -2.9890131,
      "direccion": null,
      "codigo_postal": null,
      "telefono": null,
      "web": null,
      "instagram": null,
      "horario": null,
      "terraza": false
    },
    {
      "id": "osm_node_4130634885",
      "nombre": "El Pasaje",
      "tipo": "cafe",
      "lat": 43.2949578,
      "lon": -2.9974995,
      "direccion": null,
      "codigo_postal": null,
      "telefono": null,
      "web": null,
      "instagram": null,
      "horario": null,
      "terraza": false
    },
    {
      "id": "osm_node_4130634955",
      "nombre": "Batasuna",
      "tipo": "pub",
      "lat": 43.2951279,
      "lon": -2.9986711,
      "direccion": null,
      "codigo_postal": null,
      "telefono": null,
      "web": null,
      "instagram": null,
      "horario": null,
      "terraza": false
    },
    {
      "id": "osm_node_4176742199",
      "nombre": "Mejicano",
      "tipo": "pub",
      "lat": 43.2917474,
      "lon": -2.9935065,
      "direccion": null,
      "codigo_postal": null,
      "telefono": null,
      "web": null,
      "instagram": null,
      "horario": null,
      "terraza": false
    },
    {
      "id": "osm_node_4209655898",
      "nombre": "Bar Estadio Lasesarre Barakaldo CF",
      "tipo": "bar",
      "lat": 43.3021253,
      "lon": -2.9865205,
      "direccion": null,
      "codigo_postal": null,
      "telefono": null,
      "web": null,
      "instagram": null,
      "horario": null,
      "terraza": false
    },
    {
      "id": "osm_node_4311526096",
      "nombre": "Europa",
      "tipo": "pub",
      "lat": 43.2915319,
      "lon": -2.9936409,
      "direccion": null,
      "codigo_postal": null,
      "telefono": "+34 944049840",
      "web": null,
      "instagram": null,
      "horario": null,
      "terraza": false
    },
    {
      "id": "osm_node_4406048237",
      "nombre": "Degustación Alazne",
      "tipo": "cafe",
      "lat": 43.2943803,
      "lon": -2.991481,
      "direccion": null,
      "codigo_postal": null,
      "telefono": null,
      "web": null,
      "instagram": null,
      "horario": null,
      "terraza": false
    },
    {
      "id": "osm_node_4452930851",
      "nombre": "Cafetería Lasesarre",
      "tipo": "cafe",
      "lat": 43.3020191,
      "lon": -2.9901608,
      "direccion": null,
      "codigo_postal": null,
      "telefono": null,
      "web": null,
      "instagram": null,
      "horario": null,
      "terraza": false
    },
    {
      "id": "osm_node_4477111466",
      "nombre": "Bar Angelín",
      "tipo": "pub",
      "lat": 43.2906248,
      "lon": -2.9945878,
      "direccion": null,
      "codigo_postal": null,
      "telefono": null,
      "web": null,
      "instagram": null,
      "horario": null,
      "terraza": false
    },
    {
      "id": "osm_node_4506744907",
      "nombre": "El Rincón de Noé",
      "tipo": "cafe",
      "lat": 43.2915316,
      "lon": -2.9914446,
      "direccion": null,
      "codigo_postal": null,
      "telefono": null,
      "web": null,
      "instagram": null,
      "horario": null,
      "terraza": false
    },
    {
      "id": "osm_node_4517291024",
      "nombre": "Degustación La Paz",
      "tipo": "cafe",
      "lat": 43.2801046,
      "lon": -2.9852451,
      "direccion": "Calle La Paz 1",
      "codigo_postal": "48903",
      "telefono": null,
      "web": null,
      "instagram": null,
      "horario": null,
      "terraza": false
    },
    {
      "id": "osm_node_4533676712",
      "nombre": "Larrau",
      "tipo": "cafe",
      "lat": 43.2944553,
      "lon": -2.9958872,
      "direccion": null,
      "codigo_postal": null,
      "telefono": null,
      "web": null,
      "instagram": null,
      "horario": null,
      "terraza": false
    },
    {
      "id": "osm_node_4547589140",
      "nombre": "Wolker",
      "tipo": "cafe",
      "lat": 43.2823481,
      "lon": -2.9825021,
      "direccion": null,
      "codigo_postal": null,
      "telefono": null,
      "web": null,
      "instagram": null,
      "horario": null,
      "terraza": false
    },
    {
      "id": "osm_node_4552755039",
      "nombre": "Cafetería Maika",
      "tipo": "cafe",
      "lat": 43.2978389,
      "lon": -2.9840764,
      "direccion": null,
      "codigo_postal": null,
      "telefono": null,
      "web": null,
      "instagram": null,
      "horario": null,
      "terraza": false
    },
    {
      "id": "osm_node_4552755897",
      "nombre": "Bar Biltoki",
      "tipo": "pub",
      "lat": 43.2978169,
      "lon": -2.9841427,
      "direccion": null,
      "codigo_postal": null,
      "telefono": null,
      "web": null,
      "instagram": null,
      "horario": null,
      "terraza": false
    },
    {
      "id": "osm_node_4587042692",
      "nombre": "Cafetería Gallery",
      "tipo": "pub",
      "lat": 43.294203,
      "lon": -2.9997048,
      "direccion": null,
      "codigo_postal": null,
      "telefono": null,
      "web": null,
      "instagram": null,
      "horario": "Tu-Fr 07:00-23:30; Sa,Su 08:00-23:30",
      "terraza": false
    },
    {
      "id": "osm_node_4596208435",
      "nombre": "Café Cervecera Serralta",
      "tipo": "cafe",
      "lat": 43.2894007,
      "lon": -2.9808892,
      "direccion": null,
      "codigo_postal": null,
      "telefono": null,
      "web": null,
      "instagram": null,
      "horario": null,
      "terraza": false
    },
    {
      "id": "osm_node_4644350555",
      "nombre": "Cafetería Lorategia",
      "tipo": "cafe",
      "lat": 43.2962986,
      "lon": -2.9966374,
      "direccion": null,
      "codigo_postal": null,
      "telefono": null,
      "web": null,
      "instagram": null,
      "horario": null,
      "terraza": false
    },
    {
      "id": "osm_node_4668159158",
      "nombre": "Café Bar Daver",
      "tipo": "cafe",
      "lat": 43.2952438,
      "lon": -2.9926738,
      "direccion": null,
      "codigo_postal": null,
      "telefono": null,
      "web": null,
      "instagram": null,
      "horario": null,
      "terraza": false
    },
    {
      "id": "osm_node_4853505248",
      "nombre": "Sobrado",
      "tipo": "pub",
      "lat": 43.293999,
      "lon": -2.9862848,
      "direccion": null,
      "codigo_postal": null,
      "telefono": null,
      "web": null,
      "instagram": null,
      "horario": null,
      "terraza": false
    },
    {
      "id": "osm_node_4853505561",
      "nombre": "Landa",
      "tipo": "pub",
      "lat": 43.2937408,
      "lon": -2.9859128,
      "direccion": null,
      "codigo_postal": null,
      "telefono": null,
      "web": null,
      "instagram": null,
      "horario": null,
      "terraza": false
    },
    {
      "id": "osm_node_4882093568",
      "nombre": "Cafetería Pote Diverlandia",
      "tipo": "cafe",
      "lat": 43.2952177,
      "lon": -2.9986041,
      "direccion": null,
      "codigo_postal": null,
      "telefono": null,
      "web": null,
      "instagram": null,
      "horario": null,
      "terraza": false
    },
    {
      "id": "osm_node_4995147060",
      "nombre": "Mesón Peña",
      "tipo": "pub",
      "lat": 43.2954612,
      "lon": -2.9976205,
      "direccion": null,
      "codigo_postal": null,
      "telefono": null,
      "web": null,
      "instagram": null,
      "horario": null,
      "terraza": false
    },
    {
      "id": "osm_node_5026151860",
      "nombre": "Wall Street",
      "tipo": "cafe",
      "lat": 43.2976874,
      "lon": -2.992174,
      "direccion": null,
      "codigo_postal": null,
      "telefono": "+34 633 33 86 65",
      "web": null,
      "instagram": null,
      "horario": null,
      "terraza": false
    },
    {
      "id": "osm_node_5026160934",
      "nombre": "Gayarre",
      "tipo": "cafe",
      "lat": 43.2975827,
      "lon": -2.992093,
      "direccion": null,
      "codigo_postal": null,
      "telefono": null,
      "web": null,
      "instagram": null,
      "horario": null,
      "terraza": false
    },
    {
      "id": "osm_node_5026213328",
      "nombre": "Sugoi",
      "tipo": "pub",
      "lat": 43.2965815,
      "lon": -2.9890961,
      "direccion": null,
      "codigo_postal": null,
      "telefono": "+34 722 76 84 16",
      "web": null,
      "instagram": null,
      "horario": null,
      "terraza": false
    },
    {
      "id": "osm_node_5026217378",
      "nombre": "El Hórreo",
      "tipo": "pub",
      "lat": 43.2971711,
      "lon": -2.9882583,
      "direccion": null,
      "codigo_postal": null,
      "telefono": null,
      "web": null,
      "instagram": null,
      "horario": null,
      "terraza": false
    },
    {
      "id": "osm_node_5028956774",
      "nombre": "La Cuadra",
      "tipo": "pub",
      "lat": 43.2967383,
      "lon": -2.9884306,
      "direccion": null,
      "codigo_postal": null,
      "telefono": null,
      "web": null,
      "instagram": null,
      "horario": null,
      "terraza": false
    },
    {
      "id": "osm_node_5028956775",
      "nombre": "Anaya",
      "tipo": "pub",
      "lat": 43.2967962,
      "lon": -2.988224,
      "direccion": null,
      "codigo_postal": null,
      "telefono": null,
      "web": null,
      "instagram": null,
      "horario": null,
      "terraza": false
    },
    {
      "id": "osm_node_5028956776",
      "nombre": "New VOS",
      "tipo": "pub",
      "lat": 43.2967812,
      "lon": -2.9881874,
      "direccion": null,
      "codigo_postal": null,
      "telefono": null,
      "web": null,
      "instagram": null,
      "horario": null,
      "terraza": false
    },
    {
      "id": "osm_node_5028956778",
      "nombre": "Basoa",
      "tipo": "cafe",
      "lat": 43.2969169,
      "lon": -2.988625,
      "direccion": null,
      "codigo_postal": null,
      "telefono": null,
      "web": null,
      "instagram": null,
      "horario": null,
      "terraza": false
    },
    {
      "id": "osm_node_5028956779",
      "nombre": "Lambda",
      "tipo": "pub",
      "lat": 43.2972224,
      "lon": -2.988393,
      "direccion": null,
      "codigo_postal": null,
      "telefono": null,
      "web": null,
      "instagram": null,
      "horario": null,
      "terraza": false
    },
    {
      "id": "osm_node_5028956780",
      "nombre": "My Way",
      "tipo": "cafe",
      "lat": 43.2970315,
      "lon": -2.9885199,
      "direccion": null,
      "codigo_postal": null,
      "telefono": null,
      "web": null,
      "instagram": null,
      "horario": null,
      "terraza": false
    },
    {
      "id": "osm_node_5028956781",
      "nombre": "Mullins",
      "tipo": "pub",
      "lat": 43.2969902,
      "lon": -2.9883552,
      "direccion": null,
      "codigo_postal": null,
      "telefono": null,
      "web": null,
      "instagram": null,
      "horario": null,
      "terraza": false
    },
    {
      "id": "osm_node_5028956782",
      "nombre": "Los Jamones",
      "tipo": "pub",
      "lat": 43.2971133,
      "lon": -2.9884688,
      "direccion": null,
      "codigo_postal": null,
      "telefono": null,
      "web": null,
      "instagram": null,
      "horario": null,
      "terraza": false
    },
    {
      "id": "osm_node_5028956783",
      "nombre": "RK rock kafe",
      "tipo": "cafe",
      "lat": 43.2966538,
      "lon": -2.9888787,
      "direccion": null,
      "codigo_postal": null,
      "telefono": null,
      "web": null,
      "instagram": null,
      "horario": null,
      "terraza": false
    },
    {
      "id": "osm_node_5028956784",
      "nombre": "La Tabernita del Medio",
      "tipo": "pub",
      "lat": 43.2967042,
      "lon": -2.9888242,
      "direccion": null,
      "codigo_postal": null,
      "telefono": null,
      "web": null,
      "instagram": null,
      "horario": null,
      "terraza": false
    },
    {
      "id": "osm_node_5029096348",
      "nombre": "Lord Byron",
      "tipo": "cafe",
      "lat": 43.2991124,
      "lon": -2.9933008,
      "direccion": null,
      "codigo_postal": null,
      "telefono": null,
      "web": null,
      "instagram": null,
      "horario": null,
      "terraza": false
    },
    {
      "id": "osm_node_5195942036",
      "nombre": "Gurutzeta",
      "tipo": "cafe",
      "lat": 43.2825944,
      "lon": -2.9827818,
      "direccion": null,
      "codigo_postal": null,
      "telefono": null,
      "web": null,
      "instagram": null,
      "horario": null,
      "terraza": true
    },
    {
      "id": "osm_node_5375742036",
      "nombre": "Café La Plaza",
      "tipo": "cafe",
      "lat": 43.2960153,
      "lon": -3.0028888,
      "direccion": null,
      "codigo_postal": null,
      "telefono": null,
      "web": null,
      "instagram": null,
      "horario": null,
      "terraza": false
    },
    {
      "id": "osm_node_5379656452",
      "nombre": "Urkia",
      "tipo": "pub",
      "lat": 43.2788458,
      "lon": -2.9861818,
      "direccion": "Calle La Siebe 12",
      "codigo_postal": "48903",
      "telefono": null,
      "web": null,
      "instagram": null,
      "horario": "Mo-Su 09:00-21:00",
      "terraza": true
    },
    {
      "id": "osm_node_5779156580",
      "nombre": "Altzairu BEC!",
      "tipo": "cafe",
      "lat": 43.2905386,
      "lon": -2.9899661,
      "direccion": null,
      "codigo_postal": null,
      "telefono": null,
      "web": null,
      "instagram": null,
      "horario": null,
      "terraza": false
    },
    {
      "id": "osm_node_5779483723",
      "nombre": "Bikoitz",
      "tipo": "pub",
      "lat": 43.2833503,
      "lon": -2.9958711,
      "direccion": null,
      "codigo_postal": null,
      "telefono": null,
      "web": null,
      "instagram": null,
      "horario": "Mo-Su,PH 06:00-23:00",
      "terraza": false
    },
    {
      "id": "osm_node_5978866989",
      "nombre": "Txirinpintxo",
      "tipo": "bar",
      "lat": 43.2920595,
      "lon": -2.9890723,
      "direccion": null,
      "codigo_postal": null,
      "telefono": null,
      "web": null,
      "instagram": null,
      "horario": null,
      "terraza": false
    },
    {
      "id": "osm_node_6111121239",
      "nombre": "Sorgiñe",
      "tipo": "cafe",
      "lat": 43.2953328,
      "lon": -2.9980041,
      "direccion": null,
      "codigo_postal": null,
      "telefono": null,
      "web": null,
      "instagram": null,
      "horario": null,
      "terraza": false
    },
    {
      "id": "osm_node_6111121303",
      "nombre": "La Plaza",
      "tipo": "cafe",
      "lat": 43.29555,
      "lon": -2.9982382,
      "direccion": null,
      "codigo_postal": null,
      "telefono": null,
      "web": null,
      "instagram": null,
      "horario": null,
      "terraza": false
    },
    {
      "id": "osm_node_6111121387",
      "nombre": "Leizea",
      "tipo": "cafe",
      "lat": 43.2954999,
      "lon": -2.9956074,
      "direccion": null,
      "codigo_postal": null,
      "telefono": null,
      "web": null,
      "instagram": null,
      "horario": null,
      "terraza": false
    },
    {
      "id": "osm_node_6111121388",
      "nombre": "Palacios",
      "tipo": "pub",
      "lat": 43.2957801,
      "lon": -2.9952703,
      "direccion": null,
      "codigo_postal": null,
      "telefono": null,
      "web": null,
      "instagram": null,
      "horario": null,
      "terraza": false
    },
    {
      "id": "osm_node_6111121390",
      "nombre": "LatasK",
      "tipo": "pub",
      "lat": 43.2954612,
      "lon": -2.9982514,
      "direccion": null,
      "codigo_postal": null,
      "telefono": null,
      "web": null,
      "instagram": null,
      "horario": null,
      "terraza": false
    },
    {
      "id": "osm_node_6313175777",
      "nombre": "Elkano 14",
      "tipo": "cafe",
      "lat": 43.2960935,
      "lon": -2.9894492,
      "direccion": null,
      "codigo_postal": null,
      "telefono": null,
      "web": null,
      "instagram": null,
      "horario": null,
      "terraza": false
    },
    {
      "id": "osm_node_6328752390",
      "nombre": "La Tortilla del Galatea",
      "tipo": "cafe",
      "lat": 43.3016039,
      "lon": -2.9830605,
      "direccion": "Plaza El Desierto",
      "codigo_postal": null,
      "telefono": null,
      "web": null,
      "instagram": null,
      "horario": null,
      "terraza": false
    },
    {
      "id": "osm_node_6374587385",
      "nombre": "Cervecería Heidelberg",
      "tipo": "pub",
      "lat": 43.2995479,
      "lon": -2.9840628,
      "direccion": null,
      "codigo_postal": null,
      "telefono": null,
      "web": null,
      "instagram": null,
      "horario": null,
      "terraza": false
    },
    {
      "id": "osm_node_6379917285",
      "nombre": "Pata Negra",
      "tipo": "pub",
      "lat": 43.2977966,
      "lon": -2.9878481,
      "direccion": null,
      "codigo_postal": null,
      "telefono": null,
      "web": null,
      "instagram": null,
      "horario": null,
      "terraza": false
    },
    {
      "id": "osm_node_6379917488",
      "nombre": "Sala Edaska",
      "tipo": "pub",
      "lat": 43.2979697,
      "lon": -2.9861297,
      "direccion": null,
      "codigo_postal": null,
      "telefono": null,
      "web": null,
      "instagram": null,
      "horario": null,
      "terraza": false
    },
    {
      "id": "osm_node_6379917489",
      "nombre": "Joma",
      "tipo": "pub",
      "lat": 43.2978342,
      "lon": -2.9863244,
      "direccion": null,
      "codigo_postal": null,
      "telefono": null,
      "web": null,
      "instagram": null,
      "horario": null,
      "terraza": false
    },
    {
      "id": "osm_node_6442292891",
      "nombre": "Gaztelu",
      "tipo": "bar",
      "lat": 43.2966783,
      "lon": -2.9865408,
      "direccion": null,
      "codigo_postal": null,
      "telefono": "+34944371643",
      "web": null,
      "instagram": null,
      "horario": "Mo-Su 09:00-22:00",
      "terraza": true
    },
    {
      "id": "osm_node_6444962285",
      "nombre": "Salama",
      "tipo": "pub",
      "lat": 43.2997872,
      "lon": -2.9879699,
      "direccion": "El Parque kalea 6",
      "codigo_postal": "48901",
      "telefono": null,
      "web": null,
      "instagram": null,
      "horario": null,
      "terraza": false
    },
    {
      "id": "osm_node_6451567987",
      "nombre": "Station Wagon",
      "tipo": "pub",
      "lat": 43.2995632,
      "lon": -2.9845764,
      "direccion": "Ibarra kalea 21",
      "codigo_postal": "48901",
      "telefono": null,
      "web": null,
      "instagram": null,
      "horario": null,
      "terraza": false
    },
    {
      "id": "osm_node_6451567990",
      "nombre": "Ohlalá",
      "tipo": "cafe",
      "lat": 43.297645,
      "lon": -2.9854695,
      "direccion": null,
      "codigo_postal": null,
      "telefono": null,
      "web": null,
      "instagram": null,
      "horario": null,
      "terraza": false
    },
    {
      "id": "osm_node_6451576186",
      "nombre": "Áncora",
      "tipo": "pub",
      "lat": 43.2998464,
      "lon": -2.9842217,
      "direccion": null,
      "codigo_postal": null,
      "telefono": null,
      "web": null,
      "instagram": null,
      "horario": null,
      "terraza": false
    },
    {
      "id": "osm_node_6451576190",
      "nombre": "La Carolina",
      "tipo": "pub",
      "lat": 43.2976914,
      "lon": -2.9854721,
      "direccion": null,
      "codigo_postal": null,
      "telefono": null,
      "web": null,
      "instagram": null,
      "horario": null,
      "terraza": false
    },
    {
      "id": "osm_node_6451576286",
      "nombre": "Belardi",
      "tipo": "pub",
      "lat": 43.29914,
      "lon": -2.9844485,
      "direccion": null,
      "codigo_postal": null,
      "telefono": null,
      "web": null,
      "instagram": null,
      "horario": null,
      "terraza": false
    },
    {
      "id": "osm_node_6454333324",
      "nombre": "Txibiri",
      "tipo": "pub",
      "lat": 43.3001906,
      "lon": -2.9894485,
      "direccion": null,
      "codigo_postal": null,
      "telefono": null,
      "web": null,
      "instagram": null,
      "horario": null,
      "terraza": false
    },
    {
      "id": "osm_node_6454333325",
      "nombre": "Metropol",
      "tipo": "pub",
      "lat": 43.2989344,
      "lon": -2.9919731,
      "direccion": null,
      "codigo_postal": null,
      "telefono": null,
      "web": null,
      "instagram": null,
      "horario": null,
      "terraza": false
    },
    {
      "id": "osm_node_6454333328",
      "nombre": "Trifi",
      "tipo": "pub",
      "lat": 43.2986111,
      "lon": -2.991669,
      "direccion": null,
      "codigo_postal": null,
      "telefono": null,
      "web": null,
      "instagram": null,
      "horario": null,
      "terraza": false
    },
    {
      "id": "osm_node_6454333331",
      "nombre": "Yoima",
      "tipo": "pub",
      "lat": 43.297801,
      "lon": -2.9866595,
      "direccion": null,
      "codigo_postal": null,
      "telefono": null,
      "web": null,
      "instagram": null,
      "horario": null,
      "terraza": false
    },
    {
      "id": "osm_node_6454333332",
      "nombre": "Lagun Artea",
      "tipo": "pub",
      "lat": 43.2999366,
      "lon": -2.9852307,
      "direccion": "Murrieta kalea",
      "codigo_postal": null,
      "telefono": null,
      "web": null,
      "instagram": null,
      "horario": null,
      "terraza": false
    },
    {
      "id": "osm_node_6454333334",
      "nombre": "Sensarosa",
      "tipo": "bar",
      "lat": 43.2994068,
      "lon": -2.9887665,
      "direccion": null,
      "codigo_postal": null,
      "telefono": null,
      "web": null,
      "instagram": null,
      "horario": null,
      "terraza": false
    },
    {
      "id": "osm_node_6454349302",
      "nombre": "Avenida",
      "tipo": "pub",
      "lat": 43.296693,
      "lon": -2.9906496,
      "direccion": null,
      "codigo_postal": null,
      "telefono": null,
      "web": null,
      "instagram": null,
      "horario": null,
      "terraza": false
    },
    {
      "id": "osm_node_6454349308",
      "nombre": "Geltoki",
      "tipo": "pub",
      "lat": 43.2974213,
      "lon": -2.9865292,
      "direccion": null,
      "codigo_postal": null,
      "telefono": null,
      "web": null,
      "instagram": null,
      "horario": null,
      "terraza": false
    },
    {
      "id": "osm_node_6454349591",
      "nombre": "Ibarra",
      "tipo": "cafe",
      "lat": 43.2996694,
      "lon": -2.9843365,
      "direccion": null,
      "codigo_postal": null,
      "telefono": null,
      "web": null,
      "instagram": null,
      "horario": null,
      "terraza": false
    },
    {
      "id": "osm_node_6454349690",
      "nombre": "Haroin Iru",
      "tipo": "pub",
      "lat": 43.2992801,
      "lon": -2.9913943,
      "direccion": null,
      "codigo_postal": null,
      "telefono": null,
      "web": null,
      "instagram": null,
      "horario": null,
      "terraza": false
    },
    {
      "id": "osm_node_6454364385",
      "nombre": "El Ahorro",
      "tipo": "pub",
      "lat": 43.2989128,
      "lon": -2.9916947,
      "direccion": null,
      "codigo_postal": null,
      "telefono": null,
      "web": null,
      "instagram": null,
      "horario": null,
      "terraza": false
    },
    {
      "id": "osm_node_6455656290",
      "nombre": "Lagos",
      "tipo": "cafe",
      "lat": 43.2949132,
      "lon": -2.9863271,
      "direccion": null,
      "codigo_postal": null,
      "telefono": null,
      "web": null,
      "instagram": null,
      "horario": null,
      "terraza": false
    },
    {
      "id": "osm_node_6455656790",
      "nombre": "Blue Bird",
      "tipo": "pub",
      "lat": 43.2958289,
      "lon": -2.9859282,
      "direccion": null,
      "codigo_postal": null,
      "telefono": null,
      "web": null,
      "instagram": null,
      "horario": null,
      "terraza": false
    },
    {
      "id": "osm_node_6455656791",
      "nombre": "Who",
      "tipo": "pub",
      "lat": 43.2944809,
      "lon": -2.9861518,
      "direccion": null,
      "codigo_postal": null,
      "telefono": null,
      "web": null,
      "instagram": null,
      "horario": null,
      "terraza": false
    },
    {
      "id": "osm_node_6455657489",
      "nombre": "Pormetxeta Berria",
      "tipo": "pub",
      "lat": 43.2979637,
      "lon": -2.9837071,
      "direccion": null,
      "codigo_postal": null,
      "telefono": null,
      "web": null,
      "instagram": null,
      "horario": null,
      "terraza": false
    },
    {
      "id": "osm_node_6455657490",
      "nombre": "Café Lugo",
      "tipo": "cafe",
      "lat": 43.2977712,
      "lon": -2.9839522,
      "direccion": null,
      "codigo_postal": null,
      "telefono": null,
      "web": null,
      "instagram": null,
      "horario": null,
      "terraza": false
    },
    {
      "id": "osm_node_6455657496",
      "nombre": "Centro Andaluz",
      "tipo": "pub",
      "lat": 43.2946507,
      "lon": -2.9861443,
      "direccion": null,
      "codigo_postal": null,
      "telefono": null,
      "web": null,
      "instagram": null,
      "horario": null,
      "terraza": false
    },
    {
      "id": "osm_node_6455657497",
      "nombre": "Bazter",
      "tipo": "pub",
      "lat": 43.2946612,
      "lon": -2.9862069,
      "direccion": null,
      "codigo_postal": null,
      "telefono": null,
      "web": null,
      "instagram": null,
      "horario": null,
      "terraza": false
    },
    {
      "id": "osm_node_6455657502",
      "nombre": "Brenes 2",
      "tipo": "cafe",
      "lat": 43.2956385,
      "lon": -2.988081,
      "direccion": null,
      "codigo_postal": null,
      "telefono": null,
      "web": null,
      "instagram": null,
      "horario": null,
      "terraza": false
    },
    {
      "id": "osm_node_6455657503",
      "nombre": "Bizkaia",
      "tipo": "pub",
      "lat": 43.2956573,
      "lon": -2.9883818,
      "direccion": null,
      "codigo_postal": null,
      "telefono": null,
      "web": null,
      "instagram": null,
      "horario": null,
      "terraza": false
    },
    {
      "id": "osm_node_6455657504",
      "nombre": "Las Tortillas de Aitxu",
      "tipo": "cafe",
      "lat": 43.296454,
      "lon": -2.9867289,
      "direccion": "Foruen pasealekua 4",
      "codigo_postal": "48901",
      "telefono": "+34 944182729",
      "web": null,
      "instagram": null,
      "horario": null,
      "terraza": true
    },
    {
      "id": "osm_node_6462703789",
      "nombre": "Bossa Nova",
      "tipo": "pub",
      "lat": 43.2955411,
      "lon": -2.9885672,
      "direccion": null,
      "codigo_postal": null,
      "telefono": null,
      "web": null,
      "instagram": null,
      "horario": null,
      "terraza": false
    },
    {
      "id": "osm_node_6462703890",
      "nombre": "Imperial",
      "tipo": "cafe",
      "lat": 43.2946983,
      "lon": -2.9901415,
      "direccion": null,
      "codigo_postal": null,
      "telefono": null,
      "web": null,
      "instagram": null,
      "horario": null,
      "terraza": false
    },
    {
      "id": "osm_node_6462703891",
      "nombre": "Haizea",
      "tipo": "cafe",
      "lat": 43.2948518,
      "lon": -2.9899104,
      "direccion": null,
      "codigo_postal": null,
      "telefono": null,
      "web": null,
      "instagram": null,
      "horario": null,
      "terraza": false
    },
    {
      "id": "osm_node_6469590688",
      "nombre": "Antídoto",
      "tipo": "pub",
      "lat": 43.297889,
      "lon": -2.9888843,
      "direccion": null,
      "codigo_postal": null,
      "telefono": null,
      "web": null,
      "instagram": null,
      "horario": null,
      "terraza": false
    },
    {
      "id": "osm_node_6469590689",
      "nombre": "Garay",
      "tipo": "pub",
      "lat": 43.2987707,
      "lon": -2.9884963,
      "direccion": null,
      "codigo_postal": null,
      "telefono": null,
      "web": null,
      "instagram": null,
      "horario": null,
      "terraza": false
    },
    {
      "id": "osm_node_6469592885",
      "nombre": "Mendigo",
      "tipo": "pub",
      "lat": 43.2986931,
      "lon": -2.9888476,
      "direccion": null,
      "codigo_postal": null,
      "telefono": null,
      "web": null,
      "instagram": null,
      "horario": null,
      "terraza": false
    },
    {
      "id": "osm_node_6469841786",
      "nombre": "Miren",
      "tipo": "cafe",
      "lat": 43.2997883,
      "lon": -2.9839684,
      "direccion": null,
      "codigo_postal": null,
      "telefono": null,
      "web": null,
      "instagram": null,
      "horario": null,
      "terraza": false
    },
    {
      "id": "osm_node_6469842585",
      "nombre": "Serantes",
      "tipo": "pub",
      "lat": 43.2985828,
      "lon": -2.9841591,
      "direccion": null,
      "codigo_postal": null,
      "telefono": null,
      "web": null,
      "instagram": null,
      "horario": null,
      "terraza": false
    },
    {
      "id": "osm_node_6469842685",
      "nombre": "Nelson",
      "tipo": "pub",
      "lat": 43.2994924,
      "lon": -2.9838085,
      "direccion": null,
      "codigo_postal": null,
      "telefono": null,
      "web": null,
      "instagram": null,
      "horario": null,
      "terraza": false
    },
    {
      "id": "osm_node_6469842785",
      "nombre": "La Estación",
      "tipo": "pub",
      "lat": 43.2998573,
      "lon": -2.9842983,
      "direccion": null,
      "codigo_postal": null,
      "telefono": null,
      "web": null,
      "instagram": null,
      "horario": null,
      "terraza": false
    },
    {
      "id": "osm_node_6485719485",
      "nombre": "Eclipse",
      "tipo": "pub",
      "lat": 43.2989629,
      "lon": -2.9886263,
      "direccion": null,
      "codigo_postal": null,
      "telefono": null,
      "web": null,
      "instagram": null,
      "horario": null,
      "terraza": false
    },
    {
      "id": "osm_node_6485719585",
      "nombre": "Puntazo",
      "tipo": "bar",
      "lat": 43.299514,
      "lon": -2.9884315,
      "direccion": null,
      "codigo_postal": null,
      "telefono": null,
      "web": null,
      "instagram": null,
      "horario": null,
      "terraza": false
    },
    {
      "id": "osm_node_6584444086",
      "nombre": "Eguzki",
      "tipo": "pub",
      "lat": 43.2963521,
      "lon": -2.9897881,
      "direccion": null,
      "codigo_postal": null,
      "telefono": null,
      "web": null,
      "instagram": null,
      "horario": null,
      "terraza": false
    },
    {
      "id": "osm_node_6584444087",
      "nombre": "Dantzari",
      "tipo": "pub",
      "lat": 43.2963406,
      "lon": -2.9897223,
      "direccion": null,
      "codigo_postal": null,
      "telefono": null,
      "web": null,
      "instagram": null,
      "horario": null,
      "terraza": false
    },
    {
      "id": "osm_node_6584453285",
      "nombre": "La Palentina",
      "tipo": "pub",
      "lat": 43.2962979,
      "lon": -2.9894492,
      "direccion": null,
      "codigo_postal": null,
      "telefono": null,
      "web": null,
      "instagram": null,
      "horario": null,
      "terraza": false
    },
    {
      "id": "osm_node_6586227485",
      "nombre": "Kazpel",
      "tipo": "pub",
      "lat": 43.2983242,
      "lon": -2.9880845,
      "direccion": null,
      "codigo_postal": null,
      "telefono": null,
      "web": null,
      "instagram": null,
      "horario": null,
      "terraza": false
    },
    {
      "id": "osm_node_6616113085",
      "nombre": "Añoranzas Venezolanas",
      "tipo": "pub",
      "lat": 43.2965484,
      "lon": -2.9875166,
      "direccion": null,
      "codigo_postal": null,
      "telefono": null,
      "web": null,
      "instagram": null,
      "horario": null,
      "terraza": false
    },
    {
      "id": "osm_node_6665328986",
      "nombre": "Esperanza",
      "tipo": "pub",
      "lat": 43.3013211,
      "lon": -2.9929369,
      "direccion": null,
      "codigo_postal": null,
      "telefono": null,
      "web": null,
      "instagram": null,
      "horario": null,
      "terraza": false
    },
    {
      "id": "osm_node_6665328987",
      "nombre": "Osma",
      "tipo": "pub",
      "lat": 43.3011886,
      "lon": -2.9929876,
      "direccion": null,
      "codigo_postal": null,
      "telefono": null,
      "web": null,
      "instagram": null,
      "horario": null,
      "terraza": false
    },
    {
      "id": "osm_node_6665335885",
      "nombre": "Sugol",
      "tipo": "pub",
      "lat": 43.3010994,
      "lon": -2.9930184,
      "direccion": null,
      "codigo_postal": null,
      "telefono": null,
      "web": null,
      "instagram": null,
      "horario": null,
      "terraza": false
    },
    {
      "id": "osm_node_6665348085",
      "nombre": "Itsasontzia",
      "tipo": "pub",
      "lat": 43.3009798,
      "lon": -2.9930611,
      "direccion": null,
      "codigo_postal": null,
      "telefono": null,
      "web": null,
      "instagram": null,
      "horario": null,
      "terraza": false
    },
    {
      "id": "osm_node_6665348086",
      "nombre": "Tobsa",
      "tipo": "cafe",
      "lat": 43.3015206,
      "lon": -2.9934319,
      "direccion": null,
      "codigo_postal": null,
      "telefono": null,
      "web": null,
      "instagram": null,
      "horario": null,
      "terraza": false
    },
    {
      "id": "osm_node_6665348087",
      "nombre": "Alima",
      "tipo": "cafe",
      "lat": 43.3009862,
      "lon": -2.9936766,
      "direccion": null,
      "codigo_postal": null,
      "telefono": null,
      "web": null,
      "instagram": null,
      "horario": null,
      "terraza": false
    },
    {
      "id": "osm_node_6665348185",
      "nombre": "Akelarre",
      "tipo": "pub",
      "lat": 43.3014987,
      "lon": -2.9935894,
      "direccion": null,
      "codigo_postal": null,
      "telefono": null,
      "web": null,
      "instagram": null,
      "horario": null,
      "terraza": false
    },
    {
      "id": "osm_node_6665348186",
      "nombre": "Hogar Navarro",
      "tipo": "pub",
      "lat": 43.3012039,
      "lon": -2.9937951,
      "direccion": null,
      "codigo_postal": null,
      "telefono": null,
      "web": null,
      "instagram": null,
      "horario": null,
      "terraza": false
    },
    {
      "id": "osm_node_6665352687",
      "nombre": "Mandarina",
      "tipo": "cafe",
      "lat": 43.2984048,
      "lon": -2.9931808,
      "direccion": "Calle Gabriel Aresti",
      "codigo_postal": null,
      "telefono": null,
      "web": null,
      "instagram": null,
      "horario": null,
      "terraza": false
    },
    {
      "id": "osm_node_6669719586",
      "nombre": "Las Quinielas",
      "tipo": "pub",
      "lat": 43.3005181,
      "lon": -2.9931687,
      "direccion": null,
      "codigo_postal": null,
      "telefono": null,
      "web": null,
      "instagram": null,
      "horario": null,
      "terraza": false
    },
    {
      "id": "osm_node_6669723485",
      "nombre": "Mínimos",
      "tipo": "cafe",
      "lat": 43.3007033,
      "lon": -2.992828,
      "direccion": null,
      "codigo_postal": null,
      "telefono": null,
      "web": null,
      "instagram": null,
      "horario": null,
      "terraza": false
    },
    {
      "id": "osm_node_6723399085",
      "nombre": "El Potro",
      "tipo": "pub",
      "lat": 43.2988932,
      "lon": -2.9884694,
      "direccion": null,
      "codigo_postal": null,
      "telefono": null,
      "web": null,
      "instagram": null,
      "horario": null,
      "terraza": false
    },
    {
      "id": "osm_node_6834338271",
      "nombre": "Baratzalde",
      "tipo": "pub",
      "lat": 43.2966646,
      "lon": -2.9886552,
      "direccion": null,
      "codigo_postal": null,
      "telefono": null,
      "web": null,
      "instagram": null,
      "horario": null,
      "terraza": false
    },
    {
      "id": "osm_node_6834362312",
      "nombre": "La Vieja Banda",
      "tipo": "pub",
      "lat": 43.2946316,
      "lon": -2.9927687,
      "direccion": null,
      "codigo_postal": null,
      "telefono": null,
      "web": null,
      "instagram": null,
      "horario": null,
      "terraza": false
    },
    {
      "id": "osm_node_6849335617",
      "nombre": "Bodega Larrea",
      "tipo": "pub",
      "lat": 43.2968259,
      "lon": -2.9804866,
      "direccion": null,
      "codigo_postal": null,
      "telefono": null,
      "web": null,
      "instagram": null,
      "horario": null,
      "terraza": false
    },
    {
      "id": "osm_node_6867701385",
      "nombre": "JG 4",
      "tipo": "pub",
      "lat": 43.297432,
      "lon": -2.9871598,
      "direccion": null,
      "codigo_postal": null,
      "telefono": null,
      "web": null,
      "instagram": null,
      "horario": null,
      "terraza": false
    },
    {
      "id": "osm_node_6867758785",
      "nombre": "Green",
      "tipo": "pub",
      "lat": 43.2970786,
      "lon": -2.9882972,
      "direccion": null,
      "codigo_postal": null,
      "telefono": null,
      "web": null,
      "instagram": null,
      "horario": null,
      "terraza": false
    },
    {
      "id": "osm_node_6873420185",
      "nombre": "Taberna Ederra",
      "tipo": "bar",
      "lat": 43.2839,
      "lon": -2.9948245,
      "direccion": "Avenida de Euskadi",
      "codigo_postal": null,
      "telefono": null,
      "web": null,
      "instagram": null,
      "horario": null,
      "terraza": false
    },
    {
      "id": "osm_node_6898028497",
      "nombre": "Katakumba",
      "tipo": "pub",
      "lat": 43.2898741,
      "lon": -2.9795987,
      "direccion": null,
      "codigo_postal": null,
      "telefono": null,
      "web": null,
      "instagram": null,
      "horario": null,
      "terraza": false
    },
    {
      "id": "osm_node_6898141195",
      "nombre": "New York",
      "tipo": "pub",
      "lat": 43.29008,
      "lon": -2.979503,
      "direccion": null,
      "codigo_postal": null,
      "telefono": null,
      "web": null,
      "instagram": null,
      "horario": null,
      "terraza": false
    },
    {
      "id": "osm_node_6898141601",
      "nombre": "Bodeguita Caza y Pesca",
      "tipo": "pub",
      "lat": 43.2900658,
      "lon": -2.9790928,
      "direccion": null,
      "codigo_postal": null,
      "telefono": null,
      "web": null,
      "instagram": null,
      "horario": null,
      "terraza": false
    },
    {
      "id": "osm_node_7047272185",
      "nombre": "Degustación A. F.",
      "tipo": "cafe",
      "lat": 43.2977567,
      "lon": -2.9848898,
      "direccion": null,
      "codigo_postal": null,
      "telefono": null,
      "web": null,
      "instagram": null,
      "horario": null,
      "terraza": false
    },
    {
      "id": "osm_node_7048788117",
      "nombre": "London",
      "tipo": "cafe",
      "lat": 43.2981586,
      "lon": -2.9912888,
      "direccion": null,
      "codigo_postal": null,
      "telefono": null,
      "web": null,
      "instagram": null,
      "horario": null,
      "terraza": false
    },
    {
      "id": "osm_node_7059874785",
      "nombre": "Kabilako",
      "tipo": "pub",
      "lat": 43.3008499,
      "lon": -2.9898106,
      "direccion": null,
      "codigo_postal": null,
      "telefono": null,
      "web": null,
      "instagram": null,
      "horario": null,
      "terraza": false
    },
    {
      "id": "osm_node_7059874886",
      "nombre": "Nervión",
      "tipo": "pub",
      "lat": 43.3004491,
      "lon": -2.9893316,
      "direccion": null,
      "codigo_postal": null,
      "telefono": null,
      "web": null,
      "instagram": null,
      "horario": null,
      "terraza": false
    },
    {
      "id": "osm_node_7061063689",
      "nombre": "Don Benito",
      "tipo": "bar",
      "lat": 43.2954891,
      "lon": -2.9868206,
      "direccion": null,
      "codigo_postal": null,
      "telefono": null,
      "web": null,
      "instagram": null,
      "horario": null,
      "terraza": false
    },
    {
      "id": "osm_node_7061123086",
      "nombre": "Begirune",
      "tipo": "cafe",
      "lat": 43.2952744,
      "lon": -2.9865448,
      "direccion": null,
      "codigo_postal": null,
      "telefono": null,
      "web": null,
      "instagram": null,
      "horario": null,
      "terraza": false
    },
    {
      "id": "osm_node_7061123087",
      "nombre": "Tres Rombos",
      "tipo": "pub",
      "lat": 43.2954161,
      "lon": -2.9864312,
      "direccion": "Nafarroa kalea",
      "codigo_postal": null,
      "telefono": null,
      "web": null,
      "instagram": null,
      "horario": null,
      "terraza": false
    },
    {
      "id": "osm_node_7061148686",
      "nombre": "Zazpi",
      "tipo": "pub",
      "lat": 43.2959867,
      "lon": -2.9887757,
      "direccion": null,
      "codigo_postal": null,
      "telefono": null,
      "web": null,
      "instagram": null,
      "horario": null,
      "terraza": false
    },
    {
      "id": "osm_node_7061148785",
      "nombre": "El Bodegón",
      "tipo": "pub",
      "lat": 43.2959755,
      "lon": -2.988488,
      "direccion": null,
      "codigo_postal": null,
      "telefono": null,
      "web": null,
      "instagram": null,
      "horario": null,
      "terraza": false
    },
    {
      "id": "osm_node_7061148786",
      "nombre": "Aizagar",
      "tipo": "pub",
      "lat": 43.295875,
      "lon": -2.9886353,
      "direccion": null,
      "codigo_postal": null,
      "telefono": null,
      "web": null,
      "instagram": null,
      "horario": null,
      "terraza": false
    },
    {
      "id": "osm_node_7061199488",
      "nombre": "Manu",
      "tipo": "pub",
      "lat": 43.2976812,
      "lon": -2.9928092,
      "direccion": null,
      "codigo_postal": null,
      "telefono": null,
      "web": null,
      "instagram": null,
      "horario": null,
      "terraza": false
    },
    {
      "id": "osm_node_7061199489",
      "nombre": "La Parrilla",
      "tipo": "pub",
      "lat": 43.2977268,
      "lon": -2.9929361,
      "direccion": null,
      "codigo_postal": null,
      "telefono": null,
      "web": null,
      "instagram": null,
      "horario": null,
      "terraza": false
    },
    {
      "id": "osm_node_7061199688",
      "nombre": "Berango",
      "tipo": "pub",
      "lat": 43.2966148,
      "lon": -2.991494,
      "direccion": null,
      "codigo_postal": null,
      "telefono": null,
      "web": null,
      "instagram": null,
      "horario": null,
      "terraza": false
    },
    {
      "id": "osm_node_7061199786",
      "nombre": "Zarra",
      "tipo": "pub",
      "lat": 43.2986939,
      "lon": -2.9919134,
      "direccion": null,
      "codigo_postal": null,
      "telefono": null,
      "web": null,
      "instagram": null,
      "horario": null,
      "terraza": false
    },
    {
      "id": "osm_node_7061212386",
      "nombre": "Y41",
      "tipo": "cafe",
      "lat": 43.298469,
      "lon": -2.992847,
      "direccion": "Gabriel Aresti kalea",
      "codigo_postal": null,
      "telefono": null,
      "web": null,
      "instagram": null,
      "horario": null,
      "terraza": false
    },
    {
      "id": "osm_node_7061231785",
      "nombre": "Sas",
      "tipo": "pub",
      "lat": 43.2992251,
      "lon": -2.9890744,
      "direccion": null,
      "codigo_postal": "48901",
      "telefono": null,
      "web": null,
      "instagram": null,
      "horario": null,
      "terraza": false
    },
    {
      "id": "osm_node_7154755086",
      "nombre": "Gilda Ilargi",
      "tipo": "pub",
      "lat": 43.2984209,
      "lon": -2.9920674,
      "direccion": null,
      "codigo_postal": null,
      "telefono": null,
      "web": null,
      "instagram": null,
      "horario": null,
      "terraza": false
    },
    {
      "id": "osm_node_7154755087",
      "nombre": "Lunch",
      "tipo": "cafe",
      "lat": 43.2988338,
      "lon": -2.9924858,
      "direccion": null,
      "codigo_postal": null,
      "telefono": null,
      "web": null,
      "instagram": null,
      "horario": null,
      "terraza": false
    },
    {
      "id": "osm_node_7169783787",
      "nombre": "Galatea",
      "tipo": "pub",
      "lat": 43.2993426,
      "lon": -2.9924352,
      "direccion": null,
      "codigo_postal": null,
      "telefono": null,
      "web": null,
      "instagram": null,
      "horario": null,
      "terraza": false
    },
    {
      "id": "osm_node_7169783789",
      "nombre": "Aitana",
      "tipo": "pub",
      "lat": 43.2988356,
      "lon": -2.9928277,
      "direccion": "Askatasun etorbidea",
      "codigo_postal": null,
      "telefono": null,
      "web": null,
      "instagram": null,
      "horario": null,
      "terraza": false
    },
    {
      "id": "osm_node_7169783985",
      "nombre": "Bodega La Felicidad",
      "tipo": "bar",
      "lat": 43.2993454,
      "lon": -2.9925342,
      "direccion": null,
      "codigo_postal": null,
      "telefono": null,
      "web": null,
      "instagram": null,
      "horario": null,
      "terraza": false
    },
    {
      "id": "osm_node_7201167733",
      "nombre": "Dos Mundos",
      "tipo": "cafe",
      "lat": 43.2811781,
      "lon": -2.9822086,
      "direccion": null,
      "codigo_postal": null,
      "telefono": null,
      "web": null,
      "instagram": null,
      "horario": null,
      "terraza": false
    },
    {
      "id": "osm_node_7220932988",
      "nombre": "Tíbet",
      "tipo": "cafe",
      "lat": 43.2943906,
      "lon": -2.9863252,
      "direccion": null,
      "codigo_postal": null,
      "telefono": null,
      "web": null,
      "instagram": null,
      "horario": null,
      "terraza": false
    },
    {
      "id": "osm_node_7220933186",
      "nombre": "Marta",
      "tipo": "bar",
      "lat": 43.2952019,
      "lon": -2.9858103,
      "direccion": null,
      "codigo_postal": null,
      "telefono": null,
      "web": null,
      "instagram": null,
      "horario": null,
      "terraza": false
    },
    {
      "id": "osm_node_7220933285",
      "nombre": "Niza",
      "tipo": "cafe",
      "lat": 43.2951881,
      "lon": -2.9876551,
      "direccion": null,
      "codigo_postal": "48901",
      "telefono": null,
      "web": null,
      "instagram": null,
      "horario": null,
      "terraza": false
    },
    {
      "id": "osm_node_7220933286",
      "nombre": "Centro Manchego",
      "tipo": "pub",
      "lat": 43.2943305,
      "lon": -2.9855292,
      "direccion": null,
      "codigo_postal": null,
      "telefono": null,
      "web": null,
      "instagram": null,
      "horario": null,
      "terraza": false
    },
    {
      "id": "osm_node_7220933386",
      "nombre": "Irrintzi",
      "tipo": "pub",
      "lat": 43.2942171,
      "lon": -2.9863489,
      "direccion": "Bizkaia kalea",
      "codigo_postal": null,
      "telefono": null,
      "web": null,
      "instagram": null,
      "horario": null,
      "terraza": false
    },
    {
      "id": "osm_node_7220933387",
      "nombre": "Almachar",
      "tipo": "pub",
      "lat": 43.2943269,
      "lon": -2.9858889,
      "direccion": null,
      "codigo_postal": null,
      "telefono": null,
      "web": null,
      "instagram": null,
      "horario": null,
      "terraza": false
    },
    {
      "id": "osm_node_7220933389",
      "nombre": "París",
      "tipo": "cafe",
      "lat": 43.2947061,
      "lon": -2.9858568,
      "direccion": null,
      "codigo_postal": null,
      "telefono": null,
      "web": null,
      "instagram": null,
      "horario": null,
      "terraza": false
    },
    {
      "id": "osm_node_7220933486",
      "nombre": "Copa",
      "tipo": "pub",
      "lat": 43.2941511,
      "lon": -2.9857436,
      "direccion": "Castilla y Leon kalea",
      "codigo_postal": null,
      "telefono": null,
      "web": null,
      "instagram": null,
      "horario": null,
      "terraza": false
    },
    {
      "id": "osm_node_7220933488",
      "nombre": "Los Hermanos",
      "tipo": "pub",
      "lat": 43.2946411,
      "lon": -2.9856547,
      "direccion": null,
      "codigo_postal": null,
      "telefono": null,
      "web": null,
      "instagram": null,
      "horario": null,
      "terraza": false
    },
    {
      "id": "osm_node_7227365385",
      "nombre": "Kiba",
      "tipo": "pub",
      "lat": 43.2970022,
      "lon": -2.9846985,
      "direccion": null,
      "codigo_postal": null,
      "telefono": null,
      "web": null,
      "instagram": null,
      "horario": null,
      "terraza": false
    },
    {
      "id": "osm_node_7227365485",
      "nombre": "Guria",
      "tipo": "cafe",
      "lat": 43.2968566,
      "lon": -2.9847086,
      "direccion": null,
      "codigo_postal": null,
      "telefono": null,
      "web": null,
      "instagram": null,
      "horario": null,
      "terraza": false
    },
    {
      "id": "osm_node_7227511793",
      "nombre": "New Apuko",
      "tipo": "pub",
      "lat": 43.293958,
      "lon": -2.9860855,
      "direccion": null,
      "codigo_postal": null,
      "telefono": null,
      "web": null,
      "instagram": null,
      "horario": null,
      "terraza": false
    },
    {
      "id": "osm_node_7227511794",
      "nombre": "Pachamama Asociacion",
      "tipo": "cafe",
      "lat": 43.295312,
      "lon": -2.993431,
      "direccion": null,
      "codigo_postal": null,
      "telefono": null,
      "web": null,
      "instagram": null,
      "horario": null,
      "terraza": false
    },
    {
      "id": "osm_node_7245722086",
      "nombre": "El Cuervo",
      "tipo": "pub",
      "lat": 43.2985459,
      "lon": -2.9887064,
      "direccion": null,
      "codigo_postal": null,
      "telefono": null,
      "web": null,
      "instagram": null,
      "horario": null,
      "terraza": false
    },
    {
      "id": "osm_node_7245782785",
      "nombre": "El Rincón de Montxo",
      "tipo": "pub",
      "lat": 43.300069,
      "lon": -2.988985,
      "direccion": null,
      "codigo_postal": null,
      "telefono": null,
      "web": null,
      "instagram": null,
      "horario": null,
      "terraza": false
    },
    {
      "id": "osm_node_7491736588",
      "nombre": "Parada",
      "tipo": "bar",
      "lat": 43.2847033,
      "lon": -2.9836986,
      "direccion": null,
      "codigo_postal": null,
      "telefono": null,
      "web": null,
      "instagram": null,
      "horario": null,
      "terraza": false
    },
    {
      "id": "osm_node_7678049585",
      "nombre": "Loops & coffee",
      "tipo": "cafe",
      "lat": 43.2890353,
      "lon": -3.0081637,
      "direccion": null,
      "codigo_postal": null,
      "telefono": null,
      "web": null,
      "instagram": null,
      "horario": null,
      "terraza": false
    },
    {
      "id": "osm_node_7720746686",
      "nombre": "Urrestarazu",
      "tipo": "cafe",
      "lat": 43.2888861,
      "lon": -3.0082753,
      "direccion": null,
      "codigo_postal": null,
      "telefono": null,
      "web": null,
      "instagram": null,
      "horario": null,
      "terraza": false
    },
    {
      "id": "osm_node_7922110992",
      "nombre": "Café Zalbi",
      "tipo": "bar",
      "lat": 43.2965023,
      "lon": -2.9985225,
      "direccion": null,
      "codigo_postal": null,
      "telefono": null,
      "web": null,
      "instagram": null,
      "horario": null,
      "terraza": false
    },
    {
      "id": "osm_node_8091540017",
      "nombre": "Nando",
      "tipo": "pub",
      "lat": 43.2948979,
      "lon": -2.9953267,
      "direccion": null,
      "codigo_postal": null,
      "telefono": null,
      "web": null,
      "instagram": null,
      "horario": null,
      "terraza": false
    },
    {
      "id": "osm_node_8091540317",
      "nombre": "Aragón",
      "tipo": "pub",
      "lat": 43.2916438,
      "lon": -2.9897361,
      "direccion": null,
      "codigo_postal": null,
      "telefono": null,
      "web": null,
      "instagram": null,
      "horario": null,
      "terraza": false
    },
    {
      "id": "osm_node_8108823020",
      "nombre": "Trastevere",
      "tipo": "pub",
      "lat": 43.2967703,
      "lon": -2.9918914,
      "direccion": null,
      "codigo_postal": null,
      "telefono": null,
      "web": null,
      "instagram": null,
      "horario": null,
      "terraza": false
    },
    {
      "id": "osm_node_8129131719",
      "nombre": "Ideal",
      "tipo": "cafe",
      "lat": 43.2953441,
      "lon": -2.9976164,
      "direccion": null,
      "codigo_postal": null,
      "telefono": null,
      "web": null,
      "instagram": null,
      "horario": null,
      "terraza": false
    },
    {
      "id": "osm_node_8155301320",
      "nombre": "Lagun Berriek",
      "tipo": "pub",
      "lat": 43.2866408,
      "lon": -2.9802782,
      "direccion": null,
      "codigo_postal": null,
      "telefono": null,
      "web": null,
      "instagram": null,
      "horario": null,
      "terraza": false
    },
    {
      "id": "osm_node_8155301420",
      "nombre": "Danubio",
      "tipo": "cafe",
      "lat": 43.2842118,
      "lon": -2.9837895,
      "direccion": null,
      "codigo_postal": null,
      "telefono": null,
      "web": null,
      "instagram": null,
      "horario": null,
      "terraza": false
    },
    {
      "id": "osm_node_8155301718",
      "nombre": "LPK",
      "tipo": "cafe",
      "lat": 43.2836008,
      "lon": -2.9826389,
      "direccion": null,
      "codigo_postal": null,
      "telefono": null,
      "web": null,
      "instagram": null,
      "horario": null,
      "terraza": false
    },
    {
      "id": "osm_node_8155301722",
      "nombre": "Jaikar",
      "tipo": "pub",
      "lat": 43.2837704,
      "lon": -2.9831753,
      "direccion": "Balejo kalea",
      "codigo_postal": null,
      "telefono": null,
      "web": null,
      "instagram": null,
      "horario": null,
      "terraza": false
    },
    {
      "id": "osm_node_8155301724",
      "nombre": "Gurutzeta",
      "tipo": "cafe",
      "lat": 43.2840754,
      "lon": -2.9832546,
      "direccion": null,
      "codigo_postal": null,
      "telefono": null,
      "web": null,
      "instagram": null,
      "horario": null,
      "terraza": false
    },
    {
      "id": "osm_node_8155301725",
      "nombre": "Guridi",
      "tipo": "pub",
      "lat": 43.2863647,
      "lon": -2.9805509,
      "direccion": null,
      "codigo_postal": null,
      "telefono": null,
      "web": null,
      "instagram": null,
      "horario": null,
      "terraza": false
    },
    {
      "id": "osm_node_8155301820",
      "nombre": "Cíes",
      "tipo": "pub",
      "lat": 43.2836136,
      "lon": -2.9830932,
      "direccion": "Balejo kalea",
      "codigo_postal": null,
      "telefono": null,
      "web": null,
      "instagram": null,
      "horario": null,
      "terraza": false
    },
    {
      "id": "osm_node_8155301823",
      "nombre": "Riazor",
      "tipo": "pub",
      "lat": 43.2841173,
      "lon": -2.9832537,
      "direccion": null,
      "codigo_postal": null,
      "telefono": null,
      "web": null,
      "instagram": null,
      "horario": null,
      "terraza": false
    },
    {
      "id": "osm_node_8155302019",
      "nombre": "Herradura",
      "tipo": "pub",
      "lat": 43.2852132,
      "lon": -2.9841654,
      "direccion": "Balejo kalea",
      "codigo_postal": null,
      "telefono": null,
      "web": null,
      "instagram": null,
      "horario": null,
      "terraza": false
    },
    {
      "id": "osm_node_8155302020",
      "nombre": "Juaitor",
      "tipo": "pub",
      "lat": 43.2863066,
      "lon": -2.980459,
      "direccion": null,
      "codigo_postal": null,
      "telefono": null,
      "web": null,
      "instagram": null,
      "horario": null,
      "terraza": false
    },
    {
      "id": "osm_node_8155302021",
      "nombre": "Alberdi",
      "tipo": "pub",
      "lat": 43.2865042,
      "lon": -2.9799217,
      "direccion": null,
      "codigo_postal": null,
      "telefono": null,
      "web": null,
      "instagram": null,
      "horario": null,
      "terraza": false
    },
    {
      "id": "osm_node_8155321417",
      "nombre": "Gurea",
      "tipo": "cafe",
      "lat": 43.2820752,
      "lon": -2.9828223,
      "direccion": null,
      "codigo_postal": null,
      "telefono": null,
      "web": null,
      "instagram": null,
      "horario": null,
      "terraza": false
    },
    {
      "id": "osm_node_8155330117",
      "nombre": "Gozoak",
      "tipo": "cafe",
      "lat": 43.2815602,
      "lon": -2.9835437,
      "direccion": "Gurutzeta plaza",
      "codigo_postal": null,
      "telefono": null,
      "web": null,
      "instagram": null,
      "horario": null,
      "terraza": false
    },
    {
      "id": "osm_node_8155371618",
      "nombre": "Santi",
      "tipo": "bar",
      "lat": 43.2802925,
      "lon": -2.9831366,
      "direccion": "Calle Vista Alegre kalea",
      "codigo_postal": null,
      "telefono": null,
      "web": null,
      "instagram": null,
      "horario": null,
      "terraza": false
    },
    {
      "id": "osm_node_8155371717",
      "nombre": "Roman",
      "tipo": "bar",
      "lat": 43.2808847,
      "lon": -2.9830041,
      "direccion": "Plaza de Cruces",
      "codigo_postal": null,
      "telefono": null,
      "web": null,
      "instagram": null,
      "horario": null,
      "terraza": false
    },
    {
      "id": "osm_node_8155371721",
      "nombre": "Batzoki",
      "tipo": "bar",
      "lat": 43.2800278,
      "lon": -2.9831483,
      "direccion": null,
      "codigo_postal": null,
      "telefono": null,
      "web": null,
      "instagram": null,
      "horario": null,
      "terraza": false
    },
    {
      "id": "osm_node_8155371817",
      "nombre": "Vista Alegre",
      "tipo": "bar",
      "lat": 43.2801748,
      "lon": -2.9833892,
      "direccion": "Calle Vista Alegre kalea",
      "codigo_postal": null,
      "telefono": null,
      "web": null,
      "instagram": null,
      "horario": null,
      "terraza": false
    },
    {
      "id": "osm_node_8167167524",
      "nombre": "El Arte",
      "tipo": "cafe",
      "lat": 43.2987307,
      "lon": -2.9934173,
      "direccion": "Avenida Miranda",
      "codigo_postal": null,
      "telefono": null,
      "web": null,
      "instagram": null,
      "horario": null,
      "terraza": false
    },
    {
      "id": "osm_node_8179166857",
      "nombre": "Taberna Cruces",
      "tipo": "bar",
      "lat": 43.2810848,
      "lon": -2.9842654,
      "direccion": "Calle Juan XXIII",
      "codigo_postal": null,
      "telefono": null,
      "web": null,
      "instagram": null,
      "horario": null,
      "terraza": false
    },
    {
      "id": "osm_node_8213649719",
      "nombre": "Sastre",
      "tipo": "pub",
      "lat": 43.2940453,
      "lon": -2.9860142,
      "direccion": null,
      "codigo_postal": null,
      "telefono": null,
      "web": null,
      "instagram": null,
      "horario": null,
      "terraza": false
    },
    {
      "id": "osm_node_8297101026",
      "nombre": "Embrujo",
      "tipo": "pub",
      "lat": 43.2977399,
      "lon": -2.9876793,
      "direccion": "Zaballa kalea 1",
      "codigo_postal": null,
      "telefono": null,
      "web": null,
      "instagram": null,
      "horario": null,
      "terraza": false
    },
    {
      "id": "osm_node_8350042917",
      "nombre": "Blanco y Negro",
      "tipo": "pub",
      "lat": 43.3003913,
      "lon": -2.9891861,
      "direccion": null,
      "codigo_postal": null,
      "telefono": null,
      "web": null,
      "instagram": null,
      "horario": null,
      "terraza": false
    },
    {
      "id": "osm_node_8356901418",
      "nombre": "Euskalduna",
      "tipo": "pub",
      "lat": 43.2826407,
      "lon": -2.9816071,
      "direccion": null,
      "codigo_postal": null,
      "telefono": null,
      "web": null,
      "instagram": null,
      "horario": null,
      "terraza": false
    },
    {
      "id": "osm_node_8356909218",
      "nombre": "Café Montañés",
      "tipo": "cafe",
      "lat": 43.2824513,
      "lon": -2.982355,
      "direccion": null,
      "codigo_postal": null,
      "telefono": null,
      "web": null,
      "instagram": null,
      "horario": null,
      "terraza": false
    },
    {
      "id": "osm_node_8356920417",
      "nombre": "Altos Hornos",
      "tipo": "pub",
      "lat": 43.2821278,
      "lon": -2.9825589,
      "direccion": null,
      "codigo_postal": null,
      "telefono": null,
      "web": null,
      "instagram": null,
      "horario": null,
      "terraza": false
    },
    {
      "id": "osm_node_8357507022",
      "nombre": "Maymu",
      "tipo": "bar",
      "lat": 43.2807836,
      "lon": -2.9873993,
      "direccion": null,
      "codigo_postal": null,
      "telefono": null,
      "web": null,
      "instagram": null,
      "horario": null,
      "terraza": false
    },
    {
      "id": "osm_node_8357522617",
      "nombre": "Berria",
      "tipo": "cafe",
      "lat": 43.2799249,
      "lon": -2.9858144,
      "direccion": null,
      "codigo_postal": null,
      "telefono": null,
      "web": null,
      "instagram": null,
      "horario": null,
      "terraza": false
    },
    {
      "id": "osm_node_8357522618",
      "nombre": "Barrola",
      "tipo": "pub",
      "lat": 43.2801474,
      "lon": -2.9872857,
      "direccion": null,
      "codigo_postal": null,
      "telefono": null,
      "web": null,
      "instagram": null,
      "horario": null,
      "terraza": false
    },
    {
      "id": "osm_node_8357522619",
      "nombre": "Sport",
      "tipo": "bar",
      "lat": 43.280623,
      "lon": -2.9882606,
      "direccion": null,
      "codigo_postal": null,
      "telefono": null,
      "web": null,
      "instagram": null,
      "horario": null,
      "terraza": false
    },
    {
      "id": "osm_node_8907062418",
      "nombre": "Netxe",
      "tipo": "pub",
      "lat": 43.2840952,
      "lon": -2.9830396,
      "direccion": null,
      "codigo_postal": null,
      "telefono": null,
      "web": null,
      "instagram": null,
      "horario": null,
      "terraza": false
    },
    {
      "id": "osm_node_8929271618",
      "nombre": "Parada",
      "tipo": "pub",
      "lat": 43.3011622,
      "lon": -2.9906663,
      "direccion": null,
      "codigo_postal": null,
      "telefono": null,
      "web": null,
      "instagram": null,
      "horario": null,
      "terraza": false
    },
    {
      "id": "osm_node_9080654317",
      "nombre": "O'Connor",
      "tipo": "pub",
      "lat": 43.296684,
      "lon": -2.9876751,
      "direccion": null,
      "codigo_postal": null,
      "telefono": null,
      "web": null,
      "instagram": null,
      "horario": null,
      "terraza": false
    },
    {
      "id": "osm_node_10919468335",
      "nombre": "Kantxa Taberna",
      "tipo": "pub",
      "lat": 43.2955094,
      "lon": -2.9948231,
      "direccion": null,
      "codigo_postal": null,
      "telefono": null,
      "web": null,
      "instagram": null,
      "horario": null,
      "terraza": false
    },
    {
      "id": "osm_node_11698490669",
      "nombre": "Cometa",
      "tipo": "pub",
      "lat": 43.2989114,
      "lon": -2.9877204,
      "direccion": "Europa Plaza",
      "codigo_postal": "48901",
      "telefono": null,
      "web": null,
      "instagram": null,
      "horario": null,
      "terraza": false
    },
    {
      "id": "osm_node_11703520172",
      "nombre": "Simpson's",
      "tipo": "pub",
      "lat": 43.2989358,
      "lon": -2.9847969,
      "direccion": "Dolores Ibarruri pasealekua",
      "codigo_postal": "48901",
      "telefono": null,
      "web": null,
      "instagram": null,
      "horario": null,
      "terraza": false
    },