{
  "ciudad": "Burgos",
  "total": 1586,
  "locales": [
    {
      "id": "osm_node_358201093",
      "nombre": "Bar La Escuela",
      "tipo": "pub",
      "lat": 41.6665134,
      "lon": -3.982049,
      "direccion": null,
      "codigo_postal": null,
      "telefono": null,
      "web": null,
      "instagram": null,
      "horario": "We,Th,Su,Mo 10:00-24:00, Fr,Sa 10:00-02:00",
      "terraza": false
    },
    {
      "id": "osm_node_418888212",
      "nombre": "La Pécora",
      "tipo": "pub",
      "lat": 42.3420513,
      "lon": -3.7033585,
      "direccion": null,
      "codigo_postal": null,
      "telefono": null,
      "web": null,
      "instagram": null,
      "horario": null,
      "terraza": false
    },
    {
      "id": "osm_node_418888215",
      "nombre": "Carpanta y Compañía",
      "tipo": "pub",
      "lat": 42.3423498,
      "lon": -3.7023068,
      "direccion": null,
      "codigo_postal": null,
      "telefono": null,
      "web": null,
      "instagram": null,
      "horario": null,
      "terraza": false
    },
    {
      "id": "osm_node_420089709",
      "nombre": "Via Luna",
      "tipo": "cafe",
      "lat": 42.3514056,
      "lon": -3.6902063,
      "direccion": "Avenida Cantabria",
      "codigo_postal": null,
      "telefono": null,
      "web": null,
      "instagram": null,
      "horario": null,
      "terraza": false
    },
    {
      "id": "osm_node_452409320",
      "nombre": "Carmen 13",
      "tipo": "pub",
      "lat": 42.3353453,
      "lon": -3.7037526,
      "direccion": null,
      "codigo_postal": null,
      "telefono": null,
      "web": null,
      "instagram": null,
      "horario": null,
      "terraza": true
    },
    {
      "id": "osm_node_457104779",
      "nombre": "El Plaza",
      "tipo": "pub",
      "lat": 42.3426361,
      "lon": -3.7323971,
      "direccion": null,
      "codigo_postal": null,
      "telefono": null,
      "web": null,
      "instagram": null,
      "horario": null,
      "terraza": false
    },
    {
      "id": "osm_node_506372327",
      "nombre": "Alma Mater",
      "tipo": "cafe",
      "lat": 42.341775,
      "lon": -3.7328692,
      "direccion": null,
      "codigo_postal": null,
      "telefono": null,
      "web": null,
      "instagram": null,
      "horario": null,
      "terraza": false
    },
    {
      "id": "osm_node_512686055",
      "nombre": "Mesón Froilán",
      "tipo": "pub",
      "lat": 42.3407575,
      "lon": -3.7029964,
      "direccion": null,
      "codigo_postal": null,
      "telefono": null,
      "web": null,
      "instagram": null,
      "horario": null,
      "terraza": true
    },
    {
      "id": "osm_node_512717499",
      "nombre": "El Wagón",
      "tipo": "pub",
      "lat": 42.3430828,
      "lon": -3.7085859,
      "direccion": null,
      "codigo_postal": null,
      "telefono": null,
      "web": null,
      "instagram": null,
      "horario": null,
      "terraza": false
    },
    {
      "id": "osm_node_512730765",
      "nombre": "Café España",
      "tipo": "cafe",
      "lat": 42.341779,
      "lon": -3.7019402,
      "direccion": "Calle Laín Calvo 14",
      "codigo_postal": "09003",
      "telefono": null,
      "web": null,
      "instagram": null,
      "horario": "Tu-Fr 10:00-22:00, Fr 10:00-02:00, Sa 12:00-02:00, Su 12:00-20:00",
      "terraza": false
    },
    {
      "id": "osm_node_513263095",
      "nombre": "Carabás",
      "tipo": "cafe",
      "lat": 42.3366115,
      "lon": -3.705298,
      "direccion": null,
      "codigo_postal": null,
      "telefono": null,
      "web": null,
      "instagram": null,
      "horario": null,
      "terraza": false
    },
    {
      "id": "osm_node_513263110",
      "nombre": "Bar Rodri",
      "tipo": "cafe",
      "lat": 42.3363477,
      "lon": -3.7026121,
      "direccion": null,
      "codigo_postal": null,
      "telefono": null,
      "web": null,
      "instagram": null,
      "horario": null,
      "terraza": true
    },
    {
      "id": "osm_node_514912811",
      "nombre": "Cum Laude",
      "tipo": "pub",
      "lat": 42.3328013,
      "lon": -3.7033954,
      "direccion": null,
      "codigo_postal": null,
      "telefono": null,
      "web": null,
      "instagram": null,
      "horario": null,
      "terraza": false
    },
    {
      "id": "osm_node_515018572",
      "nombre": "Nashira",
      "tipo": "pub",
      "lat": 42.3315567,
      "lon": -3.7009974,
      "direccion": null,
      "codigo_postal": null,
      "telefono": null,
      "web": null,
      "instagram": null,
      "horario": null,
      "terraza": false
    },
    {
      "id": "osm_node_515033735",
      "nombre": "Piernas Lokas",
      "tipo": "cafe",
      "lat": 42.3450173,
      "lon": -3.7208509,
      "direccion": null,
      "codigo_postal": null,
      "telefono": null,
      "web": null,
      "instagram": null,
      "horario": null,
      "terraza": false
    },
    {
      "id": "osm_node_515902714",
      "nombre": "Maricastaña",
      "tipo": "cafe",
      "lat": 42.3401207,
      "lon": -3.7029653,
      "direccion": null,
      "codigo_postal": null,
      "telefono": null,
      "web": null,
      "instagram": null,
      "horario": null,
      "terraza": false
    },
    {
      "id": "osm_node_517590884",
      "nombre": "Rio Sur",
      "tipo": "cafe",
      "lat": 42.33834,
      "lon": -3.7261148,
      "direccion": null,
      "codigo_postal": null,
      "telefono": "+34 947461701",
      "web": "https://qrco.de/bbpJ4c",
      "instagram": null,
      "horario": null,
      "terraza": false
    },
    {
      "id": "osm_node_519841608",
      "nombre": "Charito",
      "tipo": "bar",
      "lat": 42.3427498,
      "lon": -3.6943451,
      "direccion": null,
      "codigo_postal": null,
      "telefono": null,
      "web": null,
      "instagram": null,
      "horario": null,
      "terraza": false
    },
    {
      "id": "osm_node_520093209",
      "nombre": "Afiche",
      "tipo": "cafe",
      "lat": 42.3380171,
      "lon": -3.7044109,
      "direccion": null,
      "codigo_postal": null,
      "telefono": null,
      "web": null,
      "instagram": null,
      "horario": null,
      "terraza": false
    },
    {
      "id": "osm_node_520287847",
      "nombre": "Bari",
      "tipo": "bar",
      "lat": 42.3496527,
      "lon": -3.694432,
      "direccion": null,
      "codigo_postal": null,
      "telefono": null,
      "web": null,
      "instagram": null,
      "horario": null,
      "terraza": false
    },
    {
      "id": "osm_node_540666758",
      "nombre": "Juarreño",
      "tipo": "cafe",
      "lat": 42.3414622,
      "lon": -3.7011743,
      "direccion": "25",
      "codigo_postal": "09003",
      "telefono": "+34 947 21 34 90",
      "web": "https://juarreno.com",
      "instagram": null,
      "horario": "10:00-22:00",
      "terraza": true
    },
    {
      "id": "osm_node_543611988",
      "nombre": "Candelas",
      "tipo": "cafe",
      "lat": 42.3376442,
      "lon": -3.7043287,
      "direccion": null,
      "codigo_postal": null,
      "telefono": null,
      "web": null,
      "instagram": null,
      "horario": null,
      "terraza": true
    },
    {
      "id": "osm_node_543611991",
      "nombre": "Rosales",
      "tipo": "cafe",
      "lat": 42.337656,
      "lon": -3.7043914,
      "direccion": null,
      "codigo_postal": null,
      "telefono": null,
      "web": null,
      "instagram": null,
      "horario": null,
      "terraza": false
    },
    {
      "id": "osm_node_544529824",
      "nombre": "Moeda",
      "tipo": "cafe",
      "lat": 42.3423137,
      "lon": -3.7000929,
      "direccion": "Calle la Moneda 12",
      "codigo_postal": "09003",
      "telefono": "+34 947720941",
      "web": null,
      "instagram": null,
      "horario": "Mo-Fr 07:30-14:30,18:00-22:00; Sa 09:00-14:30,18:00-22:00",
      "terraza": false
    },
    {
      "id": "osm_node_571117079",
      "nombre": "La Cañada",
      "tipo": "cafe",
      "lat": 42.7394221,
      "lon": -4.1439543,
      "direccion": null,
      "codigo_postal": null,
      "telefono": null,
      "web": null,
      "instagram": null,
      "horario": null,
      "terraza": false
    },
    {
      "id": "osm_node_611626767",
      "nombre": "Nápoli",
      "tipo": "cafe",
      "lat": 42.3369614,
      "lon": -3.6996375,
      "direccion": null,
      "codigo_postal": null,
      "telefono": null,
      "web": null,
      "instagram": null,
      "horario": null,
      "terraza": false
    },
    {
      "id": "osm_node_611633536",
      "nombre": "Kerua",
      "tipo": "cafe",
      "lat": 42.335983,
      "lon": -3.702723,
      "direccion": null,
      "codigo_postal": null,
      "telefono": null,
      "web": null,
      "instagram": null,
      "horario": null,
      "terraza": true
    },
    {
      "id": "osm_node_611634922",
      "nombre": "Cernégula",
      "tipo": "cafe",
      "lat": 42.3307499,
      "lon": -3.7099537,
      "direccion": null,
      "codigo_postal": null,
      "telefono": null,
      "web": null,
      "instagram": null,
      "horario": null,
      "terraza": true
    },
    {
      "id": "osm_node_611671823",
      "nombre": "El Bar de Giovanni",
      "tipo": "cafe",
      "lat": 42.346847,
      "lon": -3.6829587,
      "direccion": null,
      "codigo_postal": null,
      "telefono": null,
      "web": null,
      "instagram": null,
      "horario": null,
      "terraza": false
    },
    {
      "id": "osm_node_611825723",
      "nombre": "Gladys",
      "tipo": "cafe",
      "lat": 42.3373617,
      "lon": -3.7024289,
      "direccion": null,
      "codigo_postal": null,
      "telefono": null,
      "web": null,
      "instagram": null,
      "horario": null,
      "terraza": true
    },
    {
      "id": "osm_node_616840764",
      "nombre": "Los Pinares",
      "tipo": "cafe",
      "lat": 42.3295988,
      "lon": -3.699463,
      "direccion": null,
      "codigo_postal": null,
      "telefono": null,
      "web": null,
      "instagram": null,
      "horario": null,
      "terraza": false
    },
    {
      "id": "osm_node_616846804",
      "nombre": "El Burgalés",
      "tipo": "cafe",
      "lat": 42.3323294,
      "lon": -3.7010734,
      "direccion": null,
      "codigo_postal": null,
      "telefono": null,
      "web": null,
      "instagram": null,
      "horario": null,
      "terraza": false
    },
    {
      "id": "osm_node_616846806",
      "nombre": "Moscú",
      "tipo": "cafe",
      "lat": 42.3318717,
      "lon": -3.6998615,
      "direccion": null,
      "codigo_postal": null,
      "telefono": null,
      "web": null,
      "instagram": null,
      "horario": null,
      "terraza": false
    },
    {
      "id": "osm_node_616846817",
      "nombre": "Adaggio",
      "tipo": "cafe",
      "lat": 42.3326638,
      "lon": -3.7000314,
      "direccion": null,
      "codigo_postal": null,
      "telefono": null,
      "web": null,
      "instagram": null,
      "horario": null,
      "terraza": false
    },
    {
      "id": "osm_node_620097187",
      "nombre": "El Rincón de la Abuela",
      "tipo": "cafe",
      "lat": 42.3491525,
      "lon": -3.7336186,
      "direccion": null,
      "codigo_postal": null,
      "telefono": null,
      "web": null,
      "instagram": null,
      "horario": null,
      "terraza": false
    },
    {
      "id": "osm_node_622647072",
      "nombre": "Zurich",
      "tipo": "pub",
      "lat": 42.3486755,
      "lon": -3.6959648,
      "direccion": null,
      "codigo_postal": null,
      "telefono": null,
      "web": null,
      "instagram": null,
      "horario": null,
      "terraza": true
    },
    {
      "id": "osm_node_622647074",
      "nombre": "El Búho",
      "tipo": "cafe",
      "lat": 42.3487364,
      "lon": -3.6957101,
      "direccion": null,
      "codigo_postal": null,
      "telefono": null,
      "web": null,
      "instagram": null,
      "horario": null,
      "terraza": false
    },
    {
      "id": "osm_node_622651214",
      "nombre": "Cari",
      "tipo": "cafe",
      "lat": 42.3431436,
      "lon": -3.714275,
      "direccion": null,
      "codigo_postal": null,
      "telefono": null,
      "web": null,
      "instagram": null,
      "horario": null,
      "terraza": false
    },
    {
      "id": "osm_node_622651248",
      "nombre": "Euro",
      "tipo": "cafe",
      "lat": 42.3435646,
      "lon": -3.6985015,
      "direccion": null,
      "codigo_postal": null,
      "telefono": null,
      "web": null,
      "instagram": null,
      "horario": null,
      "terraza": false
    },
    {
      "id": "osm_node_626937993",
      "nombre": "Miranda",
      "tipo": "cafe",
      "lat": 42.3382361,
      "lon": -3.6998666,
      "direccion": null,
      "codigo_postal": null,
      "telefono": null,
      "web": null,
      "instagram": null,
      "horario": null,
      "terraza": false
    },
    {
      "id": "osm_node_626938001",
      "nombre": "Luján",
      "tipo": "cafe",
      "lat": 42.3385024,
      "lon": -3.696442,
      "direccion": null,
      "codigo_postal": null,
      "telefono": null,
      "web": null,
      "instagram": null,
      "horario": null,
      "terraza": true
    },
    {
      "id": "osm_node_626938008",
      "nombre": "Quo",
      "tipo": "pub",
      "lat": 42.3438361,
      "lon": -3.6946664,
      "direccion": null,
      "codigo_postal": null,
      "telefono": null,
      "web": null,
      "instagram": null,
      "horario": null,
      "terraza": false
    },
    {
      "id": "osm_node_626938010",
      "nombre": "Bésame Mucho",
      "tipo": "pub",
      "lat": 42.3438357,
      "lon": -3.6945129,
      "direccion": null,
      "codigo_postal": null,
      "telefono": null,
      "web": null,
      "instagram": null,
      "horario": null,
      "terraza": false
    },
    {
      "id": "osm_node_626938011",
      "nombre": "Farándula",
      "tipo": "pub",
      "lat": 42.3438682,
      "lon": -3.6945538,
      "direccion": null,
      "codigo_postal": null,
      "telefono": null,
      "web": null,
      "instagram": null,
      "horario": null,
      "terraza": false
    },
    {
      "id": "osm_node_626938018",
      "nombre": "Charlotte",
      "tipo": "pub",
      "lat": 42.3439511,
      "lon": -3.6939521,
      "direccion": "Calle Morco 1",
      "codigo_postal": null,
      "telefono": null,
      "web": null,
      "instagram": null,
      "horario": null,
      "terraza": true
    },
    {
      "id": "osm_node_632852836",
      "nombre": "Los Faroles",
      "tipo": "cafe",
      "lat": 41.6737415,
      "lon": -3.6859892,
      "direccion": null,
      "codigo_postal": null,
      "telefono": null,
      "web": null,
      "instagram": null,
      "horario": null,
      "terraza": false
    },
    {
      "id": "osm_node_632852878",
      "nombre": "Revólver",
      "tipo": "pub",
      "lat": 41.6728551,
      "lon": -3.6857142,
      "direccion": null,
      "codigo_postal": null,
      "telefono": null,
      "web": null,
      "instagram": null,
      "horario": null,
      "terraza": false
    },
    {
      "id": "osm_node_634908621",
      "nombre": "La Plaza",
      "tipo": "cafe",
      "lat": 42.2765518,
      "lon": -3.8981153,
      "direccion": null,
      "codigo_postal": null,
      "telefono": null,
      "web": null,
      "instagram": null,
      "horario": null,
      "terraza": false
    },
    {
      "id": "osm_node_636059292",
      "nombre": "The River",
      "tipo": "cafe",
      "lat": 42.3355457,
      "lon": -3.7044966,
      "direccion": null,
      "codigo_postal": null,
      "telefono": null,
      "web": null,
      "instagram": null,
      "horario": null,
      "terraza": true
    },
    {
      "id": "osm_node_638470784",
      "nombre": "Utopía",
      "tipo": "cafe",
      "lat": 42.3343386,
      "lon": -3.7008088,
      "direccion": null,
      "codigo_postal": null,
      "telefono": null,
      "web": null,
      "instagram": null,
      "horario": null,
      "terraza": false
    },
    {
      "id": "osm_node_646636839",
      "nombre": "Cervantes",
      "tipo": "cafe",
      "lat": 42.3344012,
      "lon": -3.6944938,
      "direccion": null,
      "codigo_postal": null,
      "telefono": null,
      "web": null,
      "instagram": null,
      "horario": null,
      "terraza": false
    },
    {
      "id": "osm_node_646660691",
      "nombre": "El choyo",
      "tipo": "cafe",
      "lat": 42.3385965,
      "lon": -3.6925256,
      "direccion": null,
      "codigo_postal": null,
      "telefono": null,
      "web": null,
      "instagram": null,
      "horario": null,
      "terraza": false
    },
    {
      "id": "osm_node_646660718",
      "nombre": "La Tirolina",
      "tipo": "cafe",
      "lat": 42.3426822,
      "lon": -3.6969144,
      "direccion": null,
      "codigo_postal": null,
      "telefono": null,
      "web": null,
      "instagram": null,
      "horario": null,
      "terraza": false
    },
    {
      "id": "osm_node_646660720",
      "nombre": "Panadería Bertiz",
      "tipo": "cafe",
      "lat": 42.3419031,
      "lon": -3.6964694,
      "direccion": "Calle San Lesmes 1",
      "codigo_postal": "09004",
      "telefono": "+34 686 63 41 11",
      "web": null,
      "instagram": null,
      "horario": "Mo-Sa 07:45-21:00; Su 08:30-21:00",
      "terraza": false
    },
    {
      "id": "osm_node_646660751",
      "nombre": "La Barrica",
      "tipo": "cafe",
      "lat": 42.3482022,
      "lon": -3.6964248,
      "direccion": null,
      "codigo_postal": null,
      "telefono": null,
      "web": null,
      "instagram": null,
      "horario": null,
      "terraza": false
    },
    {
      "id": "osm_node_651008303",
      "nombre": "África",
      "tipo": "cafe",
      "lat": 42.3513514,
      "lon": -3.67296,
      "direccion": null,
      "codigo_postal": null,
      "telefono": null,
      "web": null,
      "instagram": null,
      "horario": null,
      "terraza": true
    },
    {
      "id": "osm_node_652858714",
      "nombre": "Asturias",
      "tipo": "cafe",
      "lat": 42.3531756,
      "lon": -3.6803475,
      "direccion": null,
      "codigo_postal": null,
      "telefono": null,
      "web": null,
      "instagram": null,
      "horario": null,
      "terraza": false
    },
    {
      "id": "osm_node_655333534",
      "nombre": "El Cruce",
      "tipo": "bar",
      "lat": 42.1341193,
      "lon": -3.9711029,
      "direccion": null,
      "codigo_postal": null,
      "telefono": "+34 947174017",
      "web": null,
      "instagram": null,
      "horario": null,
      "terraza": false
    },
    {
      "id": "osm_node_662848380",
      "nombre": "Boston",
      "tipo": "cafe",
      "lat": 42.3431064,
      "lon": -3.6990095,
      "direccion": null,
      "codigo_postal": null,
      "telefono": null,
      "web": null,
      "instagram": null,
      "horario": null,
      "terraza": false
    },
    {
      "id": "osm_node_662848381",
      "nombre": "El Cafetín",
      "tipo": "cafe",
      "lat": 42.3440253,
      "lon": -3.6982319,
      "direccion": null,
      "codigo_postal": null,
      "telefono": null,
      "web": null,
      "instagram": null,
      "horario": "Mo-Sa 07:00-16:00",
      "terraza": false
    },
    {
      "id": "osm_node_662848382",
      "nombre": "Montreal",
      "tipo": "cafe",
      "lat": 42.3442228,
      "lon": -3.6981402,
      "direccion": "Plaza España 10",
      "codigo_postal": "09005",
      "telefono": "+34 947 20 90 26",
      "web": null,
      "instagram": null,
      "horario": "Mo-Fr 09:00-22:30; Sa 09:30-22:30; Su off",
      "terraza": true
    },
    {
      "id": "osm_node_663454323",
      "nombre": "Plan B",
      "tipo": "cafe",
      "lat": 42.3488157,
      "lon": -3.6798352,
      "direccion": "Calle San Roque 3",
      "codigo_postal": null,
      "telefono": "+34 947 23 98 60",
      "web": null,
      "instagram": null,
      "horario": null,
      "terraza": true
    },
    {
      "id": "osm_node_665241030",
      "nombre": "Café Tapa",
      "tipo": "cafe",
      "lat": 42.3459421,
      "lon": -3.6976695,
      "direccion": "Avenida Cid Campeador 24",
      "codigo_postal": null,
      "telefono": "+34 947 23 68 64",
      "web": null,
      "instagram": null,
      "horario": "Mo-Su 08:00-24:00",
      "terraza": false
    },
    {
      "id": "osm_node_667339465",
      "nombre": "B&J",
      "tipo": "cafe",
      "lat": 42.3451303,
      "lon": -3.6977517,
      "direccion": "Calle Ana María Lopidana 4",
      "codigo_postal": null,
      "telefono": null,
      "web": null,
      "instagram": null,
      "horario": null,
      "terraza": true
    },
    {
      "id": "osm_node_667449323",
      "nombre": "Robinson",
      "tipo": "pub",
      "lat": 42.3450195,
      "lon": -3.6954997,
      "direccion": null,
      "codigo_postal": null,
      "telefono": null,
      "web": null,
      "instagram": null,
      "horario": null,
      "terraza": false
    },
    {
      "id": "osm_node_667449340",
      "nombre": "La Niña",
      "tipo": "cafe",
      "lat": 42.3454412,
      "lon": -3.6945562,
      "direccion": null,
      "codigo_postal": null,
      "telefono": null,
      "web": null,
      "instagram": null,
      "horario": null,
      "terraza": false
    },
    {
      "id": "osm_node_667453828",
      "nombre": "Arlekín",
      "tipo": "cafe",
      "lat": 42.3443042,
      "lon": -3.6983134,
      "direccion": null,
      "codigo_postal": null,
      "telefono": null,
      "web": null,
      "instagram": null,
      "horario": "Mo-Fr 08:00-15:30+,20:00-21:30",
      "terraza": false
    },
    {
      "id": "osm_node_667460617",
      "nombre": "El nuevo Moypi",
      "tipo": "cafe",
      "lat": 42.3504465,
      "lon": -3.6956003,
      "direccion": null,
      "codigo_postal": null,
      "telefono": null,
      "web": null,
      "instagram": null,
      "horario": null,
      "terraza": false
    },
    {
      "id": "osm_node_667466056",
      "nombre": "El Tamboril de Alberto",
      "tipo": "cafe",
      "lat": 42.3479884,
      "lon": -3.6944797,
      "direccion": null,
      "codigo_postal": null,
      "telefono": "+34 947 23 75 55",
      "web": null,
      "instagram": null,
      "horario": null,
      "terraza": true
    },
    {
      "id": "osm_node_676067040",
      "nombre": "The taverner",
      "tipo": "bar",
      "lat": 42.3479802,
      "lon": -3.6947847,
      "direccion": "Calle Cristóbal Colón 7",
      "codigo_postal": null,
      "telefono": null,
      "web": null,
      "instagram": null,
      "horario": null,
      "terraza": false
    },
    {
      "id": "osm_node_676067043",
      "nombre": "Donde Mica",
      "tipo": "cafe",
      "lat": 42.3484837,
      "lon": -3.6960998,
      "direccion": null,
      "codigo_postal": null,
      "telefono": null,
      "web": null,
      "instagram": null,
      "horario": null,
      "terraza": false
    },
    {
      "id": "osm_node_676067045",
      "nombre": "Bodeguita Avenida setenta y cuatro",
      "tipo": "cafe",
      "lat": 42.3492344,
      "lon": -3.696168,
      "direccion": null,
      "codigo_postal": null,
      "telefono": null,
      "web": null,
      "instagram": null,
      "horario": null,
      "terraza": false
    },
    {
      "id": "osm_node_676067047",
      "nombre": "El Recio",
      "tipo": "cafe",
      "lat": 42.3482011,
      "lon": -3.6951903,
      "direccion": null,
      "codigo_postal": null,
      "telefono": null,
      "web": null,
      "instagram": null,
      "horario": null,
      "terraza": false
    },
    {
      "id": "osm_node_676108521",
      "nombre": "Marshmallow",
      "tipo": "bar",
      "lat": 42.3471372,
      "lon": -3.6957094,
      "direccion": null,
      "codigo_postal": null,
      "telefono": null,
      "web": null,
      "instagram": null,
      "horario": null,
      "terraza": false
    },
    {
      "id": "osm_node_676108527",
      "nombre": "Yoko",
      "tipo": "bar",
      "lat": 42.346857,
      "lon": -3.6951101,
      "direccion": null,
      "codigo_postal": null,
      "telefono": null,
      "web": null,
      "instagram": null,
      "horario": null,
      "terraza": false
    },
    {
      "id": "osm_node_676112921",
      "nombre": "Chigre Astur",
      "tipo": "bar",
      "lat": 42.350716,
      "lon": -3.6903219,
      "direccion": null,
      "codigo_postal": null,
      "telefono": null,
      "web": null,
      "instagram": null,
      "horario": null,
      "terraza": false
    },
    {
      "id": "osm_node_676112922",
      "nombre": "Nuevo Río",
      "tipo": "bar",
      "lat": 42.3509429,
      "lon": -3.6899768,
      "direccion": null,
      "codigo_postal": null,
      "telefono": null,
      "web": null,
      "instagram": null,
      "horario": null,
      "terraza": false
    },
    {
      "id": "osm_node_676120634",
      "nombre": "El Soportal",
      "tipo": "pub",
      "lat": 42.4180884,
      "lon": -4.043308,
      "direccion": null,
      "codigo_postal": null,
      "telefono": null,
      "web": null,
      "instagram": null,
      "horario": null,
      "terraza": false
    },
    {
      "id": "osm_node_676120638",
      "nombre": "Gloria",
      "tipo": "pub",
      "lat": 42.4178175,
      "lon": -4.0441566,
      "direccion": null,
      "codigo_postal": null,
      "telefono": null,
      "web": null,
      "instagram": null,
      "horario": null,
      "terraza": false
    },
    {
      "id": "osm_node_676120648",
      "nombre": "Negro",
      "tipo": "pub",
      "lat": 42.4174597,
      "lon": -4.0428126,
      "direccion": null,
      "codigo_postal": null,
      "telefono": null,
      "web": null,
      "instagram": null,
      "horario": null,
      "terraza": false
    },
    {
      "id": "osm_node_687061306",
      "nombre": "La Oficina",
      "tipo": "cafe",
      "lat": 42.3481196,
      "lon": -3.6842693,
      "direccion": null,
      "codigo_postal": null,
      "telefono": null,
      "web": null,
      "instagram": null,
      "horario": null,
      "terraza": true
    },
    {
      "id": "osm_node_687544303",
      "nombre": "Fuxión",
      "tipo": "pub",
      "lat": 42.3413522,
      "lon": -3.7021913,
      "direccion": "Plaza Mayor 11",
      "codigo_postal": "09003",
      "telefono": null,
      "web": null,
      "instagram": null,
      "horario": null,
      "terraza": false
    },
    {
      "id": "osm_node_693176706",
      "nombre": "Taberna Larrein",
      "tipo": "bar",
      "lat": 42.7195898,
      "lon": -2.5958302,
      "direccion": null,
      "codigo_postal": null,
      "telefono": null,
      "web": null,
      "instagram": null,
      "horario": null,
      "terraza": false
    },
    {
      "id": "osm_node_710077518",
      "nombre": "4x4",
      "tipo": "cafe",
      "lat": 42.3308917,
      "lon": -3.7004365,
      "direccion": null,
      "codigo_postal": null,
      "telefono": null,
      "web": null,
      "instagram": null,
      "horario": null,
      "terraza": false
    },
    {
      "id": "osm_node_711720880",
      "nombre": "El Palco",
      "tipo": "cafe",
      "lat": 42.345641,
      "lon": -3.6832477,
      "direccion": null,
      "codigo_postal": null,
      "telefono": null,
      "web": "https://elpalcoburgos.com",
      "instagram": null,
      "horario": null,
      "terraza": false
    },
    {
      "id": "osm_node_711720910",
      "nombre": "Oslo",
      "tipo": "cafe",
      "lat": 42.3471966,
      "lon": -3.6815692,
      "direccion": null,
      "codigo_postal": null,
      "telefono": null,
      "web": null,
      "instagram": null,
      "horario": null,
      "terraza": false
    },
    {
      "id": "osm_node_711720997",
      "nombre": "Atabal",
      "tipo": "cafe",
      "lat": 42.3470694,
      "lon": -3.6818099,
      "direccion": null,
      "codigo_postal": null,
      "telefono": null,
      "web": null,
      "instagram": null,
      "horario": null,
      "terraza": true
    },
    {
      "id": "osm_node_711721056",
      "nombre": "El Sótano - Café Cultural",
      "tipo": "bar",
      "lat": 42.3467523,
      "lon": -3.6823868,
      "direccion": null,
      "codigo_postal": null,
      "telefono": null,
      "web": null,
      "instagram": null,
      "horario": "Mo-Th 09:30-15:30,19:00-23:00, Fr 09:30-15:30,19:00-24:00, Sa 12:00-15:30,19:00-24:00, Su 12:00-15:30",
      "terraza": true
    },
    {
      "id": "osm_node_715836426",
      "nombre": "D' Angela",
      "tipo": "bar",
      "lat": 42.3331261,
      "lon": -3.7002314,
      "direccion": null,
      "codigo_postal": null,
      "telefono": null,
      "web": null,
      "instagram": null,
      "horario": null,
      "terraza": false
    },
    {
      "id": "osm_node_721207390",
      "nombre": "Juez",
      "tipo": "bar",
      "lat": 42.3456008,
      "lon": -3.7125318,
      "direccion": null,
      "codigo_postal": null,
      "telefono": null,
      "web": null,
      "instagram": null,
      "horario": null,
      "terraza": false
    },
    {
      "id": "osm_node_721207392",
      "nombre": "La Paloma",
      "tipo": "bar",
      "lat": 42.3444415,
      "lon": -3.7126224,
      "direccion": null,
      "codigo_postal": null,
      "telefono": null,
      "web": null,
      "instagram": null,
      "horario": null,
      "terraza": false
    },
    {
      "id": "osm_node_721359441",
      "nombre": "Cafetería Sandro",
      "tipo": "cafe",
      "lat": 42.3411269,
      "lon": -3.6966889,
      "direccion": null,
      "codigo_postal": null,
      "telefono": null,
      "web": null,
      "instagram": null,
      "horario": null,
      "terraza": true
    },
    {
      "id": "osm_node_721375662",
      "nombre": "El Gusto",
      "tipo": "cafe",
      "lat": 42.3409689,
      "lon": -3.6974685,
      "direccion": null,
      "codigo_postal": null,
      "telefono": null,
      "web": null,
      "instagram": null,
      "horario": null,
      "terraza": false
    },
    {
      "id": "osm_node_724113292",
      "nombre": "Latino",
      "tipo": "cafe",
      "lat": 42.3419513,
      "lon": -3.701901,
      "direccion": "Calle Laín Calvo 20",
      "codigo_postal": "09003",
      "telefono": null,
      "web": null,
      "instagram": null,
      "horario": "Mo-Fr 10:00-15:00,17:00-22:00; Sa 10:00-24:00; Su 00:00-01:00,17:00-22:00",
      "terraza": false
    },
    {
      "id": "osm_node_724113304",
      "nombre": "Vara Café",
      "tipo": "cafe",
      "lat": 42.3444448,
      "lon": -3.7006859,
      "direccion": null,
      "codigo_postal": null,
      "telefono": "+34 947 20 08 60",
      "web": null,
      "instagram": null,
      "horario": "Tu-Th 09:00-24:00; Fr 09:00-02:00, Sa 10:00-02:30, Su 10:00-23:00",
      "terraza": false
    },
    {
      "id": "osm_node_724113314",
      "nombre": "Tapería Ambrosía",
      "tipo": "cafe",
      "lat": 42.3418209,
      "lon": -3.7019333,
      "direccion": "Calle Laín Calvo 16",
      "codigo_postal": "09003",
      "telefono": null,
      "web": "https://ambrosiaburgos.es/",
      "instagram": null,
      "horario": "Tu-Fr 10:00-15:00,17:00-23:00; Su 12:00-15:00; Sa 12:00-16:00,19:00-23:00",
      "terraza": false
    },
    {
      "id": "osm_node_724157389",
      "nombre": "En otra Época",
      "tipo": "bar",
      "lat": 42.3463473,
      "lon": -3.6882879,
      "direccion": null,
      "codigo_postal": null,
      "telefono": null,
      "web": null,
      "instagram": null,
      "horario": null,
      "terraza": false
    },
    {
      "id": "osm_node_725578141",
      "nombre": "Pozanos",
      "tipo": "cafe",
      "lat": 42.3437506,
      "lon": -3.7028365,
      "direccion": null,
      "codigo_postal": null,
      "telefono": null,
      "web": null,
      "instagram": null,
      "horario": null,
      "terraza": false
    },
    {
      "id": "osm_node_725578144",
      "nombre": "La Aceituna",
      "tipo": "bar",
      "lat": 42.3440767,
      "lon": -3.7038567,
      "direccion": null,
      "codigo_postal": null,
      "telefono": null,
      "web": null,
      "instagram": null,
      "horario": null,
      "terraza": false
    },
    {
      "id": "osm_node_734117521",
      "nombre": "Punto 1",
      "tipo": "cafe",
      "lat": 42.3487047,
      "lon": -3.6803001,
      "direccion": null,
      "codigo_postal": null,
      "telefono": null,
      "web": null,
      "instagram": null,
      "horario": null,
      "terraza": true
    },
    {
      "id": "osm_node_739545041",
      "nombre": "Urbel",
      "tipo": "cafe",
      "lat": 42.3503859,
      "lon": -3.6841288,
      "direccion": null,
      "codigo_postal": null,
      "telefono": null,
      "web": null,
      "instagram": null,
      "horario": null,
      "terraza": false
    },
    {
      "id": "osm_node_739573667",
      "nombre": "Caroa",
      "tipo": "cafe",
      "lat": 42.3516971,
      "lon": -3.6849976,
      "direccion": null,
      "codigo_postal": null,
      "telefono": null,
      "web": null,
      "instagram": null,
      "horario": null,
      "terraza": false
    },
    {
      "id": "osm_node_740034765",
      "nombre": "Victoria",
      "tipo": "bar",
      "lat": 42.3496838,
      "lon": -3.6855973,
      "direccion": null,
      "codigo_postal": null,
      "telefono": null,
      "web": null,
      "instagram": null,
      "horario": null,
      "terraza": false
    },
    {
      "id": "osm_node_741497762",
      "nombre": "Huelgas",
      "tipo": "bar",
      "lat": 42.3372641,
      "lon": -3.7198361,
      "direccion": null,
      "codigo_postal": null,
      "telefono": null,
      "web": null,
      "instagram": null,
      "horario": null,
      "terraza": false
    },
    {
      "id": "osm_node_741497772",
      "nombre": "Bristol",
      "tipo": "cafe",
      "lat": 42.3444652,
      "lon": -3.6976849,
      "direccion": null,
      "codigo_postal": null,
      "telefono": null,
      "web": null,
      "instagram": null,
      "horario": null,
      "terraza": false
    },
    {
      "id": "osm_node_741497779",
      "nombre": "Coffee Time",
      "tipo": "cafe",
      "lat": 42.35071,
      "lon": -3.6819118,
      "direccion": null,
      "codigo_postal": null,
      "telefono": null,
      "web": null,
      "instagram": null,
      "horario": null,
      "terraza": false
    },
    {
      "id": "osm_node_745406233",
      "nombre": "La Pausa",
      "tipo": "cafe",
      "lat": 42.3630013,
      "lon": -3.6573439,
      "direccion": "Carretera Poza 89",
      "codigo_postal": "09007",
      "telefono": null,
      "web": null,
      "instagram": null,
      "horario": null,
      "terraza": false
    },
    {
      "id": "osm_node_745406242",
      "nombre": "Tíber",
      "tipo": "cafe",
      "lat": 42.363307,
      "lon": -3.6585079,
      "direccion": "Calle Rosa Chacel 7",
      "codigo_postal": "09007",
      "telefono": null,
      "web": null,
      "instagram": null,
      "horario": null,
      "terraza": false
    },
    {
      "id": "osm_node_745406272",
      "nombre": "St. Andrews",
      "tipo": "cafe",
      "lat": 42.3643159,
      "lon": -3.6559658,
      "direccion": null,
      "codigo_postal": null,
      "telefono": "+34 947 34 56 60",
      "web": "https://standrewsburgos.es/",
      "instagram": null,
      "horario": null,
      "terraza": false
    },
    {
      "id": "osm_node_747691588",
      "nombre": "Pozano",
      "tipo": "cafe",
      "lat": 42.3377338,
      "lon": -3.701352,
      "direccion": "Calle Madrid 7",
      "codigo_postal": null,
      "telefono": null,
      "web": null,
      "instagram": null,
      "horario": null,
      "terraza": false
    },
    {
      "id": "osm_node_748825040",
      "nombre": "Mercados",
      "tipo": "cafe",
      "lat": 42.3381581,
      "lon": -3.7004126,
      "direccion": null,
      "codigo_postal": null,
      "telefono": null,
      "web": null,
      "instagram": null,
      "horario": null,
      "terraza": false
    },
    {
      "id": "osm_node_749955482",
      "nombre": "Entre Tapas",
      "tipo": "bar",
      "lat": 42.3541297,
      "lon": -3.666099,
      "direccion": "Calle Vitoria 226",
      "codigo_postal": "09007",
      "telefono": null,
      "web": null,
      "instagram": null,
      "horario": "Mo-Sa 06:30-22:30",
      "terraza": false
    },
    {
      "id": "osm_node_756531317",
      "nombre": "La Caña de Azúcar",
      "tipo": "cafe",
      "lat": 42.3593524,
      "lon": -3.6780308,
      "direccion": null,
      "codigo_postal": null,
      "telefono": null,
      "web": null,
      "instagram": null,
      "horario": null,
      "terraza": false
    },
    {
      "id": "osm_node_756531323",
      "nombre": "B-doce",
      "tipo": "cafe",
      "lat": 42.3606993,
      "lon": -3.6767771,
      "direccion": null,
      "codigo_postal": null,
      "telefono": null,
      "web": null,
      "instagram": null,
      "horario": null,
      "terraza": false
    },
    {
      "id": "osm_node_761323095",
      "nombre": "Bocata",
      "tipo": "cafe",
      "lat": 42.3429988,
      "lon": -3.6881573,
      "direccion": null,
      "codigo_postal": null,
      "telefono": null,
      "web": null,
      "instagram": null,
      "horario": null,
      "terraza": false
    },
    {
      "id": "osm_node_761323098",
      "nombre": "Bar Tropical",
      "tipo": "cafe",
      "lat": 42.342873,
      "lon": -3.6880859,
      "direccion": "Calle Santa Casilda 8",
      "codigo_postal": null,
      "telefono": "+34 947 71 83 17",
      "web": null,
      "instagram": null,
      "horario": null,
      "terraza": false
    },
    {
      "id": "osm_node_764053129",
      "nombre": "Dilema",
      "tipo": "cafe",
      "lat": 42.3326086,
      "lon": -3.699173,
      "direccion": null,
      "codigo_postal": null,
      "telefono": null,
      "web": null,
      "instagram": null,
      "horario": null,
      "terraza": false
    },
    {
      "id": "osm_node_764053153",
      "nombre": "Noia",
      "tipo": "cafe",
      "lat": 42.3495443,
      "lon": -3.6687202,
      "direccion": null,
      "codigo_postal": null,
      "telefono": "+34 609 045 087",
      "web": "https://barnoia.com/",
      "instagram": null,
      "horario": null,
      "terraza": false
    },
    {
      "id": "osm_node_764053155",
      "nombre": "La Biblioteca",
      "tipo": "cafe",
      "lat": 42.3509253,
      "lon": -3.6641675,
      "direccion": null,
      "codigo_postal": null,
      "telefono": null,
      "web": null,
      "instagram": null,
      "horario": null,
      "terraza": false
    },
    {
      "id": "osm_node_764925624",
      "nombre": "Seijas",
      "tipo": "bar",
      "lat": 42.3511061,
      "lon": -3.6651676,
      "direccion": null,
      "codigo_postal": null,
      "telefono": null,
      "web": null,
      "instagram": null,
      "horario": null,
      "terraza": false
    },
    {
      "id": "osm_node_764953215",
      "nombre": "Vélez",
      "tipo": "bar",
      "lat": 42.8480827,
      "lon": -3.3353149,
      "direccion": null,
      "codigo_postal": null,
      "telefono": null,
      "web": null,
      "instagram": null,
      "horario": null,
      "terraza": false
    },
    {
      "id": "osm_node_784298229",
      "nombre": "San Agustín",
      "tipo": "cafe",
      "lat": 42.3326699,
      "lon": -3.7022846,
      "direccion": null,
      "codigo_postal": null,
      "telefono": null,
      "web": null,
      "instagram": null,
      "horario": null,
      "terraza": false
    },
    {
      "id": "osm_node_784298551",
      "nombre": "MDS Brothers",
      "tipo": "pub",
      "lat": 42.3329186,
      "lon": -3.7016714,
      "direccion": null,
      "codigo_postal": null,
      "telefono": null,
      "web": null,
      "instagram": null,
      "horario": null,
      "terraza": false
    },
    {
      "id": "osm_node_797377426",
      "nombre": "Romeral",
      "tipo": "cafe",
      "lat": 42.3415911,
      "lon": -3.7157778,
      "direccion": null,
      "codigo_postal": null,
      "telefono": null,
      "web": null,
      "instagram": null,
      "horario": null,
      "terraza": true
    },
    {
      "id": "osm_node_806735674",
      "nombre": "Casa Cantabria",
      "tipo": "cafe",
      "lat": 42.3498066,
      "lon": -3.6963314,
      "direccion": "Avenida Cid Campeador 67",
      "codigo_postal": "09005",
      "telefono": null,
      "web": null,
      "instagram": null,
      "horario": null,
      "terraza": false
    },
    {
      "id": "osm_node_835518974",
      "nombre": "Vis a vis",
      "tipo": "pub",
      "lat": 42.3489288,
      "lon": -3.6924838,
      "direccion": null,
      "codigo_postal": null,
      "telefono": null,
      "web": null,
      "instagram": null,
      "horario": null,
      "terraza": false
    },
    {
      "id": "osm_node_835518975",
      "nombre": "La Playa",
      "tipo": "cafe",
      "lat": 42.3430006,
      "lon": -3.6869823,
      "direccion": null,
      "codigo_postal": null,
      "telefono": null,
      "web": null,
      "instagram": null,
      "horario": null,
      "terraza": false
    },
    {
      "id": "osm_node_862037528",
      "nombre": "Karra's",
      "tipo": "pub",
      "lat": 42.1316726,
      "lon": -3.9728484,
      "direccion": null,
      "codigo_postal": null,
      "telefono": null,
      "web": null,
      "instagram": null,
      "horario": null,
      "terraza": false
    },
    {
      "id": "osm_node_862037537",
      "nombre": "Félix",
      "tipo": "bar",
      "lat": 42.1323617,
      "lon": -3.974716,
      "direccion": null,
      "codigo_postal": null,
      "telefono": "+34 947174077",
      "web": null,
      "instagram": null,
      "horario": null,
      "terraza": false
    },
    {
      "id": "osm_node_881242815",
      "nombre": "Vermutería Victoria",
      "tipo": "bar",
      "lat": 42.3401689,
      "lon": -3.703301,
      "direccion": "Plaza Rey San Fernando 4",
      "codigo_postal": "09003",
      "telefono": "+34 947 26 17 83",
      "web": "https://vermuteriavictoria.com/",
      "instagram": null,
      "horario": "Mo-Fr 09:00-24:55; Sa-Su 09:00-02:00",
      "terraza": false
    },
    {
      "id": "osm_node_881242821",
      "nombre": "Los cantos",
      "tipo": "cafe",
      "lat": 42.338153,
      "lon": -3.7016944,
      "direccion": "Calle Madrid 1",
      "codigo_postal": null,
      "telefono": null,
      "web": null,
      "instagram": null,
      "horario": null,
      "terraza": false
    },
    {
      "id": "osm_node_881242835",
      "nombre": "Juarreño",
      "tipo": "cafe",
      "lat": 42.3414604,
      "lon": -3.6997374,
      "direccion": "Plaza Santo Domingo de Guzmán 8",
      "codigo_postal": "09004",
      "telefono": "+34 947271185",
      "web": "https://juarreno.com",
      "instagram": null,
      "horario": "Mo-Fr 07:30-22:00; Sa,Su 08:30-22:00",
      "terraza": true
    },
    {
      "id": "osm_node_881242838",
      "nombre": "Beniluz",
      "tipo": "bar",
      "lat": 42.3498725,
      "lon": -3.6919285,
      "direccion": "Calle Federico Olmeda 17",
      "codigo_postal": "09006",
      "telefono": null,
      "web": null,
      "instagram": null,
      "horario": "Mo-Fr 09:00-23:00; Sa 09:30-24:00; Su 12:00-15:30,16:30-22:00",
      "terraza": false
    },
    {
      "id": "osm_node_881242844",
      "nombre": "La BienQuerida",
      "tipo": "bar",
      "lat": 42.3431178,
      "lon": -3.6874184,
      "direccion": null,
      "codigo_postal": null,
      "telefono": "+34643528454",
      "web": null,
      "instagram": null,
      "horario": null,
      "terraza": false
    },
    {
      "id": "osm_node_897964679",
      "nombre": "Sala Andén 56",
      "tipo": "cafe",
      "lat": 42.3320111,
      "lon": -3.7095807,
      "direccion": null,
      "codigo_postal": null,
      "telefono": null,
      "web": null,
      "instagram": null,
      "horario": null,
      "terraza": false
    },
    {
      "id": "osm_node_897964685",
      "nombre": "Camarero",
      "tipo": "cafe",
      "lat": 42.3327599,
      "lon": -3.7048788,
      "direccion": null,
      "codigo_postal": null,
      "telefono": null,
      "web": null,
      "instagram": null,
      "horario": null,
      "terraza": false
    },
    {
      "id": "osm_node_904867747",
      "nombre": "Azalea",
      "tipo": "cafe",
      "lat": 42.333391,
      "lon": -3.6986903,
      "direccion": null,
      "codigo_postal": null,
      "telefono": null,
      "web": null,
      "instagram": null,
      "horario": null,
      "terraza": false
    },
    {
      "id": "osm_node_920607446",
      "nombre": "El Estribo",
      "tipo": "cafe",
      "lat": 42.3514637,
      "lon": -3.6730861,
      "direccion": null,
      "codigo_postal": null,
      "telefono": null,
      "web": null,
      "instagram": null,
      "horario": null,
      "terraza": true
    },
    {
      "id": "osm_node_920607450",
      "nombre": "La Plata",
      "tipo": "cafe",
      "lat": 42.3526247,
      "lon": -3.6811277,
      "direccion": null,
      "codigo_postal": null,
      "telefono": null,
      "web": null,
      "instagram": null,
      "horario": "Sa-Su 08:30-01:00",
      "terraza": false
    },
    {
      "id": "osm_node_938819964",
      "nombre": "Cerveceria Golden Rock and Beer",
      "tipo": "pub",
      "lat": 42.3390574,
      "lon": -3.7007727,
      "direccion": "Calle Calera 19",
      "codigo_postal": "09002",
      "telefono": "+34947250914",
      "web": "https://www.cerveceriagolden.com/restaurante-golden-rock/",
      "instagram": null,
      "horario": null,
      "terraza": false
    },
    {
      "id": "osm_node_938819979",
      "nombre": "Dania",
      "tipo": "cafe",
      "lat": 42.3424518,
      "lon": -3.6996428,
      "direccion": "Calle Santander 17",
      "codigo_postal": null,
      "telefono": null,
      "web": null,
      "instagram": null,
      "horario": null,
      "terraza": false
    },
    {
      "id": "osm_node_940466506",
      "nombre": "La Zita",
      "tipo": "cafe",
      "lat": 42.359204,
      "lon": -3.6797349,
      "direccion": null,
      "codigo_postal": null,
      "telefono": null,
      "web": null,
      "instagram": null,
      "horario": null,
      "terraza": false
    },
    {
      "id": "osm_node_940796761",
      "nombre": "La Amistad",
      "tipo": "cafe",
      "lat": 42.3465803,
      "lon": -3.6644361,
      "direccion": null,
      "codigo_postal": null,
      "telefono": null,
      "web": null,
      "instagram": null,
      "horario": "Mo-Sa 05:00-23:30",
      "terraza": false
    },
    {
      "id": "osm_node_945711948",
      "nombre": "Que bar",
      "tipo": "bar",
      "lat": 42.3382843,
      "lon": -3.701517,
      "direccion": null,
      "codigo_postal": null,
      "telefono": null,
      "web": null,
      "instagram": null,
      "horario": null,
      "terraza": false
    },
    {
      "id": "osm_node_954114472",
      "nombre": "Padoca",
      "tipo": "cafe",
      "lat": 42.3405558,
      "lon": -3.7036142,
      "direccion": "Calle la Paloma 41",
      "codigo_postal": null,
      "telefono": null,
      "web": null,
      "instagram": null,
      "horario": "Su 09:00-16:00; Tu-Sa 09:00-20:00",
      "terraza": false
    },
    {
      "id": "osm_node_954177440",
      "nombre": "El Soportal",
      "tipo": "cafe",
      "lat": 42.3411078,
      "lon": -3.7027523,
      "direccion": "Calle Sombrerería 5",
      "codigo_postal": "09003",
      "telefono": null,
      "web": null,
      "instagram": null,
      "horario": null,
      "terraza": false
    },
    {
      "id": "osm_node_954178167",
      "nombre": "Acuarium",
      "tipo": "cafe",
      "lat": 42.341067,
      "lon": -3.7010066,
      "direccion": "Travesía del Mercado 9",
      "codigo_postal": "09003",
      "telefono": "+34 650 54 93 47",
      "web": null,
      "instagram": null,
      "horario": "Mo-Th 07:15-22:30; Fr 07:15-23:30; Sa 08:15-23:59",
      "terraza": true
    },
    {
      "id": "osm_node_954291925",
      "nombre": "Ávatar",
      "tipo": "bar",
      "lat": 42.3400392,
      "lon": -3.7050596,
      "direccion": "Calle Nuño Rasura 8",
      "codigo_postal": null,
      "telefono": null,
      "web": null,
      "instagram": null,
      "horario": null,
      "terraza": false
    },
    {
      "id": "osm_node_954598359",
      "nombre": "El Orfeón",
      "tipo": "bar",
      "lat": 42.3425928,
      "lon": -3.7010844,
      "direccion": null,
      "codigo_postal": null,
      "telefono": null,
      "web": null,
      "instagram": null,
      "horario": null,
      "terraza": false
    },
    {
      "id": "osm_node_954670386",
      "nombre": "Flandes",
      "tipo": "pub",
      "lat": 42.3425413,
      "lon": -3.7020826,
      "direccion": "Calle Huerto del Rey 21",
      "codigo_postal": null,
      "telefono": "+34 659 93 48 13",
      "web": "https://www.cerveceriaflandes.es/",
      "instagram": null,
      "horario": "Mo-We 18:00-00:30; Th 18:00-01:30; Fr-Sa 18:00-02:30; Su 18:00-00:30",
      "terraza": false
    },
    {
      "id": "osm_node_954670528",
      "nombre": "Trastos",
      "tipo": "bar",
      "lat": 42.3420741,
      "lon": -3.7026266,
      "direccion": null,
      "codigo_postal": null,
      "telefono": null,
      "web": null,
      "instagram": null,
      "horario": null,
      "terraza": false
    },
    {
      "id": "osm_node_954730855",
      "nombre": "Jarra 'n' Heavy",
      "tipo": "pub",
      "lat": 42.3425369,
      "lon": -3.7025627,
      "direccion": null,
      "codigo_postal": null,
      "telefono": null,
      "web": null,
      "instagram": null,
      "horario": null,
      "terraza": false
    },
    {
      "id": "osm_node_954730942",
      "nombre": "Jabato beer house",
      "tipo": "pub",
      "lat": 42.3424027,
      "lon": -3.7036925,
      "direccion": "Calle Fernán González 22",
      "codigo_postal": "09003",
      "telefono": "+34 650 19 44 81",
      "web": null,
      "instagram": null,
      "horario": "Mo-We 17:00-24:00; Th 17:00-02:00; Fr,Sa 17:00-04:30; Su 17:00-24:00; PH off",
      "terraza": false
    },
    {
      "id": "osm_node_954730945",
      "nombre": "Babia",
      "tipo": "pub",
      "lat": 42.3422674,
      "lon": -3.7037694,
      "direccion": null,
      "codigo_postal": null,
      "telefono": null,
      "web": null,
      "instagram": null,
      "horario": null,
      "terraza": false
    },
    {
      "id": "osm_node_954731055",
      "nombre": "PCE-IU",
      "tipo": "pub",
      "lat": 42.3421947,
      "lon": -3.7038341,
      "direccion": "Calle Fernán González",
      "codigo_postal": null,
      "telefono": null,
      "web": null,
      "instagram": null,
      "horario": null,
      "terraza": false
    },
    {
      "id": "osm_node_954731087",
      "nombre": "7.70",
      "tipo": "pub",
      "lat": 42.341685,
      "lon": -3.7034525,
      "direccion": null,
      "codigo_postal": null,
      "telefono": null,
      "web": null,
      "instagram": null,
      "horario": null,
      "terraza": false
    },
    {
      "id": "osm_node_954731221",
      "nombre": "El Metro",
      "tipo": "pub",
      "lat": 42.3424789,
      "lon": -3.7035397,
      "direccion": null,
      "codigo_postal": null,
      "telefono": null,
      "web": null,
      "instagram": null,
      "horario": null,
      "terraza": false
    },
    {
      "id": "osm_node_954731344",
      "nombre": "La Graciosa",
      "tipo": "pub",
      "lat": 42.3423444,
      "lon": -3.7028495,
      "direccion": "Calle Huerto del Rey 8",
      "codigo_postal": "09003",
      "telefono": null,
      "web": null,
      "instagram": null,
      "horario": null,
      "terraza": false
    },
    {
      "id": "osm_node_954731377",
      "nombre": "VaiVén",
      "tipo": "pub",
      "lat": 42.342007,
      "lon": -3.7034568,
      "direccion": "Llana de Afuera 2",
      "codigo_postal": "09003",
      "telefono": null,
      "web": null,
      "instagram": null,
      "horario": null,
      "terraza": false
    },
    {
      "id": "osm_node_954851105",
      "nombre": "Maneli",
      "tipo": "pub",
      "lat": 42.3419829,
      "lon": -3.7041281,
      "direccion": null,
      "codigo_postal": null,
      "telefono": null,
      "web": null,
      "instagram": null,
      "horario": null,
      "terraza": false
    },
    {
      "id": "osm_node_954851201",
      "nombre": "La Ruina",
      "tipo": "pub",
      "lat": 42.3427374,
      "lon": -3.702811,
      "direccion": null,
      "codigo_postal": null,
      "telefono": null,
      "web": null,
      "instagram": null,
      "horario": null,
      "terraza": false
    },
    {
      "id": "osm_node_954851367",
      "nombre": "Antarctica",
      "tipo": "pub",
      "lat": 42.3426401,
      "lon": -3.7029756,
      "direccion": null,
      "codigo_postal": null,
      "telefono": null,
      "web": null,
      "instagram": null,
      "horario": null,
      "terraza": false
    },
    {
      "id": "osm_node_954851457",
      "nombre": "Suit Drink",
      "tipo": "bar",
      "lat": 42.3427782,
      "lon": -3.7017522,
      "direccion": "Calle Arco del Pilar 7",
      "codigo_postal": "09003",
      "telefono": "+34 645 40 90 74",
      "web": null,
      "instagram": null,
      "horario": "Mo-We 20:00-03:30; Th 20:00-04:30; Fr 20:00-05:00; Sa 19:00-05:00; Su 20:00-03:30",
      "terraza": false
    },
    {
      "id": "osm_node_954851576",
      "nombre": "Coco's club",
      "tipo": "bar",
      "lat": 42.3428095,
      "lon": -3.7028606,
      "direccion": "Calle Fernán González 12",
      "codigo_postal": null,
      "telefono": null,
      "web": null,
      "instagram": null,
      "horario": null,
      "terraza": false
    },
    {
      "id": "osm_node_954851792",
      "nombre": "El Cortijo",
      "tipo": "bar",
      "lat": 42.3431927,
      "lon": -3.7021371,
      "direccion": null,
      "codigo_postal": null,
      "telefono": null,
      "web": null,
      "instagram": null,
      "horario": "Mo-Th 08:00-23:00, Fr 08:00-24:00, Sa 10:00-24:00, Su 10:00-18:00",
      "terraza": false
    },
    {
      "id": "osm_node_954955563",
      "nombre": "La Traviesa",
      "tipo": "pub",
      "lat": 42.3424526,
      "lon": -3.7021772,
      "direccion": null,
      "codigo_postal": null,
      "telefono": null,
      "web": null,
      "instagram": null,
      "horario": null,
      "terraza": false
    },
    {
      "id": "osm_node_954955565",
      "nombre": "Opalo",
      "tipo": "pub",
      "lat": 42.3417359,
      "lon": -3.7036747,
      "direccion": "Llana de Afuera 8",
      "codigo_postal": "09003",
      "telefono": null,
      "web": null,
      "instagram": null,
      "horario": null,
      "terraza": false
    },
    {
      "id": "osm_node_954955568",
      "nombre": "Rose",
      "tipo": "pub",
      "lat": 42.3419274,
      "lon": -3.7027985,
      "direccion": null,
      "codigo_postal": null,
      "telefono": null,
      "web": null,
      "instagram": null,
      "horario": null,
      "terraza": false
    },
    {
      "id": "osm_node_954955571",
      "nombre": "Oliver",
      "tipo": "pub",
      "lat": 42.3414406,
      "lon": -3.7036165,
      "direccion": "Llana de Afuera 11",
      "codigo_postal": "09003",
      "telefono": null,
      "web": null,
      "instagram": null,
      "horario": "We-Sa 10:00-23:30,10:00-16:30; PH 10:00-23:30",
      "terraza": true
    },
    {
      "id": "osm_node_954955590",
      "nombre": "La Guarida",
      "tipo": "pub",
      "lat": 42.3415563,
      "lon": -3.7037178,
      "direccion": "Llana de Afuera 14",
      "codigo_postal": "09003",
      "telefono": null,
      "web": null,
      "instagram": null,
      "horario": null,
      "terraza": false
    },
    {
      "id": "osm_node_954955592",
      "nombre": "La gata flora",
      "tipo": "pub",
      "lat": 42.3421426,
      "lon": -3.7025464,
      "direccion": null,
      "codigo_postal": null,
      "telefono": null,
      "web": null,
      "instagram": null,
      "horario": null,
      "terraza": false
    },
    {
      "id": "osm_node_954955593",
      "nombre": "Incognito",
      "tipo": "pub",
      "lat": 42.3422577,
      "lon": -3.7024106,
      "direccion": "Calle Huerto del Rey 15",
      "codigo_postal": "09003",
      "telefono": "+34 642019965",
      "web": null,
      "instagram": null,
      "horario": "Su-Mo,We-Th 13:00-24:00; Fr-Sa 13:00-01:00; Tu off",
      "terraza": false
    },
    {
      "id": "osm_node_954955595",
      "nombre": "Agüita",
      "tipo": "cafe",
      "lat": 42.3418628,
      "lon": -3.7028763,
      "direccion": "Calle Huerto del Rey 3",
      "codigo_postal": null,
      "telefono": null,
      "web": null,
      "instagram": null,
      "horario": null,
      "terraza": false
    },
    {
      "id": "osm_node_954955614",
      "nombre": "La Bóveda",
      "tipo": "bar",
      "lat": 42.3417237,
      "lon": -3.7030271,
      "direccion": "Calle Cardenal Segura 19",
      "codigo_postal": "09003",
      "telefono": null,
      "web": null,
      "instagram": null,
      "horario": "Mo-Su 10:00-02:00",
      "terraza": false
    },
    {
      "id": "osm_node_954955644",
      "nombre": "El perreito",
      "tipo": "bar",
      "lat": 42.3413925,
      "lon": -3.703633,
      "direccion": "Llana de Afuera 13",
      "codigo_postal": "09003",
      "telefono": null,
      "web": null,
      "instagram": null,
      "horario": null,
      "terraza": false
    },
    {
      "id": "osm_node_954955646",
      "nombre": "La Farola",
      "tipo": "pub",
      "lat": 42.3419947,
      "lon": -3.7032806,
      "direccion": null,
      "codigo_postal": null,
      "telefono": null,
      "web": null,
      "instagram": null,
      "horario": null,
      "terraza": false
    },
    {
      "id": "osm_node_954996035",
      "nombre": "El Zorro",
      "tipo": "bar",
      "lat": 42.3433486,
      "lon": -3.7013517,
      "direccion": "Calle Avellanos 6",
      "codigo_postal": "09003",
      "telefono": null,
      "web": null,
      "instagram": null,
      "horario": null,
      "terraza": false
    },
    {
      "id": "osm_node_954996038",
      "nombre": "Madame Kalalu",
      "tipo": "pub",
      "lat": 42.3420903,
      "lon": -3.7030977,
      "direccion": null,
      "codigo_postal": null,
      "telefono": null,
      "web": null,
      "instagram": null,
      "horario": null,
      "terraza": false
    },
    {
      "id": "osm_node_955075506",
      "nombre": "La Cartuja",
      "tipo": "cafe",
      "lat": 42.342675,
      "lon": -3.6995412,
      "direccion": null,
      "codigo_postal": null,
      "telefono": null,
      "web": null,
      "instagram": null,
      "horario": null,
      "terraza": false
    },
    {
      "id": "osm_node_956411904",
      "nombre": "Yague37",
      "tipo": "cafe",
      "lat": 42.3460466,
      "lon": -3.6893285,
      "direccion": null,
      "codigo_postal": null,
      "telefono": null,
      "web": null,
      "instagram": null,
      "horario": null,
      "terraza": false
    },
    {
      "id": "osm_node_956411906",
      "nombre": "Signos",
      "tipo": "cafe",
      "lat": 42.3457153,
      "lon": -3.6890622,
      "direccion": null,
      "codigo_postal": null,
      "telefono": null,
      "web": null,
      "instagram": null,
      "horario": null,
      "terraza": false
    },
    {
      "id": "osm_node_956411909",
      "nombre": "La Verja",
      "tipo": "bar",
      "lat": 42.3441243,
      "lon": -3.6934598,
      "direccion": null,
      "codigo_postal": null,
      "telefono": null,
      "web": null,
      "instagram": null,
      "horario": "Tu-Sa 09:00-17:30, Th-Sa 20:00-24:00, Su 12:00-17:30",
      "terraza": false
    },
    {
      "id": "osm_node_956411910",
      "nombre": "Teo2",
      "tipo": "cafe",
      "lat": 42.3486635,
      "lon": -3.6877188,
      "direccion": null,
      "codigo_postal": null,
      "telefono": null,
      "web": null,
      "instagram": null,
      "horario": null,
      "terraza": false
    },
    {
      "id": "osm_node_957082927",
      "nombre": "La Modernista",
      "tipo": "cafe",
      "lat": 42.3427762,
      "lon": -3.6971908,
      "direccion": "Calle La Puebla 37",
      "codigo_postal": "09004",
      "telefono": "+34 947 20 28 25",
      "web": null,
      "instagram": null,
      "horario": "09:00-20:30",
      "terraza": false
    },
    {
      "id": "osm_node_959337549",
      "nombre": "El trastero",
      "tipo": "cafe",
      "lat": 42.3495505,
      "lon": -3.6755215,
      "direccion": null,
      "codigo_postal": null,
      "telefono": null,
      "web": null,
      "instagram": null,
      "horario": null,
      "terraza": false
    },
    {
      "id": "osm_node_959337583",
      "nombre": "Churrería el Cid",
      "tipo": "cafe",
      "lat": 42.3497442,
      "lon": -3.6959458,
      "direccion": "Avenida Cid Campeador 80",
      "codigo_postal": "09005",
      "telefono": null,
      "web": null,
      "instagram": null,
      "horario": "Tu-Su 08:00-13:00,18:00-21:30",
      "terraza": false
    },
    {
      "id": "osm_node_967202582",
      "nombre": "La Gervasia",
      "tipo": "bar",
      "lat": 42.3409658,
      "lon": -3.7034216,
      "direccion": "Calle la Paloma 24",
      "codigo_postal": "09003",
      "telefono": null,
      "web": null,
      "instagram": null,
      "horario": "Tu-Fr 12:00-16:00,19:00-23:00; Su 12:00-16:00; Sa 12:00-16:00,19:00-23:30",
      "terraza": false
    },
    {
      "id": "osm_node_967202593",
      "nombre": "Santa Bárbara",
      "tipo": "cafe",
      "lat": 42.3540809,
      "lon": -3.6847701,
      "direccion": null,
      "codigo_postal": null,
      "telefono": null,
      "web": null,
      "instagram": null,
      "horario": null,
      "terraza": false
    },
    {
      "id": "osm_node_967297605",
      "nombre": "Julton",
      "tipo": "cafe",
      "lat": 42.3389798,
      "lon": -3.6895162,
      "direccion": null,
      "codigo_postal": null,
      "telefono": null,
      "web": null,
      "instagram": null,
      "horario": null,
      "terraza": true
    },
    {
      "id": "osm_node_967317174",
      "nombre": "Camara",
      "tipo": "bar",
      "lat": 42.3392798,
      "lon": -3.6886683,
      "direccion": null,
      "codigo_postal": null,
      "telefono": null,
      "web": null,
      "instagram": null,
      "horario": null,
      "terraza": false
    },
    {
      "id": "osm_node_967317206",
      "nombre": "Chomin",
      "tipo": "cafe",
      "lat": 42.3399242,
      "lon": -3.6862512,
      "direccion": null,
      "codigo_postal": null,
      "telefono": null,
      "web": null,
      "instagram": null,
      "horario": null,
      "terraza": true
    },
    {
      "id": "osm_node_967317266",
      "nombre": "La rastrilla",
      "tipo": "bar",
      "lat": 42.3371081,
      "lon": -3.6983629,
      "direccion": null,
      "codigo_postal": null,
      "telefono": null,
      "web": null,
      "instagram": null,
      "horario": null,
      "terraza": false
    },
    {
      "id": "osm_node_968568883",
      "nombre": "Social Dance",
      "tipo": "pub",
      "lat": 42.3437927,
      "lon": -3.6944888,
      "direccion": null,
      "codigo_postal": null,
      "telefono": null,
      "web": null,
      "instagram": null,
      "horario": null,
      "terraza": false
    },
    {
      "id": "osm_node_970987536",
      "nombre": "Bar El Recreo",
      "tipo": "pub",
      "lat": 41.6523204,
      "lon": -3.7789585,
      "direccion": null,
      "codigo_postal": null,
      "telefono": null,
      "web": null,
      "instagram": null,
      "horario": null,
      "terraza": false
    },
    {
      "id": "osm_node_970987835",
      "nombre": "Círculo Católico de Obreros \"San José\"",
      "tipo": "bar",
      "lat": 42.0255662,
      "lon": -3.7558203,
      "direccion": null,
      "codigo_postal": null,
      "telefono": null,
      "web": null,
      "instagram": null,
      "horario": null,
      "terraza": false
    },
    {
      "id": "osm_node_970987945",
      "nombre": "El Chispa",
      "tipo": "pub",
      "lat": 41.6517307,
      "lon": -3.7789756,
      "direccion": null,
      "codigo_postal": null,
      "telefono": null,
      "web": null,
      "instagram": null,
      "horario": null,
      "terraza": false
    },
    {
      "id": "osm_node_970988032",
      "nombre": "La Plaza",
      "tipo": "pub",
      "lat": 41.6119847,
      "lon": -3.9636068,
      "direccion": null,
      "codigo_postal": null,
      "telefono": null,
      "web": null,
      "instagram": null,
      "horario": null,
      "terraza": false
    },
    {
      "id": "osm_node_975345292",
      "nombre": "La Casuca",
      "tipo": "bar",
      "lat": 42.3450884,
      "lon": -3.720447,
      "direccion": null,
      "codigo_postal": null,
      "telefono": null,
      "web": null,
      "instagram": null,
      "horario": null,
      "terraza": false
    },
    {
      "id": "osm_node_975345319",
      "nombre": "La Leyenda",
      "tipo": "cafe",
      "lat": 42.348084,
      "lon": -3.7140254,
      "direccion": null,
      "codigo_postal": null,
      "telefono": null,
      "web": null,
      "instagram": null,
      "horario": null,
      "terraza": false
    },
    {
      "id": "osm_node_975345330",
      "nombre": "T Debo 1",
      "tipo": "bar",
      "lat": 42.3451792,
      "lon": -3.7212903,
      "direccion": null,
      "codigo_postal": null,
      "telefono": null,
      "web": null,
      "instagram": null,
      "horario": null,
      "terraza": false
    },
    {
      "id": "osm_node_975345335",
      "nombre": "Far Sovereign",
      "tipo": "pub",
      "lat": 42.344766,
      "lon": -3.7190026,
      "direccion": null,
      "codigo_postal": null,
      "telefono": null,
      "web": null,
      "instagram": null,
      "horario": null,
      "terraza": false
    },
    {
      "id": "osm_node_975345351",
      "nombre": "Maldita locura",
      "tipo": "pub",
      "lat": 42.3450108,
      "lon": -3.7181256,
      "direccion": null,
      "codigo_postal": null,
      "telefono": null,
      "web": null,
      "instagram": null,
      "horario": null,
      "terraza": false
    },
    {
      "id": "osm_node_976888072",
      "nombre": "California Darts",
      "tipo": "pub",
      "lat": 42.3493172,
      "lon": -3.689771,
      "direccion": null,
      "codigo_postal": null,
      "telefono": null,
      "web": null,
      "instagram": null,
      "horario": null,
      "terraza": true
    },
    {
      "id": "osm_node_976888092",
      "nombre": "Montrove-2",
      "tipo": "cafe",
      "lat": 42.3494875,
      "lon": -3.6891874,
      "direccion": null,
      "codigo_postal": null,
      "telefono": null,
      "web": null,
      "instagram": null,
      "horario": null,
      "terraza": false
    },
    {
      "id": "osm_node_976888109",
      "nombre": "La Abadía",
      "tipo": "cafe",
      "lat": 42.348957,
      "lon": -3.690398,
      "direccion": null,
      "codigo_postal": null,
      "telefono": null,
      "web": null,
      "instagram": null,
      "horario": null,
      "terraza": false
    },
    {
      "id": "osm_node_984794467",
      "nombre": "The Clover Leaf",
      "tipo": "pub",
      "lat": 42.3307726,
      "lon": -3.7010764,
      "direccion": null,
      "codigo_postal": null,
      "telefono": null,
      "web": null,
      "instagram": null,
      "horario": null,
      "terraza": false
    },
    {
      "id": "osm_node_987034435",
      "nombre": "beapat",
      "tipo": "bar",
      "lat": 42.3473985,
      "lon": -3.6801738,
      "direccion": null,
      "codigo_postal": null,
      "telefono": null,
      "web": null,
      "instagram": null,
      "horario": null,
      "terraza": false
    },
    {
      "id": "osm_node_987034534",
      "nombre": "Las Avenidas",
      "tipo": "bar",
      "lat": 42.3539605,
      "lon": -3.6927306,
      "direccion": null,
      "codigo_postal": null,
      "telefono": null,
      "web": null,
      "instagram": null,
      "horario": null,
      "terraza": false
    },
    {
      "id": "osm_node_988696370",
      "nombre": "Piano",
      "tipo": "cafe",
      "lat": 42.3432757,
      "lon": -3.6885549,
      "direccion": null,
      "codigo_postal": null,
      "telefono": null,
      "web": null,
      "instagram": null,
      "horario": null,
      "terraza": false
    },
    {
      "id": "osm_node_988741687",
      "nombre": "Kaché",
      "tipo": "pub",
      "lat": 42.3435006,
      "lon": -3.6876544,
      "direccion": null,
      "codigo_postal": null,
      "telefono": null,
      "web": null,
      "instagram": null,
      "horario": null,
      "terraza": false
    },
    {
      "id": "osm_node_989094957",
      "nombre": "Chumi",
      "tipo": "cafe",
      "lat": 42.0588456,
      "lon": -3.5197527,
      "direccion": "Plaza Doña Sancha 12",
      "codigo_postal": "09346",
      "telefono": "+34 947 40 6500",
      "web": null,
      "instagram": null,
      "horario": null,
      "terraza": false
    },
    {
      "id": "osm_node_989095004",
      "nombre": "La Villa",
      "tipo": "bar",
      "lat": 42.0953563,
      "lon": -3.5738453,
      "direccion": null,
      "codigo_postal": null,
      "telefono": null,
      "web": null,
      "instagram": null,
      "horario": null,
      "terraza": false
    },
    {
      "id": "osm_node_989095009",
      "nombre": "Tiky",
      "tipo": "bar",
      "lat": 42.0593,
      "lon": -3.5198639,
      "direccion": null,
      "codigo_postal": null,
      "telefono": null,
      "web": null,
      "instagram": null,
      "horario": null,
      "terraza": false
    },
    {
      "id": "osm_node_989095012",
      "nombre": "Continental",
      "tipo": "bar",
      "lat": 42.3317474,
      "lon": -3.7006595,
      "direccion": null,
      "codigo_postal": null,
      "telefono": null,
      "web": null,
      "instagram": null,
      "horario": null,
      "terraza": false
    },
    {
      "id": "osm_node_991935860",
      "nombre": "El Parque",
      "tipo": "cafe",
      "lat": 42.3306819,
      "lon": -3.7069974,
      "direccion": null,
      "codigo_postal": null,
      "telefono": null,
      "web": null,
      "instagram": null,
      "horario": null,
      "terraza": false
    },
    {
      "id": "osm_node_996433809",
      "nombre": "Ibáñez",
      "tipo": "cafe",
      "lat": 42.3402904,
      "lon": -3.7024347,
      "direccion": "Paseo del Espolón 16",
      "codigo_postal": "09003",
      "telefono": "+34 947 07 34 50",
      "web": null,
      "instagram": null,
      "horario": "Mo-Su 08:00-22:30; Sa 08:00-23:00",
      "terraza": true
    },
    {
      "id": "osm_node_1000073852",
      "nombre": "La Petenera",
      "tipo": "cafe",
      "lat": 42.3432049,
      "lon": -3.6957612,
      "direccion": null,
      "codigo_postal": null,
      "telefono": null,
      "web": null,
      "instagram": null,
      "horario": null,
      "terraza": false
    },
    {
      "id": "osm_node_1001453404",
      "nombre": "Klymax",
      "tipo": "pub",
      "lat": 42.3470482,
      "lon": -3.6931992,
      "direccion": null,
      "codigo_postal": null,
      "telefono": null,
      "web": null,
      "instagram": null,
      "horario": null,
      "terraza": false
    },
    {
      "id": "osm_node_1002580073",
      "nombre": "Plaza",
      "tipo": "cafe",
      "lat": 42.3411804,
      "lon": -3.7023456,
      "direccion": "Plaza Mayor 10",
      "codigo_postal": "09003",
      "telefono": null,
      "web": null,
      "instagram": null,
      "horario": null,
      "terraza": true
    },
    {
      "id": "osm_node_1004360899",
      "nombre": "El Recreo",
      "tipo": "bar",
      "lat": 42.3437656,
      "lon": -3.6877293,
      "direccion": "Calle Vitoria 45",
      "codigo_postal": null,
      "telefono": null,
      "web": null,
      "instagram": null,
      "horario": null,
      "terraza": false
    },
    {
      "id": "osm_node_1004361294",
      "nombre": "Collado Lindo",
      "tipo": "bar",
      "lat": 42.352209,
      "lon": -3.6761772,
      "direccion": "Calle Lavaderos 1",
      "codigo_postal": "09007",
      "telefono": "+34 947 72 05 95",
      "web": "https://colladolindoburgos.es/",
      "instagram": null,
      "horario": "Mo-Fr 07:30-15:30; Sa 08:00-15:00",
      "terraza": true
    },
    {
      "id": "osm_node_1004361511",
      "nombre": "La Domus",
      "tipo": "bar",
      "lat": 42.3384252,
      "lon": -3.6968059,
      "direccion": null,
      "codigo_postal": null,
      "telefono": null,
      "web": null,
      "instagram": null,
      "horario": null,
      "terraza": false
    },
    {
      "id": "osm_node_1004362437",
      "nombre": "3 Carabelas",
      "tipo": "bar",
      "lat": 42.3476062,
      "lon": -3.6944018,
      "direccion": "Avenida Reyes Católicos 35",
      "codigo_postal": null,
      "telefono": null,
      "web": null,
      "instagram": null,
      "horario": null,
      "terraza": false
    },
    {
      "id": "osm_node_1005895976",
      "nombre": "El Duende",
      "tipo": "pub",
      "lat": 42.348251,
      "lon": -3.691381,
      "direccion": null,
      "codigo_postal": null,
      "telefono": null,
      "web": null,
      "instagram": null,
      "horario": null,
      "terraza": false
    },
    {
      "id": "osm_node_1005896058",
      "nombre": "El Legado",
      "tipo": "bar",
      "lat": 42.3474379,
      "lon": -3.691854,
      "direccion": null,
      "codigo_postal": null,
      "telefono": null,
      "web": null,
      "instagram": null,
      "horario": null,
      "terraza": false
    },
    {
      "id": "osm_node_1005896095",
      "nombre": "Sanremo",
      "tipo": "cafe",
      "lat": 42.348034,
      "lon": -3.6911525,
      "direccion": null,
      "codigo_postal": null,
      "telefono": null,
      "web": null,
      "instagram": null,
      "horario": null,
      "terraza": false
    },
    {
      "id": "osm_node_1007251866",
      "nombre": "Arribas",
      "tipo": "bar",
      "lat": 42.3324651,
      "lon": -3.701286,
      "direccion": null,
      "codigo_postal": null,
      "telefono": null,
      "web": null,
      "instagram": null,
      "horario": null,
      "terraza": false
    },
    {
      "id": "osm_node_1007251886",
      "nombre": "Yudica",
      "tipo": "cafe",
      "lat": 42.3324372,
      "lon": -3.7003521,
      "direccion": null,
      "codigo_postal": null,
      "telefono": null,
      "web": null,
      "instagram": null,
      "horario": null,
      "terraza": true
    },
    {
      "id": "osm_node_1007251895",
      "nombre": "La Placita",
      "tipo": "cafe",
      "lat": 42.3325706,
      "lon": -3.7009804,
      "direccion": "Calle Nuestra Señora de Belén 8",
      "codigo_postal": "09003",
      "telefono": null,
      "web": "https://www.laplacita.es/",
      "instagram": null,
      "horario": null,
      "terraza": false
    },
    {
      "id": "osm_node_1008127648",
      "nombre": "Victoria",
      "tipo": "bar",
      "lat": 42.3484577,
      "lon": -3.6959119,
      "direccion": null,
      "codigo_postal": null,
      "telefono": null,
      "web": null,
      "instagram": null,
      "horario": null,
      "terraza": false
    },
    {
      "id": "osm_node_1008127891",
      "nombre": "Café La Crema",
      "tipo": "cafe",
      "lat": 42.3487794,
      "lon": -3.6961185,
      "direccion": null,
      "codigo_postal": null,
      "telefono": null,
      "web": null,
      "instagram": null,
      "horario": null,
      "terraza": false
    },
    {
      "id": "osm_node_1010550063",
      "nombre": "Vigón",
      "tipo": "cafe",
      "lat": 42.3511295,
      "lon": -3.6900644,
      "direccion": null,
      "codigo_postal": null,
      "telefono": null,
      "web": null,
      "instagram": null,
      "horario": null,
      "terraza": false
    },
    {
      "id": "osm_node_1011442486",
      "nombre": "Horóscopo",
      "tipo": "bar",
      "lat": 42.3486255,
      "lon": -3.6732114,
      "direccion": null,
      "codigo_postal": null,
      "telefono": null,
      "web": null,
      "instagram": null,
      "horario": null,
      "terraza": false
    },
    {
      "id": "osm_node_1011442568",
      "nombre": "San Bruno",
      "tipo": "bar",
      "lat": 42.348313,
      "lon": -3.6732436,
      "direccion": null,
      "codigo_postal": null,
      "telefono": null,
      "web": null,
      "instagram": null,
      "horario": null,
      "terraza": false
    },
    {
      "id": "osm_node_1011442600",
      "nombre": "Enchochado de Ti",
      "tipo": "cafe",
      "lat": 42.3474894,
      "lon": -3.6675288,
      "direccion": null,
      "codigo_postal": null,
      "telefono": null,
      "web": null,
      "instagram": null,
      "horario": null,
      "terraza": false
    },
    {
      "id": "osm_node_1018121915",
      "nombre": "El Pez de Santa Clara",
      "tipo": "bar",
      "lat": 42.3377867,
      "lon": -3.6968067,
      "direccion": null,
      "codigo_postal": null,
      "telefono": "+34653662129",
      "web": "https://www.elpez.es",
      "instagram": null,
      "horario": null,
      "terraza": false
    },
    {
      "id": "osm_node_1018121919",
      "nombre": "Chamos",
      "tipo": "cafe",
      "lat": 42.3531021,
      "lon": -3.6690621,
      "direccion": null,
      "codigo_postal": null,
      "telefono": null,
      "web": null,
      "instagram": null,
      "horario": null,
      "terraza": false
    },
    {
      "id": "osm_node_1018121940",
      "nombre": "Delicias",
      "tipo": "cafe",
      "lat": 42.33196,
      "lon": -3.7016484,
      "direccion": null,
      "codigo_postal": null,
      "telefono": null,
      "web": null,
      "instagram": null,
      "horario": null,
      "terraza": true
    },
    {
      "id": "osm_node_1018577870",
      "nombre": "Iguana",
      "tipo": "pub",
      "lat": 42.3475033,
      "lon": -3.6929541,
      "direccion": null,
      "codigo_postal": null,
      "telefono": null,
      "web": null,
      "instagram": null,
      "horario": null,
      "terraza": true
    },
    {
      "id": "osm_node_1018577904",
      "nombre": "La Parada",
      "tipo": "bar",
      "lat": 42.3503093,
      "lon": -3.6845814,
      "direccion": null,
      "codigo_postal": null,
      "telefono": null,
      "web": null,
      "instagram": null,
      "horario": null,
      "terraza": false
    },
    {
      "id": "osm_node_1020905125",
      "nombre": "La Palloza 2",
      "tipo": "cafe",
      "lat": 42.2191417,
      "lon": -3.9998423,
      "direccion": null,
      "codigo_postal": null,
      "telefono": null,
      "web": null,
      "instagram": null,
      "horario": null,
      "terraza": false
    },
    {
      "id": "osm_node_1025358548",
      "nombre": "El Castillo",
      "tipo": "cafe",
      "lat": 42.3988408,
      "lon": -4.0367005,
      "direccion": null,
      "codigo_postal": null,
      "telefono": "+34 947 37 0606",
      "web": null,
      "instagram": null,
      "horario": null,
      "terraza": false
    },
    {
      "id": "osm_node_1025691990",
      "nombre": "La Diferencia",
      "tipo": "pub",
      "lat": 41.672204,
      "lon": -3.6819358,
      "direccion": null,
      "codigo_postal": null,
      "telefono": null,
      "web": null,
      "instagram": null,
      "horario": null,
      "terraza": false
    },
    {
      "id": "osm_node_1025691992",
      "nombre": "La Cafeta",
      "tipo": "pub",
      "lat": 41.6713777,
      "lon": -3.6818653,
      "direccion": null,
      "codigo_postal": null,
      "telefono": null,
      "web": null,
      "instagram": null,
      "horario": null,
      "terraza": false
    },
    {
      "id": "osm_node_1025692048",
      "nombre": "El Refugio",
      "tipo": "bar",
      "lat": 41.6709957,
      "lon": -3.6875061,
      "direccion": null,
      "codigo_postal": null,
      "telefono": null,
      "web": null,
      "instagram": null,
      "horario": null,
      "terraza": false
    },
    {
      "id": "osm_node_1025692053",
      "nombre": "Harem",
      "tipo": "pub",
      "lat": 41.671477,
      "lon": -3.6873961,
      "direccion": null,
      "codigo_postal": null,
      "telefono": null,
      "web": null,
      "instagram": null,
      "horario": null,
      "terraza": false
    },
    {
      "id": "osm_node_1036544694",
      "nombre": "Dayana",
      "tipo": "cafe",
      "lat": 42.3432484,
      "lon": -3.6863155,
      "direccion": null,
      "codigo_postal": null,
      "telefono": null,
      "web": null,
      "instagram": null,
      "horario": null,
      "terraza": false
    },
    {
      "id": "osm_node_1039391266",
      "nombre": "El Castillo",
      "tipo": "cafe",
      "lat": 42.3392411,
      "lon": -3.7053921,
      "direccion": null,
      "codigo_postal": null,
      "telefono": null,
      "web": null,
      "instagram": null,
      "horario": null,
      "terraza": true
    },
    {
      "id": "osm_node_1039391275",
      "nombre": "Bar Santi",
      "tipo": "bar",
      "lat": 42.3466902,
      "lon": -3.6938667,
      "direccion": null,
      "codigo_postal": null,
      "telefono": null,
      "web": null,
      "instagram": null,
      "horario": null,
      "terraza": false
    },
    {
      "id": "osm_node_1041890449",
      "nombre": "Rojo",
      "tipo": "bar",
      "lat": 42.0228945,
      "lon": -3.2940762,
      "direccion": null,
      "codigo_postal": null,
      "telefono": null,
      "web": null,
      "instagram": null,
      "horario": null,
      "terraza": false
    },
    {
      "id": "osm_node_1041891674",
      "nombre": "Rol John",
      "tipo": "bar",
      "lat": 42.0222258,
      "lon": -3.28555,
      "direccion": null,
      "codigo_postal": null,
      "telefono": null,
      "web": null,
      "instagram": null,
      "horario": null,
      "terraza": false
    },
    {
      "id": "osm_node_1041893389",
      "nombre": "Las Nubes",
      "tipo": "bar",
      "lat": 42.0219905,
      "lon": -3.2877726,
      "direccion": null,
      "codigo_postal": null,
      "telefono": null,
      "web": null,
      "instagram": null,
      "horario": null,
      "terraza": false
    },
    {
      "id": "osm_node_1052779152",
      "nombre": "El Moreno",
      "tipo": "bar",
      "lat": 42.3451478,
      "lon": -3.6504501,
      "direccion": null,
      "codigo_postal": null,
      "telefono": null,
      "web": null,
      "instagram": null,
      "horario": null,
      "terraza": false
    },
    {
      "id": "osm_node_1052779164",
      "nombre": "Calixto",
      "tipo": "bar",
      "lat": 42.3547434,
      "lon": -3.6922897,
      "direccion": null,
      "codigo_postal": null,
      "telefono": null,
      "web": null,
      "instagram": null,
      "horario": null,
      "terraza": false
    },
    {
      "id": "osm_node_1052779166",
      "nombre": "La Cepa",
      "tipo": "cafe",
      "lat": 42.3446712,
      "lon": -3.6868669,
      "direccion": null,
      "codigo_postal": null,
      "telefono": null,
      "web": null,
      "instagram": null,
      "horario": null,
      "terraza": false
    },
    {
      "id": "osm_node_1052779174",
      "nombre": "Bueno Cantares",
      "tipo": "cafe",
      "lat": 42.3473973,
      "lon": -3.6668143,
      "direccion": null,
      "codigo_postal": null,
      "telefono": null,
      "web": null,
      "instagram": null,
      "horario": null,
      "terraza": false
    },
    {
      "id": "osm_node_1052779232",
      "nombre": "Dile que sí",
      "tipo": "cafe",
      "lat": 42.3471626,
      "lon": -3.6673077,
      "direccion": null,
      "codigo_postal": null,
      "telefono": null,
      "web": null,
      "instagram": null,
      "horario": null,
      "terraza": false
    },
    {
      "id": "osm_node_1056848683",
      "nombre": "Taberna Marcela",
      "tipo": "bar",
      "lat": 42.3760213,
      "lon": -3.4376758,
      "direccion": null,
      "codigo_postal": null,
      "telefono": null,
      "web": null,
      "instagram": null,
      "horario": null,
      "terraza": false
    },
    {
      "id": "osm_node_1067904009",
      "nombre": "Café-Bar BARCENA",
      "tipo": "bar",
      "lat": 42.33263,
      "lon": -3.7053161,
      "direccion": "Calle San Pedro y San Felices 29",
      "codigo_postal": "09001",
      "telefono": "+34 947 20 61 43",
      "web": null,
      "instagram": null,
      "horario": "7:00 A 23:30",
      "terraza": false
    },
    {
      "id": "osm_node_1067904011",
      "nombre": "Fox",
      "tipo": "cafe",
      "lat": 42.3309622,
      "lon": -3.7088949,
      "direccion": null,
      "codigo_postal": null,
      "telefono": null,
      "web": null,
      "instagram": null,
      "horario": null,
      "terraza": false
    },
    {
      "id": "osm_node_1069894384",
      "nombre": "Tere",
      "tipo": "bar",
      "lat": 42.3358693,
      "lon": -3.7181318,
      "direccion": null,
      "codigo_postal": null,
      "telefono": null,
      "web": null,
      "instagram": null,
      "horario": null,
      "terraza": true
    },
    {
      "id": "osm_node_1078493704",
      "nombre": "La Leyenda",
      "tipo": "bar",
      "lat": 42.362656,
      "lon": -3.6555673,
      "direccion": null,
      "codigo_postal": null,
      "telefono": null,
      "web": null,
      "instagram": null,
      "horario": null,
      "terraza": false
    },
    {
      "id": "osm_node_1078493810",
      "nombre": "Serrano",
      "tipo": "bar",
      "lat": 42.3565873,
      "lon": -3.6634454,
      "direccion": null,
      "codigo_postal": null,
      "telefono": null,
      "web": null,
      "instagram": null,
      "horario": null,
      "terraza": false
    },
    {
      "id": "osm_node_1078493833",
      "nombre": "MásCosas",
      "tipo": "cafe",
      "lat": 42.3707096,
      "lon": -3.6658816,
      "direccion": null,
      "codigo_postal": null,
      "telefono": null,
      "web": null,
      "instagram": null,
      "horario": "Mo-Fr 07:30-20:30; Sa 08:00-20:30; Su,PH 08:30-20:30",
      "terraza": false
    },
    {
      "id": "osm_node_1079610753",
      "nombre": "Bar",
      "tipo": "bar",
      "lat": 42.12016,
      "lon": -3.9421022,
      "direccion": null,
      "codigo_postal": null,
      "telefono": null,
      "web": null,
      "instagram": null,
      "horario": null,
      "terraza": false
    },
    {
      "id": "osm_node_1095007715",
      "nombre": "Eros",
      "tipo": "cafe",
      "lat": 42.4028439,
      "lon": -4.2428419,
      "direccion": null,
      "codigo_postal": null,
      "telefono": null,
      "web": null,
      "instagram": null,
      "horario": null,
      "terraza": false
    },
    {
      "id": "osm_node_1095007756",
      "nombre": "Los Robles",
      "tipo": "bar",
      "lat": 42.3419933,
      "lon": -3.7187029,
      "direccion": null,
      "codigo_postal": null,
      "telefono": null,
      "web": null,
      "instagram": null,
      "horario": null,
      "terraza": false
    },
    {
      "id": "osm_node_1095007762",
      "nombre": "Tress",
      "tipo": "pub",
      "lat": 42.4027799,
      "lon": -4.2434721,
      "direccion": null,
      "codigo_postal": null,
      "telefono": null,
      "web": null,
      "instagram": null,
      "horario": null,
      "terraza": false
    },
    {
      "id": "osm_node_1095007779",
      "nombre": "Matinal",
      "tipo": "bar",
      "lat": 42.3444548,
      "lon": -3.7248142,
      "direccion": null,
      "codigo_postal": null,
      "telefono": null,
      "web": null,
      "instagram": null,
      "horario": null,
      "terraza": false
    },
    {
      "id": "osm_node_1095007786",
      "nombre": "Golden",
      "tipo": "cafe",
      "lat": 42.4027737,
      "lon": -4.2430903,
      "direccion": null,
      "codigo_postal": null,
      "telefono": null,
      "web": null,
      "instagram": null,
      "horario": null,
      "terraza": false
    },
    {
      "id": "osm_node_1095007801",
      "nombre": "Duende",
      "tipo": "cafe",
      "lat": 42.4029245,
      "lon": -4.2432503,
      "direccion": null,
      "codigo_postal": null,
      "telefono": null,
      "web": null,
      "instagram": null,
      "horario": null,
      "terraza": false
    },
    {
      "id": "osm_node_1095007820",
      "nombre": "Josefo",
      "tipo": "bar",
      "lat": 42.4016751,
      "lon": -4.2463406,
      "direccion": null,
      "codigo_postal": null,
      "telefono": null,
      "web": null,
      "instagram": null,
      "horario": null,
      "terraza": false
    },
    {
      "id": "osm_node_1095007823",
      "nombre": "Vega",
      "tipo": "cafe",
      "lat": 42.4029659,
      "lon": -4.2437876,
      "direccion": null,
      "codigo_postal": null,
      "telefono": null,
      "web": null,
      "instagram": null,
      "horario": null,
      "terraza": false
    },
    {
      "id": "osm_node_1101889494",
      "nombre": "Petricor",
      "tipo": "cafe",
      "lat": 42.3429677,
      "lon": -3.6930535,
      "direccion": null,
      "codigo_postal": null,
      "telefono": null,
      "web": null,
      "instagram": null,
      "horario": null,
      "terraza": false
    },
    {
      "id": "osm_node_1110235206",
      "nombre": "Alejandro's",
      "tipo": "cafe",
      "lat": 42.3474789,
      "lon": -3.6930022,
      "direccion": null,
      "codigo_postal": null,
      "telefono": null,
      "web": null,
      "instagram": null,
      "horario": null,
      "terraza": false
    },
    {
      "id": "osm_node_1113966942",
      "nombre": "Francisco Salinas",
      "tipo": "cafe",
      "lat": 42.3494098,
      "lon": -3.7125587,
      "direccion": null,
      "codigo_postal": null,
      "telefono": null,
      "web": null,
      "instagram": null,
      "horario": null,
      "terraza": false
    },
    {
      "id": "osm_node_1113966993",
      "nombre": "Bodega Salinas",
      "tipo": "bar",
      "lat": 42.3435734,
      "lon": -3.7124732,
      "direccion": null,
      "codigo_postal": null,
      "telefono": null,
      "web": null,
      "instagram": null,
      "horario": null,
      "terraza": false
    },
    {
      "id": "osm_node_1129451785",
      "nombre": "Cafetería Habana",
      "tipo": "cafe",
      "lat": 42.3479289,
      "lon": -3.6846567,
      "direccion": "Avenida Castilla y León 5",
      "codigo_postal": null,
      "telefono": null,
      "web": null,
      "instagram": null,
      "horario": null,
      "terraza": true
    },
    {
      "id": "osm_node_1132726584",
      "nombre": "Muñoz",
      "tipo": "bar",
      "lat": 42.3444786,
      "lon": -3.7026975,
      "direccion": null,
      "codigo_postal": null,
      "telefono": null,
      "web": null,
      "instagram": null,
      "horario": null,
      "terraza": false
    },
    {
      "id": "osm_node_1132726597",
      "nombre": "Benito",
      "tipo": "bar",
      "lat": 42.3445171,
      "lon": -3.7029764,
      "direccion": null,
      "codigo_postal": null,
      "telefono": null,
      "web": null,
      "instagram": null,
      "horario": null,
      "terraza": false
    },
    {
      "id": "osm_node_1132726598",
      "nombre": "La Alteza",
      "tipo": "bar",
      "lat": 42.3439259,
      "lon": -3.7033579,
      "direccion": null,
      "codigo_postal": null,
      "telefono": null,
      "web": null,
      "instagram": null,
      "horario": null,
      "terraza": false
    },
    {
      "id": "osm_node_1144117905",
      "nombre": "La Radio",
      "tipo": "cafe",
      "lat": 42.3418808,
      "lon": -3.7008738,
      "direccion": "Calle Almirante Bonifaz 8",
      "codigo_postal": "09003",
      "telefono": null,
      "web": null,
      "instagram": null,
      "horario": "Mo-Sa 09:00-23:00",
      "terraza": true
    },
    {
      "id": "osm_node_1147550672",
      "nombre": "Piscinas de Estépar",
      "tipo": "cafe",
      "lat": 42.2776582,
      "lon": -3.9018524,
      "direccion": null,
      "codigo_postal": null,
      "telefono": null,
      "web": null,
      "instagram": null,
      "horario": null,
      "terraza": false
    },
    {
      "id": "osm_node_1151759650",
      "nombre": "Mesón Habana",
      "tipo": "bar",
      "lat": 42.341934,
      "lon": -3.7131726,
      "direccion": null,
      "codigo_postal": null,
      "telefono": null,
      "web": null,
      "instagram": null,
      "horario": null,
      "terraza": false
    },
    {
      "id": "osm_node_1154558673",
      "nombre": "Melow",
      "tipo": "cafe",
      "lat": 42.3458901,
      "lon": -3.7005568,
      "direccion": null,
      "codigo_postal": null,
      "telefono": null,
      "web": null,
      "instagram": null,
      "horario": null,
      "terraza": true
    },
    {
      "id": "osm_node_1154558674",
      "nombre": "La Vaché Folle",
      "tipo": "pub",
      "lat": 42.3477803,
      "lon": -3.6956349,
      "direccion": "Calle Alfonso X el Sabio 46",
      "codigo_postal": null,
      "telefono": "+34 633 73 72 46",
      "web": null,
      "instagram": null,
      "horario": "Mo-Sa 18:00-22:00",
      "terraza": false
    },
    {
      "id": "osm_node_1156686784",
      "nombre": "Café de las Artes",
      "tipo": "cafe",
      "lat": 42.3428264,
      "lon": -3.7014664,
      "direccion": null,
      "codigo_postal": null,
      "telefono": null,
      "web": null,
      "instagram": null,
      "horario": "Mo-Th 10:00-23:00, Fr 10:00-02:00, Sa 11:00-02:00",
      "terraza": false
    },
    {
      "id": "osm_node_1165751196",
      "nombre": "Valle del Sol",
      "tipo": "cafe",
      "lat": 42.3433329,
      "lon": -3.7133189,
      "direccion": null,
      "codigo_postal": null,
      "telefono": null,
      "web": null,
      "instagram": null,
      "horario": null,
      "terraza": false
    },
    {
      "id": "osm_node_1204794269",
      "nombre": "El Acento",
      "tipo": "cafe",
      "lat": 42.3498167,
      "lon": -3.6974692,
      "direccion": null,
      "codigo_postal": null,
      "telefono": null,
      "web": null,
      "instagram": null,
      "horario": null,
      "terraza": true
    },
    {
      "id": "osm_node_1213951760",
      "nombre": "Esla",
      "tipo": "cafe",
      "lat": 42.3323983,
      "lon": -3.703871,
      "direccion": null,
      "codigo_postal": null,
      "telefono": null,
      "web": null,
      "instagram": null,
      "horario": null,
      "terraza": false
    },
    {
      "id": "osm_node_1213951816",
      "nombre": "La Real",
      "tipo": "cafe",
      "lat": 42.3324549,
      "lon": -3.703161,
      "direccion": null,
      "codigo_postal": null,
      "telefono": null,
      "web": null,
      "instagram": null,
      "horario": null,
      "terraza": false
    },
    {
      "id": "osm_node_1216654134",
      "nombre": "El Retiro",
      "tipo": "bar",
      "lat": 42.3469769,
      "lon": -3.699381,
      "direccion": null,
      "codigo_postal": null,
      "telefono": null,
      "web": null,
      "instagram": null,
      "horario": null,
      "terraza": true
    },
    {
      "id": "osm_node_1230599251",
      "nombre": "Avenida",
      "tipo": "pub",
      "lat": 41.671756,
      "lon": -3.6850555,
      "direccion": null,
      "codigo_postal": null,
      "telefono": null,
      "web": null,
      "instagram": null,
      "horario": null,
      "terraza": false
    },
    {
      "id": "osm_node_1230599256",
      "nombre": "Bar Federico",
      "tipo": "pub",
      "lat": 41.6715396,
      "lon": -3.685424,
      "direccion": "Plaza Arco Isilla 12",
      "codigo_postal": "09400",
      "telefono": null,
      "web": null,
      "instagram": null,
      "horario": null,
      "terraza": false
    },
    {
      "id": "osm_node_1237021125",
      "nombre": "Bodegas Espino",
      "tipo": "bar",
      "lat": 42.3322276,
      "lon": -3.6998057,
      "direccion": null,
      "codigo_postal": null,
      "telefono": null,
      "web": null,
      "instagram": null,
      "horario": null,
      "terraza": false
    },
    {
      "id": "osm_node_1237021126",
      "nombre": "Cantina de Cardeñajimeno",
      "tipo": "bar",
      "lat": 42.3301554,
      "lon": -3.6198799,
      "direccion": null,
      "codigo_postal": null,
      "telefono": null,
      "web": null,
      "instagram": null,
      "horario": null,
      "terraza": false
    },
    {
      "id": "osm_node_1237021132",
      "nombre": "Bar Los Dos",
      "tipo": "bar",
      "lat": 42.3451334,
      "lon": -3.6781481,
      "direccion": null,
      "codigo_postal": null,
      "telefono": null,
      "web": null,
      "instagram": null,
      "horario": null,
      "terraza": false
    },
    {
      "id": "osm_node_1238300353",
      "nombre": "Santillana",
      "tipo": "bar",
      "lat": 42.3456156,
      "lon": -3.6990536,
      "direccion": "Calle José Zorrilla 3",
      "codigo_postal": "09005",
      "telefono": null,
      "web": null,
      "instagram": null,
      "horario": null,
      "terraza": false
    },
    {
      "id": "osm_node_1238300356",
      "nombre": "Brindis",
      "tipo": "cafe",
      "lat": 42.3381271,
      "lon": -3.6922476,
      "direccion": null,
      "codigo_postal": null,
      "telefono": null,
      "web": null,
      "instagram": null,
      "horario": null,
      "terraza": false
    },
    {
      "id": "osm_node_1238300360",
      "nombre": "Imperial",
      "tipo": "bar",
      "lat": 42.3381005,
      "lon": -3.6924574,
      "direccion": null,
      "codigo_postal": null,
      "telefono": null,
      "web": null,
      "instagram": null,
      "horario": null,
      "terraza": false
    },
    {
      "id": "osm_node_1238300370",
      "nombre": "D'Anzar",
      "tipo": "cafe",
      "lat": 42.3379985,
      "lon": -3.6913661,
      "direccion": null,
      "codigo_postal": null,
      "telefono": null,
      "web": null,
      "instagram": null,
      "horario": null,
      "terraza": false
    },
    {
      "id": "osm_node_1238300373",
      "nombre": "Rivendel",
      "tipo": "pub",
      "lat": 42.3449044,
      "lon": -3.7021508,
      "direccion": "Calle San Francisco 19",
      "codigo_postal": null,
      "telefono": null,
      "web": null,
      "instagram": null,
      "horario": null,
      "terraza": false
    },
    {
      "id": "osm_node_1238300375",
      "nombre": "Luna",
      "tipo": "cafe",
      "lat": 42.338507,
      "lon": -3.6902936,
      "direccion": null,
      "codigo_postal": null,
      "telefono": null,
      "web": null,
      "instagram": null,
      "horario": null,
      "terraza": false
    },
    {
      "id": "osm_node_1238300378",
      "nombre": "Tapería Santa Clara",
      "tipo": "bar",
      "lat": 42.3378982,
      "lon": -3.6941565,
      "direccion": null,
      "codigo_postal": null,
      "telefono": null,
      "web": null,
      "instagram": null,
      "horario": null,
      "terraza": false
    },
    {
      "id": "osm_node_1238300381",
      "nombre": "Bar Parrilla San Pedro Cardeña",
      "tipo": "pub",
      "lat": 42.3379728,
      "lon": -3.6920556,
      "direccion": null,
      "codigo_postal": null,
      "telefono": null,
      "web": null,
      "instagram": null,
      "horario": null,
      "terraza": false
    },