{
  "ciudad": "Cádiz",
  "total": 177,
  "locales": [
    {
      "id": "osm_node_1243456883",
      "nombre": "Cambalache Jazz Bar",
      "tipo": "bar",
      "lat": 36.5323599,
      "lon": -6.2955866,
      "direccion": "Calle José del Toro 20",
      "codigo_postal": "11004",
      "telefono": null,
      "web": null,
      "instagram": null,
      "horario": null,
      "terraza": false,
      "musica": null,
      "fuente": "openstreetmap"
    },
    {
      "id": "osm_node_1623823635",
      "nombre": "La barra del Club",
      "tipo": "cafe",
      "lat": 36.5314534,
      "lon": -6.2982663,
      "direccion": null,
      "codigo_postal": null,
      "telefono": null,
      "web": null,
      "instagram": null,
      "horario": null,
      "terraza": false,
      "musica": null,
      "fuente": "openstreetmap"
    },
    {
      "id": "osm_node_1623823843",
      "nombre": "La Marina",
      "tipo": "cafe",
      "lat": 36.5308969,
      "lon": -6.2974857,
      "direccion": null,
      "codigo_postal": null,
      "telefono": null,
      "web": null,
      "instagram": null,
      "horario": null,
      "terraza": true,
      "musica": null,
      "fuente": "openstreetmap"
    },
    {
      "id": "osm_node_1623823880",
      "nombre": "Nahu Beach",
      "tipo": "cafe",
      "lat": 36.4885091,
      "lon": -6.2676209,
      "direccion": null,
      "codigo_postal": null,
      "telefono": null,
      "web": "https://www.nahubeach.com",
      "instagram": null,
      "horario": "Jun-Aug: 12:00-24:00",
      "terraza": false,
      "musica": null,
      "fuente": "openstreetmap"
    },
    {
      "id": "osm_node_1679135123",
      "nombre": "El Serrallo",
      "tipo": "bar",
      "lat": 36.5357538,
      "lon": -6.3007566,
      "direccion": "Plaza del Mentidero 1",
      "codigo_postal": null,
      "telefono": null,
      "web": null,
      "instagram": null,
      "horario": null,
      "terraza": false,
      "musica": null,
      "fuente": "openstreetmap"
    },
    {
      "id": "osm_node_1732713621",
      "nombre": "Bar Manolo",
      "tipo": "bar",
      "lat": 36.5427681,
      "lon": -6.2794275,
      "direccion": null,
      "codigo_postal": null,
      "telefono": null,
      "web": null,
      "instagram": null,
      "horario": null,
      "terraza": false,
      "musica": null,
      "fuente": "openstreetmap"
    },
    {
      "id": "osm_node_1743756816",
      "nombre": "Cafeteria Baro",
      "tipo": "cafe",
      "lat": 36.5056609,
      "lon": -6.2774887,
      "direccion": null,
      "codigo_postal": null,
      "telefono": null,
      "web": null,
      "instagram": null,
      "horario": null,
      "terraza": false,
      "musica": null,
      "fuente": "openstreetmap"
    },
    {
      "id": "osm_node_1743778075",
      "nombre": "Buccan",
      "tipo": "bar",
      "lat": 36.5080799,
      "lon": -6.2796614,
      "direccion": null,
      "codigo_postal": null,
      "telefono": null,
      "web": null,
      "instagram": null,
      "horario": null,
      "terraza": false,
      "musica": null,
      "fuente": "openstreetmap"
    },
    {
      "id": "osm_node_1743778089",
      "nombre": "Irish bar O'Donogue's",
      "tipo": "pub",
      "lat": 36.5083257,
      "lon": -6.2794495,
      "direccion": null,
      "codigo_postal": null,
      "telefono": null,
      "web": null,
      "instagram": null,
      "horario": null,
      "terraza": false,
      "musica": null,
      "fuente": "openstreetmap"
    },
    {
      "id": "osm_node_1743780121",
      "nombre": "Flamenco bar",
      "tipo": "bar",
      "lat": 36.5020453,
      "lon": -6.2754852,
      "direccion": null,
      "codigo_postal": null,
      "telefono": null,
      "web": null,
      "instagram": null,
      "horario": null,
      "terraza": false,
      "musica": null,
      "fuente": "openstreetmap"
    },
    {
      "id": "osm_node_1743780124",
      "nombre": "Oh lalá",
      "tipo": "bar",
      "lat": 36.5012325,
      "lon": -6.2750721,
      "direccion": null,
      "codigo_postal": null,
      "telefono": null,
      "web": null,
      "instagram": null,
      "horario": null,
      "terraza": false,
      "musica": null,
      "fuente": "openstreetmap"
    },
    {
      "id": "osm_node_1743780134",
      "nombre": "Woodstock bar",
      "tipo": "bar",
      "lat": 36.5031622,
      "lon": -6.2762845,
      "direccion": null,
      "codigo_postal": null,
      "telefono": null,
      "web": null,
      "instagram": null,
      "horario": null,
      "terraza": false,
      "musica": null,
      "fuente": "openstreetmap"
    },
    {
      "id": "osm_node_1743798709",
      "nombre": "Peña Flamenca Juan Villar",
      "tipo": "bar",
      "lat": 36.528606,
      "lon": -6.3058707,
      "direccion": null,
      "codigo_postal": null,
      "telefono": null,
      "web": null,
      "instagram": null,
      "horario": null,
      "terraza": false,
      "musica": null,
      "fuente": "openstreetmap"
    },
    {
      "id": "osm_node_1743977802",
      "nombre": "El Pelícano",
      "tipo": "bar",
      "lat": 36.5255907,
      "lon": -6.2902977,
      "direccion": null,
      "codigo_postal": null,
      "telefono": null,
      "web": null,
      "instagram": null,
      "horario": null,
      "terraza": false,
      "musica": null,
      "fuente": "openstreetmap"
    },
    {
      "id": "osm_node_1743989996",
      "nombre": "Cafe-bar Casa Postas",
      "tipo": "cafe",
      "lat": 36.5293729,
      "lon": -6.2909265,
      "direccion": null,
      "codigo_postal": null,
      "telefono": null,
      "web": null,
      "instagram": null,
      "horario": null,
      "terraza": false,
      "musica": null,
      "fuente": "openstreetmap"
    },
    {
      "id": "osm_node_1744154386",
      "nombre": "Cala Mar Multibar",
      "tipo": "pub",
      "lat": 36.4977956,
      "lon": -6.2730293,
      "direccion": null,
      "codigo_postal": null,
      "telefono": null,
      "web": null,
      "instagram": null,
      "horario": null,
      "terraza": false,
      "musica": null,
      "fuente": "openstreetmap"
    },
    {
      "id": "osm_node_1744163275",
      "nombre": "La mirilla",
      "tipo": "cafe",
      "lat": 36.5170911,
      "lon": -6.285538,
      "direccion": null,
      "codigo_postal": null,
      "telefono": null,
      "web": null,
      "instagram": null,
      "horario": null,
      "terraza": false,
      "musica": null,
      "fuente": "openstreetmap"
    },
    {
      "id": "osm_node_1744163345",
      "nombre": "Aguatapá",
      "tipo": "bar",
      "lat": 36.514768,
      "lon": -6.2838754,
      "direccion": null,
      "codigo_postal": null,
      "telefono": null,
      "web": null,
      "instagram": null,
      "horario": null,
      "terraza": false,
      "musica": null,
      "fuente": "openstreetmap"
    },
    {
      "id": "osm_node_2063165065",
      "nombre": "La Punta del Sur",
      "tipo": "pub",
      "lat": 36.5298189,
      "lon": -6.3037517,
      "direccion": "Calle San Félix 11",
      "codigo_postal": "11002",
      "telefono": null,
      "web": "https://www.isletadelavina.com",
      "instagram": null,
      "horario": null,
      "terraza": true,
      "musica": null,
      "fuente": "openstreetmap"
    },
    {
      "id": "osm_node_2405626507",
      "nombre": "La Clandestina Librería-Café",
      "tipo": "cafe",
      "lat": 36.5320733,
      "lon": -6.2950728,
      "direccion": "Calle José del Toro 23",
      "codigo_postal": "11004",
      "telefono": "+34 956221210",
      "web": "http://www.la-clandestina.com/",
      "instagram": null,
      "horario": "Mo-Fr 09:30-14:00,17:00-20:30; Sa 10:00-14:00",
      "terraza": true,
      "musica": null,
      "fuente": "openstreetmap"
    },
    {
      "id": "osm_node_2405631484",
      "nombre": "Café Teatro Pay Pay",
      "tipo": "bar",
      "lat": 36.5286202,
      "lon": -6.2932729,
      "direccion": "Calle Silencio 1",
      "codigo_postal": "11004",
      "telefono": "+34 956252543",
      "web": "http://www.cafeteatropaypay.com/",
      "instagram": null,
      "horario": null,
      "terraza": false,
      "musica": null,
      "fuente": "openstreetmap"
    },
    {
      "id": "osm_node_2729324469",
      "nombre": "Las Tres Marías",
      "tipo": "cafe",
      "lat": 36.510135,
      "lon": -6.2762661,
      "direccion": null,
      "codigo_postal": null,
      "telefono": null,
      "web": null,
      "instagram": null,
      "horario": null,
      "terraza": false,
      "musica": null,
      "fuente": "openstreetmap"
    },
    {
      "id": "osm_node_2750420649",
      "nombre": "La Lonja",
      "tipo": "cafe",
      "lat": 36.5300873,
      "lon": -6.2862491,
      "direccion": "Puerto Pesquero - Muelle de Levante",
      "codigo_postal": "11006",
      "telefono": null,
      "web": null,
      "instagram": null,
      "horario": null,
      "terraza": false,
      "musica": null,
      "fuente": "openstreetmap"
    },
    {
      "id": "osm_node_3022010484",
      "nombre": "El Pelícano MusiCafé",
      "tipo": "cafe",
      "lat": 36.5241925,
      "lon": -6.2885889,
      "direccion": "Avenida Fernández Ladreda 1",
      "codigo_postal": "11007",
      "telefono": "+34 956 28 84 26",
      "web": "http://www.elpelicano-musicafe.com/",
      "instagram": null,
      "horario": "18:30-04:00",
      "terraza": false,
      "musica": null,
      "fuente": "openstreetmap"
    },
    {
      "id": "osm_node_3022028355",
      "nombre": "Top Coffee Shop",
      "tipo": "cafe",
      "lat": 36.530124,
      "lon": -6.290952,
      "direccion": "Calle Lázaro Dou 1",
      "codigo_postal": null,
      "telefono": "+34 620 40 70 16",
      "web": null,
      "instagram": null,
      "horario": "Mo-Fr 08:00-21:00;Sa-Su 09:30-13:30,16:00-21:00",
      "terraza": true,
      "musica": null,
      "fuente": "openstreetmap"
    },
    {
      "id": "osm_node_3406104423",
      "nombre": "Capricho Café",
      "tipo": "cafe",
      "lat": 36.5334679,
      "lon": -6.2976768,
      "direccion": "Calle Ancha 23",
      "codigo_postal": "11004",
      "telefono": null,
      "web": null,
      "instagram": null,
      "horario": null,
      "terraza": false,
      "musica": null,
      "fuente": "openstreetmap"
    },
    {
      "id": "osm_node_3406104424",
      "nombre": "Casa Tucho",
      "tipo": "bar",
      "lat": 36.535888,
      "lon": -6.3011547,
      "direccion": "Plaza del Mentidero",
      "codigo_postal": null,
      "telefono": null,
      "web": null,
      "instagram": null,
      "horario": null,
      "terraza": false,
      "musica": null,
      "fuente": "openstreetmap"
    },
    {
      "id": "osm_node_3549005268",
      "nombre": "Ykebana",
      "tipo": "pub",
      "lat": 36.508208,
      "lon": -6.2797576,
      "direccion": null,
      "codigo_postal": null,
      "telefono": null,
      "web": null,
      "instagram": null,
      "horario": null,
      "terraza": false,
      "musica": null,
      "fuente": "openstreetmap"
    },
    {
      "id": "osm_node_3599456014",
      "nombre": "MariMba",
      "tipo": "bar",
      "lat": 36.5105366,
      "lon": -6.2817713,
      "direccion": null,
      "codigo_postal": null,
      "telefono": null,
      "web": null,
      "instagram": null,
      "horario": null,
      "terraza": false,
      "musica": null,
      "fuente": "openstreetmap"
    },
    {
      "id": "osm_node_3599456204",
      "nombre": "Villanos",
      "tipo": "bar",
      "lat": 36.5098633,
      "lon": -6.2809165,
      "direccion": null,
      "codigo_postal": null,
      "telefono": null,
      "web": null,
      "instagram": null,
      "horario": null,
      "terraza": false,
      "musica": null,
      "fuente": "openstreetmap"
    },
    {
      "id": "osm_node_3599456205",
      "nombre": "Off Side",
      "tipo": "bar",
      "lat": 36.508517,
      "lon": -6.2799919,
      "direccion": null,
      "codigo_postal": null,
      "telefono": null,
      "web": null,
      "instagram": null,
      "horario": null,
      "terraza": false,
      "musica": null,
      "fuente": "openstreetmap"
    },
    {
      "id": "osm_node_3599456348",
      "nombre": "Chiringuito Potito",
      "tipo": "biergarten",
      "lat": 36.5080391,
      "lon": -6.2801126,
      "direccion": "Calle Amilcar Barca 47",
      "codigo_postal": "11009",
      "telefono": "+34 677 53 14 41",
      "web": null,
      "instagram": null,
      "horario": null,
      "terraza": false,
      "musica": null,
      "fuente": "openstreetmap"
    },
    {
      "id": "osm_node_3612147685",
      "nombre": "Piccol'a",
      "tipo": "cafe",
      "lat": 36.5347568,
      "lon": -6.2970348,
      "direccion": null,
      "codigo_postal": null,
      "telefono": null,
      "web": null,
      "instagram": null,
      "horario": null,
      "terraza": false,
      "musica": null,
      "fuente": "openstreetmap"
    },
    {
      "id": "osm_node_3612147686",
      "nombre": "Terraza Joseph",
      "tipo": "cafe",
      "lat": 36.5312134,
      "lon": -6.2928012,
      "direccion": null,
      "codigo_postal": null,
      "telefono": null,
      "web": null,
      "instagram": null,
      "horario": null,
      "terraza": true,
      "musica": null,
      "fuente": "openstreetmap"
    },
    {
      "id": "osm_node_3614235051",
      "nombre": "Bar del Parque",
      "tipo": "cafe",
      "lat": 36.5353968,
      "lon": -6.3041175,
      "direccion": null,
      "codigo_postal": null,
      "telefono": null,
      "web": null,
      "instagram": null,
      "horario": null,
      "terraza": true,
      "musica": null,
      "fuente": "openstreetmap"
    },
    {
      "id": "osm_node_3614235057",
      "nombre": "Las Murallas",
      "tipo": "cafe",
      "lat": 36.530105,
      "lon": -6.299731,
      "direccion": null,
      "codigo_postal": null,
      "telefono": null,
      "web": null,
      "instagram": null,
      "horario": null,
      "terraza": false,
      "musica": null,
      "fuente": "openstreetmap"
    },
    {
      "id": "osm_node_3718216499",
      "nombre": "Bar Sur",
      "tipo": "bar",
      "lat": 36.5095093,
      "lon": -6.2800527,
      "direccion": null,
      "codigo_postal": null,
      "telefono": null,
      "web": null,
      "instagram": null,
      "horario": null,
      "terraza": false,
      "musica": null,
      "fuente": "openstreetmap"
    },
    {
      "id": "osm_node_3761636474",
      "nombre": "Café Royalty",
      "tipo": "cafe",
      "lat": 36.5309323,
      "lon": -6.2955169,
      "direccion": "Plaza Candelaria",
      "codigo_postal": "11005",
      "telefono": null,
      "web": null,
      "instagram": null,
      "horario": null,
      "terraza": false,
      "musica": null,
      "fuente": "openstreetmap"
    },
    {
      "id": "osm_node_3769297306",
      "nombre": "Quilla",
      "tipo": "cafe",
      "lat": 36.5326374,
      "lon": -6.306249,
      "direccion": "Playa de la Caleta",
      "codigo_postal": null,
      "telefono": null,
      "web": null,
      "instagram": null,
      "horario": null,
      "terraza": false,
      "musica": null,
      "fuente": "openstreetmap"
    },
    {
      "id": "osm_node_3811370647",
      "nombre": "Cafeteria Samir",
      "tipo": "pub",
      "lat": 36.535457,
      "lon": -6.3010189,
      "direccion": null,
      "codigo_postal": null,
      "telefono": null,
      "web": null,
      "instagram": null,
      "horario": null,
      "terraza": false,
      "musica": null,
      "fuente": "openstreetmap"
    },
    {
      "id": "osm_node_3811371850",
      "nombre": "Andalucía",
      "tipo": "cafe",
      "lat": 36.5310513,
      "lon": -6.2970281,
      "direccion": null,
      "codigo_postal": null,
      "telefono": null,
      "web": null,
      "instagram": null,
      "horario": null,
      "terraza": true,
      "musica": null,
      "fuente": "openstreetmap"
    },
    {
      "id": "osm_node_4142500339",
      "nombre": "Bar Las Viandas",
      "tipo": "cafe",
      "lat": 36.5170391,
      "lon": -6.2852017,
      "direccion": null,
      "codigo_postal": null,
      "telefono": null,
      "web": null,
      "instagram": null,
      "horario": null,
      "terraza": false,
      "musica": null,
      "fuente": "openstreetmap"
    },
    {
      "id": "osm_node_4142500340",
      "nombre": "El Unicornio",
      "tipo": "bar",
      "lat": 36.5173731,
      "lon": -6.2856326,
      "direccion": null,
      "codigo_postal": null,
      "telefono": "+34 956 257959",
      "web": null,
      "instagram": null,
      "horario": "Mo-Su 16:00-02:00",
      "terraza": true,
      "musica": null,
      "fuente": "openstreetmap"
    },
    {
      "id": "osm_node_4171293721",
      "nombre": "Isla Azul",
      "tipo": "pub",
      "lat": 36.5089896,
      "lon": -6.2801334,
      "direccion": null,
      "codigo_postal": null,
      "telefono": null,
      "web": null,
      "instagram": null,
      "horario": null,
      "terraza": false,
      "musica": null,
      "fuente": "openstreetmap"
    },
    {
      "id": "osm_node_4245222190",
      "nombre": "Las Acacias",
      "tipo": "bar",
      "lat": 36.5246564,
      "lon": -6.2863478,
      "direccion": "Calle Acacias 8",
      "codigo_postal": null,
      "telefono": null,
      "web": null,
      "instagram": null,
      "horario": null,
      "terraza": false,
      "musica": null,
      "fuente": "openstreetmap"
    },
    {
      "id": "osm_node_4264596490",
      "nombre": "Atlantida",
      "tipo": "cafe",
      "lat": 36.5296452,
      "lon": -6.2937431,
      "direccion": null,
      "codigo_postal": null,
      "telefono": null,
      "web": null,
      "instagram": null,
      "horario": null,
      "terraza": false,
      "musica": null,
      "fuente": "openstreetmap"
    },
    {
      "id": "osm_node_4331227146",
      "nombre": "Casa Pepe",
      "tipo": "bar",
      "lat": 36.5311508,
      "lon": -6.3020749,
      "direccion": null,
      "codigo_postal": null,
      "telefono": null,
      "web": null,
      "instagram": null,
      "horario": null,
      "terraza": false,
      "musica": null,
      "fuente": "openstreetmap"
    },
    {
      "id": "osm_node_4448148107",
      "nombre": "Rollin' Rock Pub",
      "tipo": "bar",
      "lat": 36.5347421,
      "lon": -6.2954347,
      "direccion": "Calle Isabel la Catolica",
      "codigo_postal": null,
      "telefono": null,
      "web": null,
      "instagram": null,
      "horario": "Tu-Th,Su 20:00-03:00; Fr,Sa 20:00-04:00",
      "terraza": false,
      "musica": null,
      "fuente": "openstreetmap"
    },
    {
      "id": "osm_node_4455390469",
      "nombre": "Woodstock Bar",
      "tipo": "bar",
      "lat": 36.5338245,
      "lon": -6.297168,
      "direccion": "Calle Canvas del Castillo 25",
      "codigo_postal": null,
      "telefono": null,
      "web": null,
      "instagram": null,
      "horario": null,
      "terraza": false,
      "musica": null,
      "fuente": "openstreetmap"
    },
    {
      "id": "osm_node_4458632692",
      "nombre": "La Rusa Blanca",
      "tipo": "bar",
      "lat": 36.533925,
      "lon": -6.297296,
      "direccion": null,
      "codigo_postal": null,
      "telefono": null,
      "web": null,
      "instagram": null,
      "horario": null,
      "terraza": false,
      "musica": null,
      "fuente": "openstreetmap"
    },
    {
      "id": "osm_node_4743310323",
      "nombre": "Garabato",
      "tipo": "bar",
      "lat": 36.5355264,
      "lon": -6.3011426,
      "direccion": null,
      "codigo_postal": null,
      "telefono": null,
      "web": null,
      "instagram": null,
      "horario": null,
      "terraza": false,
      "musica": null,
      "fuente": "openstreetmap"
    },
    {
      "id": "osm_node_4744744121",
      "nombre": "Carru",
      "tipo": "bar",
      "lat": 36.5340721,
      "lon": -6.3008759,
      "direccion": null,
      "codigo_postal": null,
      "telefono": null,
      "web": null,
      "instagram": null,
      "horario": null,
      "terraza": false,
      "musica": null,
      "fuente": "openstreetmap"
    },
    {
      "id": "osm_node_4744930223",
      "nombre": "Lola&lolá",
      "tipo": "bar",
      "lat": 36.5313684,
      "lon": -6.2973232,
      "direccion": null,
      "codigo_postal": null,
      "telefono": null,
      "web": null,
      "instagram": null,
      "horario": null,
      "terraza": false,
      "musica": null,
      "fuente": "openstreetmap"
    },
    {
      "id": "osm_node_4804507722",
      "nombre": "Abre Lata",
      "tipo": "bar",
      "lat": 36.5288476,
      "lon": -6.2938032,
      "direccion": "Calle del Mesón 8",
      "codigo_postal": null,
      "telefono": null,
      "web": null,
      "instagram": null,
      "horario": null,
      "terraza": false,
      "musica": null,
      "fuente": "openstreetmap"
    },
    {
      "id": "osm_node_4807737822",
      "nombre": "La Marquesa de las Huevas",
      "tipo": "cafe",
      "lat": 36.5311384,
      "lon": -6.2929134,
      "direccion": null,
      "codigo_postal": null,
      "telefono": null,
      "web": null,
      "instagram": null,
      "horario": null,
      "terraza": false,
      "musica": null,
      "fuente": "openstreetmap"
    },
    {
      "id": "osm_node_4815068921",
      "nombre": "Café Bar El Periquito",
      "tipo": "cafe",
      "lat": 36.5315769,
      "lon": -6.3038044,
      "direccion": null,
      "codigo_postal": null,
      "telefono": null,
      "web": null,
      "instagram": null,
      "horario": null,
      "terraza": false,
      "musica": null,
      "fuente": "openstreetmap"
    },
    {
      "id": "osm_node_4815079121",
      "nombre": "El bar nuestro de cada dia",
      "tipo": "cafe",
      "lat": 36.5314419,
      "lon": -6.3025854,
      "direccion": null,
      "codigo_postal": null,
      "telefono": null,
      "web": null,
      "instagram": null,
      "horario": null,
      "terraza": false,
      "musica": null,
      "fuente": "openstreetmap"
    },
    {
      "id": "osm_node_4815778321",
      "nombre": "Café Bar V Centemario",
      "tipo": "cafe",
      "lat": 36.5350151,
      "lon": -6.2952927,
      "direccion": null,
      "codigo_postal": null,
      "telefono": null,
      "web": null,
      "instagram": null,
      "horario": null,
      "terraza": true,
      "musica": null,
      "fuente": "openstreetmap"
    },
    {
      "id": "osm_node_4853224766",
      "nombre": "La Vermutería",
      "tipo": "bar",
      "lat": 36.5097378,
      "lon": -6.2786584,
      "direccion": null,
      "codigo_postal": null,
      "telefono": null,
      "web": null,
      "instagram": null,
      "horario": null,
      "terraza": false,
      "musica": null,
      "fuente": "openstreetmap"
    },
    {
      "id": "osm_node_4866551039",
      "nombre": "Aguatapá",
      "tipo": "pub",
      "lat": 36.4983622,
      "lon": -6.2733436,
      "direccion": null,
      "codigo_postal": null,
      "telefono": null,
      "web": null,
      "instagram": null,
      "horario": null,
      "terraza": false,
      "musica": null,
      "fuente": "openstreetmap"
    },
    {
      "id": "osm_node_4878984296",
      "nombre": "Marama",
      "tipo": "bar",
      "lat": 36.5084104,
      "lon": -6.2799284,
      "direccion": null,
      "codigo_postal": null,
      "telefono": null,
      "web": null,
      "instagram": null,
      "horario": null,
      "terraza": false,
      "musica": null,
      "fuente": "openstreetmap"
    },
    {
      "id": "osm_node_4900419822",
      "nombre": "DUCA",
      "tipo": "bar",
      "lat": 36.5339269,
      "lon": -6.3018775,
      "direccion": null,
      "codigo_postal": null,
      "telefono": null,
      "web": null,
      "instagram": null,
      "horario": null,
      "terraza": true,
      "musica": null,
      "fuente": "openstreetmap"
    },
    {
      "id": "osm_node_4973674156",
      "nombre": "Narigoni",
      "tipo": "cafe",
      "lat": 36.529637,
      "lon": -6.2946711,
      "direccion": "Plaza de la Catedral",
      "codigo_postal": null,
      "telefono": "+34 606 605 338",
      "web": "https://www.narigoni.com/",
      "instagram": null,
      "horario": null,
      "terraza": false,
      "musica": null,
      "fuente": "openstreetmap"
    },
    {
      "id": "osm_node_5051889721",
      "nombre": "Taberna de Baco",
      "tipo": "bar",
      "lat": 36.5292101,
      "lon": -6.2938143,
      "direccion": null,
      "codigo_postal": null,
      "telefono": null,
      "web": null,
      "instagram": null,
      "horario": null,
      "terraza": false,
      "musica": null,
      "fuente": "openstreetmap"
    },
    {
      "id": "osm_node_5066037507",
      "nombre": "Bar El de Dentro",
      "tipo": "cafe",
      "lat": 36.5022604,
      "lon": -6.2672295,
      "direccion": null,
      "codigo_postal": null,
      "telefono": null,
      "web": null,
      "instagram": null,
      "horario": "Mo-Fr 07:00-18:00",
      "terraza": true,
      "musica": null,
      "fuente": "openstreetmap"
    },
    {
      "id": "osm_node_5066037518",
      "nombre": "Bar Costa",
      "tipo": "cafe",
      "lat": 36.502244,
      "lon": -6.2656846,
      "direccion": null,
      "codigo_postal": null,
      "telefono": null,
      "web": null,
      "instagram": null,
      "horario": "Mo-Fr 08:00-17:00",
      "terraza": true,
      "musica": null,
      "fuente": "openstreetmap"
    },
    {
      "id": "osm_node_5066037627",
      "nombre": "Padel",
      "tipo": "bar",
      "lat": 36.5032835,
      "lon": -6.2646927,
      "direccion": null,
      "codigo_postal": null,
      "telefono": null,
      "web": null,
      "instagram": null,
      "horario": null,
      "terraza": false,
      "musica": null,
      "fuente": "openstreetmap"
    },
    {
      "id": "osm_node_5066078921",
      "nombre": "La última carta",
      "tipo": "cafe",
      "lat": 36.5044709,
      "lon": -6.2682631,
      "direccion": null,
      "codigo_postal": null,
      "telefono": null,
      "web": null,
      "instagram": null,
      "horario": null,
      "terraza": false,
      "musica": null,
      "fuente": "openstreetmap"
    },
    {
      "id": "osm_node_5066079272",
      "nombre": "Zona Franca",
      "tipo": "cafe",
      "lat": 36.5005279,
      "lon": -6.2686289,
      "direccion": null,
      "codigo_postal": null,
      "telefono": null,
      "web": null,
      "instagram": null,
      "horario": null,
      "terraza": false,
      "musica": null,
      "fuente": "openstreetmap"
    },
    {
      "id": "osm_node_5156823621",
      "nombre": "Bar Terrazza",
      "tipo": "bar",
      "lat": 36.5294924,
      "lon": -6.294471,
      "direccion": null,
      "codigo_postal": null,
      "telefono": null,
      "web": null,
      "instagram": null,
      "horario": null,
      "terraza": false,
      "musica": null,
      "fuente": "openstreetmap"
    },
    {
      "id": "osm_node_5342665777",
      "nombre": "Bar stop",
      "tipo": "cafe",
      "lat": 36.5143751,
      "lon": -6.2769436,
      "direccion": null,
      "codigo_postal": null,
      "telefono": null,
      "web": null,
      "instagram": null,
      "horario": null,
      "terraza": false,
      "musica": null,
      "fuente": "openstreetmap"
    },
    {
      "id": "osm_node_5379468858",
      "nombre": "Cafetería",
      "tipo": "cafe",
      "lat": 36.5135322,
      "lon": -6.2796367,
      "direccion": null,
      "codigo_postal": null,
      "telefono": null,
      "web": null,
      "instagram": null,
      "horario": null,
      "terraza": false,
      "musica": null,
      "fuente": "openstreetmap"
    },
    {
      "id": "osm_node_5382888421",
      "nombre": "La cocina secreta",
      "tipo": "cafe",
      "lat": 36.5311899,
      "lon": -6.2973731,
      "direccion": null,
      "codigo_postal": null,
      "telefono": null,
      "web": null,
      "instagram": null,
      "horario": null,
      "terraza": false,
      "musica": null,
      "fuente": "openstreetmap"
    },
    {
      "id": "osm_node_5418560522",
      "nombre": "La Placita",
      "tipo": "bar",
      "lat": 36.5192745,
      "lon": -6.2821232,
      "direccion": null,
      "codigo_postal": null,
      "telefono": null,
      "web": null,
      "instagram": null,
      "horario": null,
      "terraza": false,
      "musica": null,
      "fuente": "openstreetmap"
    },
    {
      "id": "osm_node_5423161031",
      "nombre": "Bar Victoria",
      "tipo": "cafe",
      "lat": 36.5084843,
      "lon": -6.2768293,
      "direccion": "Calle Matrona Modesta Calvo 15",
      "codigo_postal": "11009",
      "telefono": "+34 956 28 07 04",
      "web": null,
      "instagram": null,
      "horario": "Mo-Fr 07:30-20:00 & Su 08:00-12:00",
      "terraza": false,
      "musica": null,
      "fuente": "openstreetmap"
    },
    {
      "id": "osm_node_5444077424",
      "nombre": "Cafetería Las tres Ranas",
      "tipo": "cafe",
      "lat": 36.5051674,
      "lon": -6.2732713,
      "direccion": "Avenida de Juan Carlos I",
      "codigo_postal": null,
      "telefono": null,
      "web": null,
      "instagram": null,
      "horario": null,
      "terraza": false,
      "musica": null,
      "fuente": "openstreetmap"
    },
    {
      "id": "osm_node_5588184066",
      "nombre": "Nebraska",
      "tipo": "bar",
      "lat": 36.5077789,
      "lon": -6.2783521,
      "direccion": null,
      "codigo_postal": null,
      "telefono": null,
      "web": null,
      "instagram": null,
      "horario": "PH,Th-Tu 09:00-16:30,19:00-23:15",
      "terraza": false,
      "musica": null,
      "fuente": "openstreetmap"
    },
    {
      "id": "osm_node_5678418904",
      "nombre": "Munich",
      "tipo": "bar",
      "lat": 36.505029,
      "lon": -6.2704138,
      "direccion": null,
      "codigo_postal": null,
      "telefono": null,
      "web": null,
      "instagram": null,
      "horario": null,
      "terraza": false,
      "musica": null,
      "fuente": "openstreetmap"
    },
    {
      "id": "osm_node_5678421221",
      "nombre": "Medina",
      "tipo": "bar",
      "lat": 36.5051615,
      "lon": -6.271218,
      "direccion": null,
      "codigo_postal": null,
      "telefono": null,
      "web": null,
      "instagram": null,
      "horario": null,
      "terraza": false,
      "musica": null,
      "fuente": "openstreetmap"
    },
    {
      "id": "osm_node_5744481122",
      "nombre": "Mediterráneo",
      "tipo": "bar",
      "lat": 36.5348943,
      "lon": -6.2974727,
      "direccion": "Plaza de Mina 1",
      "codigo_postal": "11004",
      "telefono": null,
      "web": null,
      "instagram": null,
      "horario": null,
      "terraza": false,
      "musica": null,
      "fuente": "openstreetmap"
    },
    {
      "id": "osm_node_5747583621",
      "nombre": "Pan de Limón",
      "tipo": "cafe",
      "lat": 36.5339544,
      "lon": -6.2990087,
      "direccion": "Calle San José 21",
      "codigo_postal": null,
      "telefono": null,
      "web": null,
      "instagram": null,
      "horario": "Tu-Su 07:30-20:30",
      "terraza": false,
      "musica": null,
      "fuente": "openstreetmap"
    },
    {
      "id": "osm_node_5747583622",
      "nombre": "Barbero Sacamuelas",
      "tipo": "bar",
      "lat": 36.5306876,
      "lon": -6.302092,
      "direccion": null,
      "codigo_postal": null,
      "telefono": null,
      "web": null,
      "instagram": null,
      "horario": null,
      "terraza": false,
      "musica": null,
      "fuente": "openstreetmap"
    },
    {
      "id": "osm_node_5747583724",
      "nombre": "Falla",
      "tipo": "bar",
      "lat": 36.533447,
      "lon": -6.3021537,
      "direccion": "Plaza de Falla 6",
      "codigo_postal": null,
      "telefono": null,
      "web": null,
      "instagram": null,
      "horario": null,
      "terraza": false,
      "musica": null,
      "fuente": "openstreetmap"
    },
    {
      "id": "osm_node_5747584221",
      "nombre": "Café Bar Costa",
      "tipo": "cafe",
      "lat": 36.5301804,
      "lon": -6.2927109,
      "direccion": "Plaza de San Juan de Díos 4",
      "codigo_postal": null,
      "telefono": null,
      "web": null,
      "instagram": null,
      "horario": null,
      "terraza": false,
      "musica": null,
      "fuente": "openstreetmap"
    },
    {
      "id": "osm_node_5747584422",
      "nombre": "Mari TaPaz",
      "tipo": "bar",
      "lat": 36.5290233,
      "lon": -6.301469,
      "direccion": null,
      "codigo_postal": null,
      "telefono": null,
      "web": null,
      "instagram": null,
      "horario": null,
      "terraza": false,
      "musica": null,
      "fuente": "openstreetmap"
    },
    {
      "id": "osm_node_5824380056",
      "nombre": "Nino’s",
      "tipo": "cafe",
      "lat": 36.5311701,
      "lon": -6.2969286,
      "direccion": null,
      "codigo_postal": null,
      "telefono": null,
      "web": null,
      "instagram": null,
      "horario": null,
      "terraza": false,
      "musica": null,
      "fuente": "openstreetmap"
    },
    {
      "id": "osm_node_5909784487",
      "nombre": "El Teniente Seblon",
      "tipo": "bar",
      "lat": 36.5291792,
      "lon": -6.2933264,
      "direccion": "Calle Posadilla",
      "codigo_postal": null,
      "telefono": null,
      "web": null,
      "instagram": null,
      "horario": null,
      "terraza": false,
      "musica": null,
      "fuente": "openstreetmap"
    },
    {
      "id": "osm_node_6498725885",
      "nombre": "Bar Merodio",
      "tipo": "bar",
      "lat": 36.5304572,
      "lon": -6.2986547,
      "direccion": "Calle Libertad",
      "codigo_postal": null,
      "telefono": null,
      "web": null,
      "instagram": null,
      "horario": null,
      "terraza": true,
      "musica": null,
      "fuente": "openstreetmap"
    },
    {
      "id": "osm_node_6517951985",
      "nombre": "Bar Europa",
      "tipo": "pub",
      "lat": 36.4990591,
      "lon": -6.2729962,
      "direccion": null,
      "codigo_postal": null,
      "telefono": null,
      "web": null,
      "instagram": null,
      "horario": null,
      "terraza": false,
      "musica": null,
      "fuente": "openstreetmap"
    },
    {
      "id": "osm_node_6521842991",
      "nombre": "Mina Five",
      "tipo": "pub",
      "lat": 36.5348143,
      "lon": -6.2972106,
      "direccion": null,
      "codigo_postal": null,
      "telefono": null,
      "web": null,
      "instagram": null,
      "horario": null,
      "terraza": false,
      "musica": null,
      "fuente": "openstreetmap"
    },
    {
      "id": "osm_node_6689558378",
      "nombre": "La Barrica",
      "tipo": "bar",
      "lat": 36.5296758,
      "lon": -6.2945018,
      "direccion": null,
      "codigo_postal": null,
      "telefono": null,
      "web": null,
      "instagram": null,
      "horario": null,
      "terraza": true,
      "musica": null,
      "fuente": "openstreetmap"
    },
    {
      "id": "osm_node_6699286574",
      "nombre": "Bar Honda",
      "tipo": "bar",
      "lat": 36.5359591,
      "lon": -6.2947764,
      "direccion": null,
      "codigo_postal": null,
      "telefono": null,
      "web": null,
      "instagram": null,
      "horario": null,
      "terraza": false,
      "musica": null,
      "fuente": "openstreetmap"
    },
    {
      "id": "osm_node_6783865885",
      "nombre": "Café Bar La primera levantá",
      "tipo": "bar",
      "lat": 36.5078664,
      "lon": -6.2757986,
      "direccion": "Calle Murillo 13",
      "codigo_postal": "11010",
      "telefono": "+34 956076807",
      "web": null,
      "instagram": null,
      "horario": null,
      "terraza": false,
      "musica": null,
      "fuente": "openstreetmap"
    },
    {
      "id": "osm_node_6883076714",
      "nombre": "El Rincón del Monje",
      "tipo": "bar",
      "lat": 36.5297806,
      "lon": -6.3036202,
      "direccion": null,
      "codigo_postal": null,
      "telefono": null,
      "web": null,
      "instagram": null,
      "horario": null,
      "terraza": false,
      "musica": null,
      "fuente": "openstreetmap"
    },
    {
      "id": "osm_node_6963129195",
      "nombre": "El Legado",
      "tipo": "cafe",
      "lat": 36.5301831,
      "lon": -6.3031035,
      "direccion": null,
      "codigo_postal": null,
      "telefono": null,
      "web": null,
      "instagram": null,
      "horario": null,
      "terraza": false,
      "musica": null,
      "fuente": "openstreetmap"
    },
    {
      "id": "osm_node_6985650085",
      "nombre": "Peña Flamenkito Apaleao",
      "tipo": "bar",
      "lat": 36.5290932,
      "lon": -6.3023664,
      "direccion": "Calle Pericón de Cádiz 2C",
      "codigo_postal": "11002",
      "telefono": null,
      "web": null,
      "instagram": null,
      "horario": null,
      "terraza": false,
      "musica": null,
      "fuente": "openstreetmap"
    },
    {
      "id": "osm_node_6985671785",
      "nombre": "Bar Santa Catalina",
      "tipo": "bar",
      "lat": 36.5281634,
      "lon": -6.3020283,
      "direccion": "Plaza de Capuchinos 5",
      "codigo_postal": "11002",
      "telefono": null,
      "web": null,
      "instagram": null,
      "horario": "Mo-Su 07:00-19:00",
      "terraza": false,
      "musica": null,
      "fuente": "openstreetmap"
    },
    {
      "id": "osm_node_7093370031",
      "nombre": "El Café De Ana",
      "tipo": "cafe",
      "lat": 36.5229355,
      "lon": -6.2775496,
      "direccion": null,
      "codigo_postal": null,
      "telefono": null,
      "web": null,
      "instagram": null,
      "horario": null,
      "terraza": true,
      "musica": null,
      "fuente": "openstreetmap"
    },
    {
      "id": "osm_node_7666490486",
      "nombre": "La Granja Ice Cream & Coffee",
      "tipo": "cafe",
      "lat": 36.5296763,
      "lon": -6.3028117,
      "direccion": null,
      "codigo_postal": null,
      "telefono": null,
      "web": null,
      "instagram": null,
      "horario": "Mo-Su 10:00-00:00; We 10:00-15:00",
      "terraza": false,
      "musica": null,
      "fuente": "openstreetmap"
    },
    {
      "id": "osm_node_7726363282",
      "nombre": "Bahia 1965",
      "tipo": "bar",
      "lat": 36.5314941,
      "lon": -6.2930371,
      "direccion": "Avenida Cuatro de Diciembre de 1977 29",
      "codigo_postal": null,
      "telefono": null,
      "web": "https://bahiamultibar.tucartawenu.com/",
      "instagram": null,
      "horario": null,
      "terraza": false,
      "musica": null,
      "fuente": "openstreetmap"
    },
    {
      "id": "osm_node_7794592085",
      "nombre": "Taberna La Manzanilla",
      "tipo": "pub",
      "lat": 36.5316501,
      "lon": -6.2941527,
      "direccion": "Calle Feduchy 9",
      "codigo_postal": "11005",
      "telefono": "+34 956 28 54 01",
      "web": null,
      "instagram": null,
      "horario": "Mo-Sa 11:30-15:30",
      "terraza": false,
      "musica": null,
      "fuente": "openstreetmap"
    },
    {
      "id": "osm_node_7969473487",
      "nombre": "El Kioskito",
      "tipo": "bar",
      "lat": 36.5366794,
      "lon": -6.2967875,
      "direccion": null,
      "codigo_postal": null,
      "telefono": null,
      "web": null,
      "instagram": null,
      "horario": null,
      "terraza": false,
      "musica": null,
      "fuente": "openstreetmap"
    },
    {
      "id": "osm_node_7993431483",
      "nombre": "O'Conell's",
      "tipo": "pub",
      "lat": 36.5343328,
      "lon": -6.2964443,
      "direccion": null,
      "codigo_postal": null,
      "telefono": null,
      "web": null,
      "instagram": null,
      "horario": null,
      "terraza": false,
      "musica": null,
      "fuente": "openstreetmap"
    },
    {
      "id": "osm_node_8943732718",
      "nombre": "La Tertulia Cafetería",
      "tipo": "cafe",
      "lat": 36.5337491,
      "lon": -6.2979781,
      "direccion": "Calle Ancha 17",
      "codigo_postal": "11001",
      "telefono": null,
      "web": null,
      "instagram": null,
      "horario": "Mo-Su 09:00-22:00",
      "terraza": true,
      "musica": null,
      "fuente": "openstreetmap"
    },
    {
      "id": "osm_node_8943733118",
      "nombre": "Café Bar Andaluz",
      "tipo": "cafe",
      "lat": 36.5342974,
      "lon": -6.2988765,
      "direccion": "Calle de Junquera 1",
      "codigo_postal": "11001",
      "telefono": null,
      "web": null,
      "instagram": null,
      "horario": "Mo-Fr 07:00-16:00; Sa 09:00-16:00",
      "terraza": true,
      "musica": null,
      "fuente": "openstreetmap"
    },
    {
      "id": "osm_node_8944159719",
      "nombre": "Circo Duende",
      "tipo": "bar",
      "lat": 36.5287888,
      "lon": -6.2937346,
      "direccion": "Calle del Mesón 8",
      "codigo_postal": "11005",
      "telefono": null,
      "web": null,
      "instagram": null,
      "horario": "Sa-Su 18:00-00:00; Tu-Fr 19:00-00:00",
      "terraza": false,
      "musica": null,
      "fuente": "openstreetmap"
    },
    {
      "id": "osm_node_8944226217",
      "nombre": "EVOHÉ",
      "tipo": "bar",
      "lat": 36.5341059,
      "lon": -6.2952264,
      "direccion": "Calle Beato Diego 8",
      "codigo_postal": "11004",
      "telefono": null,
      "web": null,
      "instagram": null,
      "horario": "Mo-Su 21:00-02:00",
      "terraza": false,
      "musica": null,
      "fuente": "openstreetmap"
    },
    {
      "id": "osm_node_9084811965",
      "nombre": "Pablito",
      "tipo": "cafe",
      "lat": 36.5314209,
      "lon": -6.2929566,
      "direccion": null,
      "codigo_postal": null,
      "telefono": null,
      "web": null,
      "instagram": null,
      "horario": null,
      "terraza": false,
      "musica": null,
      "fuente": "openstreetmap"
    },
    {
      "id": "osm_node_9221946171",
      "nombre": "La Barra",
      "tipo": "pub",
      "lat": 36.5299621,
      "lon": -6.2921702,
      "direccion": null,
      "codigo_postal": null,
      "telefono": null,
      "web": null,
      "instagram": null,
      "horario": null,
      "terraza": false,
      "musica": null,
      "fuente": "openstreetmap"
    },
    {
      "id": "osm_node_9221954957",
      "nombre": "Salon Bahía",
      "tipo": "bar",
      "lat": 36.5292744,
      "lon": -6.2925122,
      "direccion": null,
      "codigo_postal": null,
      "telefono": null,
      "web": null,
      "instagram": null,
      "horario": null,
      "terraza": true,
      "musica": null,
      "fuente": "openstreetmap"
    },
    {
      "id": "osm_node_9221992430",
      "nombre": "Taberna La Carbonera",
      "tipo": "bar",
      "lat": 36.5299177,
      "lon": -6.2935152,
      "direccion": null,
      "codigo_postal": null,
      "telefono": null,
      "web": null,
      "instagram": null,
      "horario": null,
      "terraza": false,
      "musica": null,
      "fuente": "openstreetmap"
    },
    {
      "id": "osm_node_9221999383",
      "nombre": "Wasa",
      "tipo": "bar",
      "lat": 36.5302139,
      "lon": -6.2995918,
      "direccion": null,
      "codigo_postal": null,
      "telefono": null,
      "web": null,
      "instagram": null,
      "horario": null,
      "terraza": false,
      "musica": null,
      "fuente": "openstreetmap"
    },
    {
      "id": "osm_node_9222014011",
      "nombre": "Nuevo Folgar",
      "tipo": "bar",
      "lat": 36.5290786,
      "lon": -6.2926353,
      "direccion": null,
      "codigo_postal": null,
      "telefono": null,
      "web": null,
      "instagram": null,
      "horario": null,
      "terraza": false,
      "musica": null,
      "fuente": "openstreetmap"
    },
    {
      "id": "osm_node_9353380718",
      "nombre": "Taberna del Pirata",
      "tipo": "pub",
      "lat": 36.536405,
      "lon": -6.2929238,
      "direccion": null,
      "codigo_postal": null,
      "telefono": null,
      "web": null,
      "instagram": null,
      "horario": null,
      "terraza": false,
      "musica": null,
      "fuente": "openstreetmap"
    },
    {
      "id": "osm_node_9353380818",
      "nombre": "El Café de Ana",
      "tipo": "cafe",
      "lat": 36.530922,
      "lon": -6.2928445,
      "direccion": null,
      "codigo_postal": null,
      "telefono": null,
      "web": null,
      "instagram": null,
      "horario": null,
      "terraza": false,
      "musica": null,
      "fuente": "openstreetmap"
    },
    {
      "id": "osm_node_9565446853",
      "nombre": "Casa Agustin",
      "tipo": "cafe",
      "lat": 36.5315749,
      "lon": -6.304118,
      "direccion": "Calle Rosa 45",
      "codigo_postal": null,
      "telefono": null,
      "web": null,
      "instagram": null,
      "horario": null,
      "terraza": false,
      "musica": null,
      "fuente": "openstreetmap"
    },
    {
      "id": "osm_node_9569171118",
      "nombre": "Bar Rosa de los Vientos",
      "tipo": "bar",
      "lat": 36.530709,
      "lon": -6.3011685,
      "direccion": "Calle der la Rosa 6",
      "codigo_postal": null,
      "telefono": "+34 605603938",
      "web": null,
      "instagram": null,
      "horario": "Tu-Su 19:30-23:00",
      "terraza": false,
      "musica": null,
      "fuente": "openstreetmap"
    },
    {
      "id": "osm_node_9570360970",
      "nombre": "Café Bar El Nuevo Bella Mar",
      "tipo": "cafe",
      "lat": 36.5323843,
      "lon": -6.3021644,
      "direccion": null,
      "codigo_postal": null,
      "telefono": null,
      "web": null,
      "instagram": null,
      "horario": null,
      "terraza": false,
      "musica": null,
      "fuente": "openstreetmap"
    },
    {
      "id": "osm_node_9583473317",
      "nombre": "Café Bar San Felipe",
      "tipo": "cafe",
      "lat": 36.53312,
      "lon": -6.2998725,
      "direccion": null,
      "codigo_postal": null,
      "telefono": null,
      "web": null,
      "instagram": null,
      "horario": "Mo-Fr 08:00-18:00",
      "terraza": false,
      "musica": null,
      "fuente": "openstreetmap"
    },
    {
      "id": "osm_node_9663622188",
      "nombre": "Los Raíles",
      "tipo": "cafe",
      "lat": 36.5286681,
      "lon": -6.2874846,
      "direccion": null,
      "codigo_postal": null,
      "telefono": null,
      "web": null,
      "instagram": null,
      "horario": null,
      "terraza": false,
      "musica": null,
      "fuente": "openstreetmap"
    },
    {
      "id": "osm_node_9811087117",
      "nombre": "habana café",
      "tipo": "bar",
      "lat": 36.5334043,
      "lon": -6.2955676,
      "direccion": null,
      "codigo_postal": null,
      "telefono": null,
      "web": null,
      "instagram": null,
      "horario": null,
      "terraza": false,
      "musica": null,
      "fuente": "openstreetmap"
    },
    {
      "id": "osm_node_9900515913",
      "nombre": "Bar Al Fresquito",
      "tipo": "pub",
      "lat": 36.5074221,
      "lon": -6.2678754,
      "direccion": null,
      "codigo_postal": null,
      "telefono": null,
      "web": null,
      "instagram": null,
      "horario": null,
      "terraza": false,
      "musica": null,
      "fuente": "openstreetmap"
    },
    {
      "id": "osm_node_10185483169",
      "nombre": "Café de Levante",
      "tipo": "cafe",
      "lat": 36.5326885,
      "lon": -6.2948962,
      "direccion": "Calle Rosario 35",
      "codigo_postal": "11004",
      "telefono": null,
      "web": null,
      "instagram": null,
      "horario": null,
      "terraza": false,
      "musica": null,
      "fuente": "openstreetmap"
    },
    {
      "id": "osm_node_10186321443",
      "nombre": "Diecinueve",
      "tipo": "cafe",
      "lat": 36.5137019,
      "lon": -6.2813703,
      "direccion": null,
      "codigo_postal": null,
      "telefono": null,
      "web": null,
      "instagram": null,
      "horario": null,
      "terraza": false,
      "musica": null,
      "fuente": "openstreetmap"
    },
    {
      "id": "osm_node_10284576409",
      "nombre": "Galicia",
      "tipo": "bar",
      "lat": 36.5287233,
      "lon": -6.3008307,
      "direccion": null,
      "codigo_postal": null,
      "telefono": null,
      "web": null,
      "instagram": null,
      "horario": null,
      "terraza": false,
      "musica": null,
      "fuente": "openstreetmap"
    },
    {
      "id": "osm_node_10915967305",
      "nombre": "Café Bar Malagueño",
      "tipo": "bar",
      "lat": 36.5289351,
      "lon": -6.2938611,
      "direccion": null,
      "codigo_postal": null,
      "telefono": null,
      "web": null,
      "instagram": null,
      "horario": null,
      "terraza": false,
      "musica": null,
      "fuente": "openstreetmap"
    },
    {
      "id": "osm_node_11307544269",
      "nombre": "El Tentenpie",
      "tipo": "cafe",
      "lat": 36.5298093,
      "lon": -6.2944726,
      "direccion": null,
      "codigo_postal": null,
      "telefono": null,
      "web": null,
      "instagram": null,
      "horario": null,
      "terraza": true,
      "musica": null,
      "fuente": "openstreetmap"
    },
    {
      "id": "osm_node_11824573643",
      "nombre": "Liba",
      "tipo": "cafe",
      "lat": 36.5343388,
      "lon": -6.2983713,
      "direccion": null,
      "codigo_postal": null,
      "telefono": null,
      "web": null,
      "instagram": null,
      "horario": null,
      "terraza": true,
      "musica": null,
      "fuente": "openstreetmap"
    },
    {
      "id": "osm_node_11937888266",
      "nombre": "Peña la Estrella",
      "tipo": "bar",
      "lat": 36.5309261,
      "lon": -6.2948768,
      "direccion": null,
      "codigo_postal": null,
      "telefono": null,
      "web": null,
      "instagram": null,
      "horario": null,
      "terraza": true,
      "musica": null,
      "fuente": "openstreetmap"
    },
    {
      "id": "osm_node_11937949579",
      "nombre": "Bar Don Cicuta",
      "tipo": "bar",
      "lat": 36.5354218,
      "lon": -6.2944683,
      "direccion": null,
      "codigo_postal": null,
      "telefono": null,
      "web": null,
      "instagram": null,
      "horario": null,
      "terraza": false,
      "musica": null,
      "fuente": "openstreetmap"
    },
    {
      "id": "osm_node_11940359019",
      "nombre": "La Manzanilla",
      "tipo": "bar",
      "lat": 36.5318237,
      "lon": -6.2946505,
      "direccion": null,
      "codigo_postal": null,
      "telefono": null,
      "web": null,
      "instagram": null,
      "horario": null,
      "terraza": false,
      "musica": null,
      "fuente": "openstreetmap"
    },
    {
      "id": "osm_node_11941670524",
      "nombre": "Transvaal",
      "tipo": "cafe",
      "lat": 36.5233028,
      "lon": -6.2864483,
      "direccion": null,
      "codigo_postal": null,
      "telefono": null,
      "web": null,
      "instagram": null,
      "horario": null,
      "terraza": true,
      "musica": null,
      "fuente": "openstreetmap"
    },
    {
      "id": "osm_node_11941705649",
      "nombre": "Magnolia",
      "tipo": "cafe",
      "lat": 36.5229331,
      "lon": -6.2866915,
      "direccion": null,
      "codigo_postal": null,
      "telefono": null,
      "web": null,
      "instagram": null,
      "horario": null,
      "terraza": true,
      "musica": null,
      "fuente": "openstreetmap"
    },
    {
      "id": "osm_node_11947313585",
      "nombre": "El rincón de los canallas",
      "tipo": "bar",
      "lat": 36.5294769,
      "lon": -6.2939733,
      "direccion": null,
      "codigo_postal": null,
      "telefono": null,
      "web": null,
      "instagram": null,
      "horario": null,
      "terraza": false,
      "musica": null,
      "fuente": "openstreetmap"
    },
    {
      "id": "osm_node_11947314379",
      "nombre": "Séptima Malta",
      "tipo": "pub",
      "lat": 36.5295183,
      "lon": -6.29325,
      "direccion": null,
      "codigo_postal": null,
      "telefono": null,
      "web": null,
      "instagram": null,
      "horario": null,
      "terraza": true,
      "musica": null,
      "fuente": "openstreetmap"
    },
    {
      "id": "osm_node_11948446752",
      "nombre": "La cepa gallega",
      "tipo": "bar",
      "lat": 36.5296645,
      "lon": -6.2914475,
      "direccion": null,
      "codigo_postal": null,
      "telefono": null,
      "web": null,
      "instagram": null,
      "horario": null,
      "terraza": true,
      "musica": null,
      "fuente": "openstreetmap"
    },
    {
      "id": "osm_node_11953793769",
      "nombre": "Bar Coruna",
      "tipo": "bar",
      "lat": 36.5296678,
      "lon": -6.2932094,
      "direccion": null,
      "codigo_postal": null,
      "telefono": null,
      "web": null,
      "instagram": null,
      "horario": null,
      "terraza": true,
      "musica": null,
      "fuente": "openstreetmap"
    },
    {
      "id": "osm_node_11960000619",
      "nombre": "Muelle Uno",
      "tipo": "bar",
      "lat": 36.5312755,
      "lon": -6.2928067,
      "direccion": "Avenida Cuatro de Diciembre de 1977 31",
      "codigo_postal": "11006",
      "telefono": null,
      "web": null,
      "instagram": null,
      "horario": null,
      "terraza": false,
      "musica": null,
      "fuente": "openstreetmap"
    },
    {
      "id": "osm_node_11960000633",
      "nombre": "Alameda",
      "tipo": "pub",
      "lat": 36.5209285,
      "lon": -6.285591,
      "direccion": null,
      "codigo_postal": null,
      "telefono": null,
      "web": null,
      "instagram": null,
      "horario": null,
      "terraza": false,
      "musica": null,
      "fuente": "openstreetmap"
    },
    {
      "id": "osm_node_11960000634",
      "nombre": "Mar-3",
      "tipo": "bar",
      "lat": 36.5208498,
      "lon": -6.28555,
      "direccion": null,
      "codigo_postal": null,
      "telefono": null,
      "web": null,
      "instagram": null,
      "horario": null,
      "terraza": false,
      "musica": null,
      "fuente": "openstreetmap"
    },
    {
      "id": "osm_node_11960000636",
      "nombre": "Tresmarias",
      "tipo": "bar",
      "lat": 36.5206044,
      "lon": -6.2854132,
      "direccion": null,
      "codigo_postal": null,
      "telefono": null,
      "web": null,
      "instagram": null,
      "horario": null,
      "terraza": false,
      "musica": null,
      "fuente": "openstreetmap"
    },
    {
      "id": "osm_node_12246017703",
      "nombre": "A Modo Mio",
      "tipo": "cafe",
      "lat": 36.5068522,
      "lon": -6.2767642,
      "direccion": "Calle Santa Teresa de Jesús 23",
      "codigo_postal": "11010",
      "telefono": null,
      "web": null,
      "instagram": null,
      "horario": "Mo-Su 09:00-13:00,17:00-21:00",
      "terraza": true,
      "musica": null,
      "fuente": "openstreetmap"
    },
    {
      "id": "osm_node_12467118158",
      "nombre": "El poquito",
      "tipo": "bar",
      "lat": 36.5103275,
      "lon": -6.2811607,
      "direccion": null,
      "codigo_postal": null,
      "telefono": null,
      "web": null,
      "instagram": null,
      "horario": null,
      "terraza": false,
      "musica": null,
      "fuente": "openstreetmap"
    },
    {
      "id": "osm_node_12467120527",
      "nombre": "Yiyis",
      "tipo": "bar",
      "lat": 36.5106498,
      "lon": -6.2813466,
      "direccion": null,
      "codigo_postal": null,
      "telefono": null,
      "web": null,
      "instagram": null,
      "horario": null,
      "terraza": false,
      "musica": null,
      "fuente": "openstreetmap"
    },
    {
      "id": "osm_node_12471453830",
      "nombre": "Biruji",
      "tipo": "bar",
      "lat": 36.4984968,
      "lon": -6.2734219,
      "direccion": null,
      "codigo_postal": null,
      "telefono": null,
      "web": null,
      "instagram": null,
      "horario": null,
      "terraza": false,
      "musica": null,
      "fuente": "openstreetmap"
    },
    {
      "id": "osm_node_12471522831",
      "nombre": "Massé",
      "tipo": "bar",
      "lat": 36.5038246,
      "lon": -6.2766415,
      "direccion": null,
      "codigo_postal": null,
      "telefono": null,
      "web": null,
      "instagram": null,
      "horario": null,
      "terraza": false,
      "musica": null,
      "fuente": "openstreetmap"
    },
    {
      "id": "osm_node_12471921075",
      "nombre": "Lozano's",
      "tipo": "cafe",
      "lat": 36.5180417,
      "lon": -6.2809669,
      "direccion": null,
      "codigo_postal": null,
      "telefono": null,
      "web": null,
      "instagram": null,
      "horario": "Mo-Sa 08:00-13:00, Mo-Th 17:00-20:00",
      "terraza": true,
      "musica": null,
      "fuente": "openstreetmap"
    },
    {
      "id": "osm_node_12480673245",
      "nombre": "Donde siempre",
      "tipo": "cafe",
      "lat": 36.5143972,
      "lon": -6.2771601,
      "direccion": null,
      "codigo_postal": null,
      "telefono": null,
      "web": null,
      "instagram": null,
      "horario": null,
      "terraza": true,
      "musica": null,
      "fuente": "openstreetmap"
    },
    {
      "id": "osm_node_12529608273",
      "nombre": "Bohemia",
      "tipo": "cafe",
      "lat": 36.5102047,
      "lon": -6.2789931,
      "direccion": null,
      "codigo_postal": null,
      "telefono": null,
      "web": null,
      "instagram": null,
      "horario": null,
      "terraza": false,
      "musica": null,
      "fuente": "openstreetmap"
    },
    {
      "id": "osm_node_12529608282",
      "nombre": "El Pilar",
      "tipo": "bar",
      "lat": 36.5099515,
      "lon": -6.2786132,
      "direccion": null,
      "codigo_postal": null,
      "telefono": null,
      "web": null,
      "instagram": null,
      "horario": null,
      "terraza": false,
      "musica": null,
      "fuente": "openstreetmap"
    },
    {
      "id": "osm_node_12529608288",
      "nombre": "El rincón gaditano",
      "tipo": "bar",
      "lat": 36.5106117,
      "lon": -6.2788364,
      "direccion": null,
      "codigo_postal": null,
      "telefono": null,
      "web": null,
      "instagram": null,
      "horario": null,
      "terraza": false,
      "musica": null,
      "fuente": "openstreetmap"
    },
    {
      "id": "osm_node_12529608294",
      "nombre": "Pequeño Curucusi",
      "tipo": "cafe",
      "lat": 36.510829,
      "lon": -6.2783924,
      "direccion": null,
      "codigo_postal": null,
      "telefono": null,
      "web": null,
      "instagram": null,
      "horario": null,
      "terraza": false,
      "musica": null,
      "fuente": "openstreetmap"
    },
    {
      "id": "osm_node_12529608299",
      "nombre": "El nuevo camarote",
      "tipo": "cafe",
      "lat": 36.5110692,
      "lon": -6.2781787,
      "direccion": null,
      "codigo_postal": null,
      "telefono": null,
      "web": null,
      "instagram": null,
      "horario": null,
      "terraza": false,
      "musica": null,
      "fuente": "openstreetmap"
    },
    {
      "id": "osm_node_12529674975",
      "nombre": "Nuevo Biarri",
      "tipo": "bar",
      "lat": 36.5155842,
      "lon": -6.2788194,
      "direccion": null,
      "codigo_postal": null,
      "telefono": null,
      "web": null,
      "instagram": null,
      "horario": null,
      "terraza": false,
      "musica": null,
      "fuente": "openstreetmap"
    },
    {
      "id": "osm_node_12529674976",
      "nombre": "La regadera",
      "tipo": "cafe",
      "lat": 36.5157461,
      "lon": -6.279124,
      "direccion": null,
      "codigo_postal": null,
      "telefono": null,
      "web": null,
      "instagram": null,
      "horario": null,
      "terraza": false,
      "musica": null,
      "fuente": "openstreetmap"
    },
    {
      "id": "osm_node_12552066866",
      "nombre": "Tapaloka",
      "tipo": "pub",
      "lat": 36.5081357,
      "lon": -6.2752602,
      "direccion": "Avenida Marconi 28",
      "codigo_postal": "11010",
      "telefono": null,
      "web": null,
      "instagram": null,
      "horario": "Th-Tu 11:00-24:00",
      "terraza": true,
      "musica": null,
      "fuente": "openstreetmap"
    },
    {
      "id": "osm_node_12618444201",
      "nombre": "Bar La Casapuerta de Luisa",
      "tipo": "bar",
      "lat": 36.5320471,
      "lon": -6.2998684,
      "direccion": "Calle Sacramento 40",
      "codigo_postal": "11001",
      "telefono": null,
      "web": null,
      "instagram": null,
      "horario": "Mo, We-Sa 09:00-15:30;  20:00-24:00",
      "terraza": false,
      "musica": null,
      "fuente": "openstreetmap"
    },
    {
      "id": "osm_node_12876787801",
      "nombre": "La Escalerilla",
      "tipo": "bar",
      "lat": 36.5019166,
      "lon": -6.2741558,
      "direccion": null,
      "codigo_postal": null,
      "telefono": null,
      "web": null,
      "instagram": null,
      "horario": null,
      "terraza": false,
      "musica": null,
      "fuente": "openstreetmap"
    },
    {
      "id": "osm_node_12960699001",
      "nombre": "Cafetería Restaurante El Ventanal",
      "tipo": "cafe",
      "lat": 36.5158498,
      "lon": -6.2821578,
      "direccion": "Avenida de Andalucía 73",
      "codigo_postal": "11007",
      "telefono": null,
      "web": null,
      "instagram": null,
      "horario": null,
      "terraza": false,
      "musica": null,
      "fuente": "openstreetmap"
    },
    {
      "id": "osm_node_13023567384",
      "nombre": "Martonella",
      "tipo": "cafe",
      "lat": 36.5329252,
      "lon": -6.2971197,
      "direccion": null,
      "codigo_postal": null,
      "telefono": null,
      "web": null,
      "instagram": null,
      "horario": null,
      "terraza": true,
      "musica": null,
      "fuente": "openstreetmap"
    },
    {
      "id": "osm_node_13075555913",
      "nombre": "La Barbería",
      "tipo": "pub",
      "lat": 36.5343406,
      "lon": -6.2959464,
      "direccion": null,
      "codigo_postal": null,
      "telefono": null,
      "web": null,
      "instagram": null,
      "horario": null,
      "terraza": false,
      "musica": null,
      "fuente": "openstreetmap"
    },
    {
      "id": "osm_node_13131510901",
      "nombre": "Loben Tapas",
      "tipo": "bar",
      "lat": 36.5067029,
      "lon": -6.2758517,
      "direccion": null,
      "codigo_postal": null,
      "telefono": null,
      "web": null,
      "instagram": null,
      "horario": null,
      "terraza": false,
      "musica": null,
      "fuente": "openstreetmap"
    },
    {
      "id": "osm_node_13133096502",
      "nombre": "El Timón",
      "tipo": "bar",
      "lat": 36.5237281,
      "lon": -6.2861683,
      "direccion": null,
      "codigo_postal": null,
      "telefono": null,
      "web": null,
      "instagram": null,
      "horario": null,
      "terraza": false,
      "musica": null,
      "fuente": "openstreetmap"
    },
    {
      "id": "osm_node_13134598401",
      "nombre": "Papelón las Acacias",
      "tipo": "bar",
      "lat": 36.5242662,
      "lon": -6.2862281,
      "direccion": null,
      "codigo_postal": null,
      "telefono": null,
      "web": null,
      "instagram": null,
      "horario": null,
      "terraza": false,
      "musica": null,
      "fuente": "openstreetmap"
    },
    {
      "id": "osm_node_13180676701",
      "nombre": "Al Trastero",
      "tipo": "cafe",
      "lat": 36.5192144,
      "lon": -6.2791617,
      "direccion": null,
      "codigo_postal": null,
      "telefono": null,
      "web": null,
      "instagram": null,
      "horario": null,
      "terraza": false,
      "musica": null,
      "fuente": "openstreetmap"
    },
    {
      "id": "osm_node_13265278101",
      "nombre": "El Café de Ana",
      "tipo": "cafe",
      "lat": 36.5113111,
      "lon": -6.2799854,
      "direccion": "Avenida Ana de Viya 28",
      "codigo_postal": "11009",
      "telefono": null,
      "web": "https://www.elcafedeanacadiz.com",
      "instagram": null,
      "horario": "Mo-Fr 08:00-22:00; Sa-Su 09:00-22:00",
      "terraza": false,
      "musica": null,
      "fuente": "openstreetmap"
    },
    {
      "id": "osm_node_13319719201",
      "nombre": "Savage Bar",
      "tipo": "bar",
      "lat": 36.5302225,
      "lon": -6.2912018,
      "direccion": "Avenida del Puerto 1",
      "codigo_postal": null,
      "telefono": null,
      "web": null,
      "instagram": null,
      "horario": "Su-Th 12:00-02:00; Fr-Sa 12:00-15:00",
      "terraza": false,
      "musica": null,
      "fuente": "openstreetmap"
    },
    {
      "id": "osm_node_13328049436",
      "nombre": "Nü",
      "tipo": "bar",
      "lat": 36.5310961,
      "lon": -6.29267,
      "direccion": "Avenida Cuatro de Diciembre de 1977",
      "codigo_postal": null,
      "telefono": null,
      "web": null,
      "instagram": null,
      "horario": null,
      "terraza": false,
      "musica": null,
      "fuente": "openstreetmap"
    },
    {
      "id": "osm_node_13442135901",
      "nombre": "Oliver Café",
      "tipo": "cafe",
      "lat": 36.5218486,
      "lon": -6.2782345,
      "direccion": null,
      "codigo_postal": null,
      "telefono": null,
      "web": null,
      "instagram": null,
      "horario": null,
      "terraza": false,
      "musica": null,
      "fuente": "openstreetmap"
    },
    {
      "id": "osm_node_13474419801",
      "nombre": "Café Bar Nuevo Fabripan",
      "tipo": "bar",
      "lat": 36.5062768,
      "lon": -6.27584,
      "direccion": null,
      "codigo_postal": null,
      "telefono": null,
      "web": null,
      "instagram": null,
      "horario": null,
      "terraza": false,
      "musica": null,
      "fuente": "openstreetmap"
    },
    {
      "id": "osm_way_541036772",
      "nombre": "Nueva Orleans",
      "tipo": "bar",
      "lat": 36.531534,
      "lon": -6.293762,
      "direccion": "Plaza de las nieves 8",
      "codigo_postal": null,
      "telefono": null,
      "web": null,
      "instagram": null,
      "horario": null,
      "terraza": false,
      "musica": null,
      "fuente": "openstreetmap"
    },
    {
      "id": "osm_way_541036779",
      "nombre": "Las Nieves",
      "tipo": "cafe",
      "lat": 36.531364,
      "lon": -6.293515,
      "direccion": "Calle Rosario 4",
      "codigo_postal": null,
      "telefono": null,
      "web": null,
      "instagram": null,
      "horario": null,
      "terraza": false,
      "musica": null,
      "fuente": "openstreetmap"
    },
    {
      "id": "osm_way_610498066",
      "nombre": "Bar El Gallego",
      "tipo": "bar",
      "lat": 36.505076,
      "lon": -6.27279,
      "direccion": null,
      "codigo_postal": null,
      "telefono": null,
      "web": null,
      "instagram": null,
      "horario": null,
      "terraza": false,
      "musica": null,
      "fuente": "openstreetmap"
    },
    {
      "id": "osm_way_756236024",
      "nombre": "Chiringuito 180º",
      "tipo": "cafe",
      "lat": 36.524563,
      "lon": -6.275933,
      "direccion": null,
      "codigo_postal": null,
      "telefono": null,
      "web": null,
      "instagram": null,
      "horario": null,
      "terraza": true,
      "musica": null,
      "fuente": "openstreetmap"
    },
    {
      "id": "osm_way_756884827",
      "nombre": "La Almadraba",
      "tipo": "bar",
      "lat": 36.519527,
      "lon": -6.279945,
      "direccion": null,
      "codigo_postal": null,
      "telefono": null,
      "web": null,
      "instagram": null,
      "horario": null,
      "terraza": false,
      "musica": null,
      "fuente": "openstreetmap"
    },
    {
      "id": "osm_way_1350685830",
      "nombre": "Bar Benítez",
      "tipo": "bar",
      "lat": 36.510132,
      "lon": -6.276622,
      "direccion": null,
      "codigo_postal": null,
      "telefono": null,
      "web": null,
      "instagram": null,
      "horario": null,
      "terraza": false,
      "musica": null,
      "fuente": "openstreetmap"
    },
    {
      "id": "osm_way_1453319103",
      "nombre": "Calachica",
      "tipo": "bar",
      "lat": 36.538529,
      "lon": -6.290587,
      "direccion": null,
      "codigo_postal": null,
      "telefono": null,
      "web": null,
      "instagram": null,
      "horario": null,
      "terraza": false,
      "musica": null,
      "fuente": "openstreetmap"
    }
  ]
}