{
  "ciudad": "Cartagena",
  "total": 330,
  "locales": [
    {
      "id": "osm_node_1624076128",
      "nombre": "Bar Sol",
      "tipo": "cafe",
      "lat": 37.6015496,
      "lon": -0.9831843,
      "direccion": null,
      "codigo_postal": null,
      "telefono": null,
      "web": null,
      "instagram": null,
      "horario": null,
      "terraza": false,
      "musica": null,
      "fuente": "openstreetmap"
    },
    {
      "id": "osm_node_1700779903",
      "nombre": "Radio",
      "tipo": "pub",
      "lat": 37.5999312,
      "lon": -0.9869288,
      "direccion": "Arena 1",
      "codigo_postal": "30201",
      "telefono": null,
      "web": null,
      "instagram": null,
      "horario": null,
      "terraza": false,
      "musica": null,
      "fuente": "openstreetmap"
    },
    {
      "id": "osm_node_1843787151",
      "nombre": "Ya te vale",
      "tipo": "pub",
      "lat": 37.6635665,
      "lon": -0.7234498,
      "direccion": null,
      "codigo_postal": null,
      "telefono": null,
      "web": null,
      "instagram": null,
      "horario": null,
      "terraza": false,
      "musica": null,
      "fuente": "openstreetmap"
    },
    {
      "id": "osm_node_2126847144",
      "nombre": "Mazinger",
      "tipo": "pub",
      "lat": 37.6161881,
      "lon": -0.9897024,
      "direccion": null,
      "codigo_postal": null,
      "telefono": null,
      "web": null,
      "instagram": null,
      "horario": null,
      "terraza": false,
      "musica": null,
      "fuente": "openstreetmap"
    },
    {
      "id": "osm_node_2294063202",
      "nombre": "La Fuente",
      "tipo": "bar",
      "lat": 37.6013947,
      "lon": -0.985372,
      "direccion": null,
      "codigo_postal": null,
      "telefono": null,
      "web": null,
      "instagram": null,
      "horario": null,
      "terraza": true,
      "musica": null,
      "fuente": "openstreetmap"
    },
    {
      "id": "osm_node_2294063204",
      "nombre": "La Uva Jumillana",
      "tipo": "bar",
      "lat": 37.6015902,
      "lon": -0.9855047,
      "direccion": null,
      "codigo_postal": null,
      "telefono": null,
      "web": null,
      "instagram": null,
      "horario": null,
      "terraza": true,
      "musica": null,
      "fuente": "openstreetmap"
    },
    {
      "id": "osm_node_2334801487",
      "nombre": "Terraza del Sol",
      "tipo": "cafe",
      "lat": 37.5981987,
      "lon": -0.9823653,
      "direccion": null,
      "codigo_postal": null,
      "telefono": null,
      "web": null,
      "instagram": null,
      "horario": null,
      "terraza": false,
      "musica": null,
      "fuente": "openstreetmap"
    },
    {
      "id": "osm_node_2377221309",
      "nombre": "Pitxon",
      "tipo": "cafe",
      "lat": 37.6105794,
      "lon": -0.9876963,
      "direccion": null,
      "codigo_postal": null,
      "telefono": "+34 605 45 76 34",
      "web": "https://www.instagram.com/pitxoncartagena/",
      "instagram": null,
      "horario": null,
      "terraza": false,
      "musica": null,
      "fuente": "openstreetmap"
    },
    {
      "id": "osm_node_2382434354",
      "nombre": "La Glorieta 470",
      "tipo": "bar",
      "lat": 37.6020733,
      "lon": -0.9840515,
      "direccion": null,
      "codigo_postal": null,
      "telefono": null,
      "web": null,
      "instagram": null,
      "horario": null,
      "terraza": true,
      "musica": null,
      "fuente": "openstreetmap"
    },
    {
      "id": "osm_node_2416977887",
      "nombre": "Alhambra",
      "tipo": "cafe",
      "lat": 37.6101241,
      "lon": -0.9741624,
      "direccion": null,
      "codigo_postal": null,
      "telefono": null,
      "web": null,
      "instagram": null,
      "horario": null,
      "terraza": false,
      "musica": null,
      "fuente": "openstreetmap"
    },
    {
      "id": "osm_node_2531469354",
      "nombre": "Pub Minueto",
      "tipo": "pub",
      "lat": 37.6293135,
      "lon": -1.0460264,
      "direccion": null,
      "codigo_postal": null,
      "telefono": null,
      "web": null,
      "instagram": null,
      "horario": null,
      "terraza": false,
      "musica": null,
      "fuente": "openstreetmap"
    },
    {
      "id": "osm_node_2531469776",
      "nombre": "Noymar",
      "tipo": "bar",
      "lat": 37.6289878,
      "lon": -1.0438523,
      "direccion": null,
      "codigo_postal": null,
      "telefono": null,
      "web": null,
      "instagram": null,
      "horario": null,
      "terraza": false,
      "musica": null,
      "fuente": "openstreetmap"
    },
    {
      "id": "osm_node_2531474521",
      "nombre": "Noah",
      "tipo": "cafe",
      "lat": 37.6288172,
      "lon": -1.0405309,
      "direccion": null,
      "codigo_postal": null,
      "telefono": null,
      "web": null,
      "instagram": null,
      "horario": null,
      "terraza": false,
      "musica": null,
      "fuente": "openstreetmap"
    },
    {
      "id": "osm_node_2531485787",
      "nombre": "Yatay",
      "tipo": "pub",
      "lat": 37.6292393,
      "lon": -1.0439497,
      "direccion": null,
      "codigo_postal": null,
      "telefono": null,
      "web": null,
      "instagram": null,
      "horario": null,
      "terraza": false,
      "musica": null,
      "fuente": "openstreetmap"
    },
    {
      "id": "osm_node_2533651618",
      "nombre": "El Popo",
      "tipo": "bar",
      "lat": 37.6117344,
      "lon": -1.0383668,
      "direccion": null,
      "codigo_postal": null,
      "telefono": null,
      "web": null,
      "instagram": null,
      "horario": null,
      "terraza": false,
      "musica": null,
      "fuente": "openstreetmap"
    },
    {
      "id": "osm_node_2549777794",
      "nombre": "Moai",
      "tipo": "bar",
      "lat": 37.6161632,
      "lon": -1.0202347,
      "direccion": null,
      "codigo_postal": null,
      "telefono": null,
      "web": null,
      "instagram": null,
      "horario": null,
      "terraza": false,
      "musica": null,
      "fuente": "openstreetmap"
    },
    {
      "id": "osm_node_2550737151",
      "nombre": "La Kinteria",
      "tipo": "bar",
      "lat": 37.6166942,
      "lon": -1.0234419,
      "direccion": null,
      "codigo_postal": null,
      "telefono": null,
      "web": null,
      "instagram": null,
      "horario": null,
      "terraza": false,
      "musica": null,
      "fuente": "openstreetmap"
    },
    {
      "id": "osm_node_2550745166",
      "nombre": "El Tío Pencho",
      "tipo": "pub",
      "lat": 37.6158793,
      "lon": -1.020464,
      "direccion": null,
      "codigo_postal": null,
      "telefono": null,
      "web": null,
      "instagram": null,
      "horario": null,
      "terraza": false,
      "musica": null,
      "fuente": "openstreetmap"
    },
    {
      "id": "osm_node_2552428129",
      "nombre": "Hípica",
      "tipo": "bar",
      "lat": 37.6059161,
      "lon": -0.9808561,
      "direccion": null,
      "codigo_postal": null,
      "telefono": null,
      "web": null,
      "instagram": null,
      "horario": null,
      "terraza": true,
      "musica": null,
      "fuente": "openstreetmap"
    },
    {
      "id": "osm_node_2552428133",
      "nombre": "Dower´s",
      "tipo": "bar",
      "lat": 37.6060935,
      "lon": -0.9815678,
      "direccion": null,
      "codigo_postal": null,
      "telefono": null,
      "web": null,
      "instagram": null,
      "horario": null,
      "terraza": true,
      "musica": null,
      "fuente": "openstreetmap"
    },
    {
      "id": "osm_node_2552443690",
      "nombre": "Cafetería Teatro Romano",
      "tipo": "cafe",
      "lat": 37.5987925,
      "lon": -0.985239,
      "direccion": null,
      "codigo_postal": null,
      "telefono": null,
      "web": null,
      "instagram": null,
      "horario": null,
      "terraza": true,
      "musica": null,
      "fuente": "openstreetmap"
    },
    {
      "id": "osm_node_2555508767",
      "nombre": "El Abanico",
      "tipo": "bar",
      "lat": 37.6038061,
      "lon": -0.9909135,
      "direccion": "Calle Real 68",
      "codigo_postal": "30201",
      "telefono": "+34696513200",
      "web": "http://elabanico.mex.tl/",
      "instagram": null,
      "horario": null,
      "terraza": false,
      "musica": null,
      "fuente": "openstreetmap"
    },
    {
      "id": "osm_node_2630204626",
      "nombre": "Cafetería Cervantes",
      "tipo": "cafe",
      "lat": 37.6162603,
      "lon": -0.9939431,
      "direccion": "Calle Ramón y Cajal 61",
      "codigo_postal": null,
      "telefono": null,
      "web": null,
      "instagram": null,
      "horario": null,
      "terraza": false,
      "musica": null,
      "fuente": "openstreetmap"
    },
    {
      "id": "osm_node_2679613144",
      "nombre": "El Rincón del Mico",
      "tipo": "bar",
      "lat": 37.6001757,
      "lon": -0.9848447,
      "direccion": "Calle Cuatro Santos",
      "codigo_postal": "30201",
      "telefono": null,
      "web": null,
      "instagram": null,
      "horario": null,
      "terraza": false,
      "musica": null,
      "fuente": "openstreetmap"
    },
    {
      "id": "osm_node_2769320548",
      "nombre": "Café-Bar Santiago",
      "tipo": "bar",
      "lat": 37.5976995,
      "lon": -0.9717437,
      "direccion": null,
      "codigo_postal": null,
      "telefono": null,
      "web": null,
      "instagram": null,
      "horario": null,
      "terraza": false,
      "musica": null,
      "fuente": "openstreetmap"
    },
    {
      "id": "osm_node_2769320551",
      "nombre": "Ánfora",
      "tipo": "bar",
      "lat": 37.6121513,
      "lon": -0.99388,
      "direccion": null,
      "codigo_postal": null,
      "telefono": null,
      "web": null,
      "instagram": null,
      "horario": null,
      "terraza": false,
      "musica": null,
      "fuente": "openstreetmap"
    },
    {
      "id": "osm_node_2769320552",
      "nombre": "Club Náutico El Chalet",
      "tipo": "cafe",
      "lat": 37.586429,
      "lon": -0.9861686,
      "direccion": null,
      "codigo_postal": null,
      "telefono": null,
      "web": null,
      "instagram": null,
      "horario": null,
      "terraza": false,
      "musica": null,
      "fuente": "openstreetmap"
    },
    {
      "id": "osm_node_2769320557",
      "nombre": "Carrots Café",
      "tipo": "cafe",
      "lat": 37.610879,
      "lon": -0.9932595,
      "direccion": null,
      "codigo_postal": null,
      "telefono": "+34 968085558",
      "web": null,
      "instagram": null,
      "horario": null,
      "terraza": false,
      "musica": null,
      "fuente": "openstreetmap"
    },
    {
      "id": "osm_node_2769465067",
      "nombre": "La Teja",
      "tipo": "bar",
      "lat": 37.6120727,
      "lon": -0.9938693,
      "direccion": null,
      "codigo_postal": null,
      "telefono": null,
      "web": null,
      "instagram": null,
      "horario": null,
      "terraza": false,
      "musica": null,
      "fuente": "openstreetmap"
    },
    {
      "id": "osm_node_2769465107",
      "nombre": "La Salamandra",
      "tipo": "bar",
      "lat": 37.6153256,
      "lon": -0.9914016,
      "direccion": null,
      "codigo_postal": null,
      "telefono": null,
      "web": null,
      "instagram": null,
      "horario": null,
      "terraza": false,
      "musica": null,
      "fuente": "openstreetmap"
    },
    {
      "id": "osm_node_2769465121",
      "nombre": "Forum",
      "tipo": "bar",
      "lat": 37.5998374,
      "lon": -0.9850823,
      "direccion": "Calle del Cañón 13",
      "codigo_postal": null,
      "telefono": null,
      "web": null,
      "instagram": null,
      "horario": null,
      "terraza": false,
      "musica": null,
      "fuente": "openstreetmap"
    },
    {
      "id": "osm_node_2769465143",
      "nombre": "Saray",
      "tipo": "bar",
      "lat": 37.6149878,
      "lon": -0.9923583,
      "direccion": null,
      "codigo_postal": null,
      "telefono": null,
      "web": null,
      "instagram": null,
      "horario": null,
      "terraza": false,
      "musica": null,
      "fuente": "openstreetmap"
    },
    {
      "id": "osm_node_2769465232",
      "nombre": "Cerbecería X Un Tubo",
      "tipo": "biergarten",
      "lat": 37.6141316,
      "lon": -0.9892639,
      "direccion": null,
      "codigo_postal": null,
      "telefono": null,
      "web": null,
      "instagram": null,
      "horario": null,
      "terraza": false,
      "musica": null,
      "fuente": "openstreetmap"
    },
    {
      "id": "osm_node_2769465261",
      "nombre": "La Mar Salá",
      "tipo": "bar",
      "lat": 37.611075,
      "lon": -0.9933499,
      "direccion": null,
      "codigo_postal": null,
      "telefono": null,
      "web": null,
      "instagram": null,
      "horario": null,
      "terraza": false,
      "musica": null,
      "fuente": "openstreetmap"
    },
    {
      "id": "osm_node_2769465300",
      "nombre": "Tiago Tapería",
      "tipo": "bar",
      "lat": 37.6176524,
      "lon": -0.9949462,
      "direccion": null,
      "codigo_postal": null,
      "telefono": null,
      "web": null,
      "instagram": null,
      "horario": null,
      "terraza": false,
      "musica": null,
      "fuente": "openstreetmap"
    },
    {
      "id": "osm_node_2769465328",
      "nombre": "La Malaka Cafe",
      "tipo": "cafe",
      "lat": 37.610664,
      "lon": -0.9949046,
      "direccion": null,
      "codigo_postal": null,
      "telefono": null,
      "web": null,
      "instagram": null,
      "horario": "We-Sa 09:00-21:00; Su 09:00-20:00",
      "terraza": true,
      "musica": null,
      "fuente": "openstreetmap"
    },
    {
      "id": "osm_node_2769465335",
      "nombre": "Barley Bar",
      "tipo": "cafe",
      "lat": 37.6033072,
      "lon": -0.9879724,
      "direccion": null,
      "codigo_postal": null,
      "telefono": null,
      "web": null,
      "instagram": null,
      "horario": null,
      "terraza": true,
      "musica": null,
      "fuente": "openstreetmap"
    },
    {
      "id": "osm_node_2769465357",
      "nombre": "Plazza Café",
      "tipo": "cafe",
      "lat": 37.6063446,
      "lon": -0.9922411,
      "direccion": "Plaza de España 5",
      "codigo_postal": "30201",
      "telefono": "+34 669 85 63 96",
      "web": null,
      "instagram": null,
      "horario": null,
      "terraza": true,
      "musica": null,
      "fuente": "openstreetmap"
    },
    {
      "id": "osm_node_2769559121",
      "nombre": "Magic Cris",
      "tipo": "bar",
      "lat": 37.6254243,
      "lon": -0.9632357,
      "direccion": null,
      "codigo_postal": null,
      "telefono": null,
      "web": null,
      "instagram": null,
      "horario": null,
      "terraza": false,
      "musica": null,
      "fuente": "openstreetmap"
    },
    {
      "id": "osm_node_2769559135",
      "nombre": "Ciudad Deportiva",
      "tipo": "cafe",
      "lat": 37.620829,
      "lon": -0.9506103,
      "direccion": null,
      "codigo_postal": null,
      "telefono": null,
      "web": null,
      "instagram": null,
      "horario": null,
      "terraza": false,
      "musica": null,
      "fuente": "openstreetmap"
    },
    {
      "id": "osm_node_2769559141",
      "nombre": "Dublín",
      "tipo": "cafe",
      "lat": 37.6233026,
      "lon": -0.9541059,
      "direccion": null,
      "codigo_postal": null,
      "telefono": null,
      "web": null,
      "instagram": null,
      "horario": null,
      "terraza": false,
      "musica": null,
      "fuente": "openstreetmap"
    },
    {
      "id": "osm_node_2769559149",
      "nombre": "Inna",
      "tipo": "pub",
      "lat": 37.6175997,
      "lon": -0.9558754,
      "direccion": null,
      "codigo_postal": null,
      "telefono": null,
      "web": null,
      "instagram": null,
      "horario": null,
      "terraza": false,
      "musica": null,
      "fuente": "openstreetmap"
    },
    {
      "id": "osm_node_2769559155",
      "nombre": "Rusia",
      "tipo": "pub",
      "lat": 37.6240602,
      "lon": -0.9553551,
      "direccion": null,
      "codigo_postal": null,
      "telefono": null,
      "web": null,
      "instagram": null,
      "horario": null,
      "terraza": false,
      "musica": null,
      "fuente": "openstreetmap"
    },
    {
      "id": "osm_node_2769741151",
      "nombre": "Mister Witt Café",
      "tipo": "cafe",
      "lat": 37.6046674,
      "lon": -0.9910903,
      "direccion": null,
      "codigo_postal": null,
      "telefono": null,
      "web": null,
      "instagram": null,
      "horario": null,
      "terraza": false,
      "musica": null,
      "fuente": "openstreetmap"
    },
    {
      "id": "osm_node_2769741159",
      "nombre": "La Juguetería",
      "tipo": "bar",
      "lat": 37.601463,
      "lon": -0.9872858,
      "direccion": "Calle Villamartín 3",
      "codigo_postal": "30201",
      "telefono": null,
      "web": null,
      "instagram": null,
      "horario": null,
      "terraza": true,
      "musica": null,
      "fuente": "openstreetmap"
    },
    {
      "id": "osm_node_2769741162",
      "nombre": "El Casón Privado",
      "tipo": "cafe",
      "lat": 37.6019941,
      "lon": -0.9817593,
      "direccion": null,
      "codigo_postal": null,
      "telefono": null,
      "web": null,
      "instagram": null,
      "horario": null,
      "terraza": false,
      "musica": null,
      "fuente": "openstreetmap"
    },
    {
      "id": "osm_node_2769868321",
      "nombre": "Iroko",
      "tipo": "pub",
      "lat": 37.614623,
      "lon": -0.9946657,
      "direccion": null,
      "codigo_postal": null,
      "telefono": null,
      "web": null,
      "instagram": null,
      "horario": null,
      "terraza": false,
      "musica": null,
      "fuente": "openstreetmap"
    },
    {
      "id": "osm_node_2769868323",
      "nombre": "La Dama",
      "tipo": "pub",
      "lat": 37.6114402,
      "lon": -0.9931742,
      "direccion": null,
      "codigo_postal": null,
      "telefono": null,
      "web": null,
      "instagram": null,
      "horario": null,
      "terraza": false,
      "musica": null,
      "fuente": "openstreetmap"
    },
    {
      "id": "osm_node_2769868331",
      "nombre": "Cervecería Gas",
      "tipo": "biergarten",
      "lat": 37.6111363,
      "lon": -0.9947917,
      "direccion": null,
      "codigo_postal": null,
      "telefono": null,
      "web": null,
      "instagram": null,
      "horario": null,
      "terraza": false,
      "musica": null,
      "fuente": "openstreetmap"
    },
    {
      "id": "osm_node_2769868334",
      "nombre": "Bernal",
      "tipo": "cafe",
      "lat": 37.6118162,
      "lon": -0.9850473,
      "direccion": null,
      "codigo_postal": null,
      "telefono": null,
      "web": null,
      "instagram": null,
      "horario": null,
      "terraza": true,
      "musica": null,
      "fuente": "openstreetmap"
    },
    {
      "id": "osm_node_2769868335",
      "nombre": "Príncipe",
      "tipo": "pub",
      "lat": 37.6086163,
      "lon": -0.989025,
      "direccion": null,
      "codigo_postal": null,
      "telefono": null,
      "web": null,
      "instagram": null,
      "horario": null,
      "terraza": false,
      "musica": null,
      "fuente": "openstreetmap"
    },
    {
      "id": "osm_node_2769868337",
      "nombre": "Monkey candem",
      "tipo": "bar",
      "lat": 37.6114544,
      "lon": -0.9885973,
      "direccion": null,
      "codigo_postal": null,
      "telefono": null,
      "web": null,
      "instagram": null,
      "horario": null,
      "terraza": false,
      "musica": null,
      "fuente": "openstreetmap"
    },
    {
      "id": "osm_node_2769868340",
      "nombre": "Soho",
      "tipo": "pub",
      "lat": 37.6116666,
      "lon": -0.993648,
      "direccion": null,
      "codigo_postal": null,
      "telefono": null,
      "web": null,
      "instagram": null,
      "horario": null,
      "terraza": false,
      "musica": null,
      "fuente": "openstreetmap"
    },
    {
      "id": "osm_node_2769868341",
      "nombre": "Delante",
      "tipo": "pub",
      "lat": 37.6088883,
      "lon": -0.9895131,
      "direccion": null,
      "codigo_postal": null,
      "telefono": null,
      "web": null,
      "instagram": null,
      "horario": null,
      "terraza": false,
      "musica": null,
      "fuente": "openstreetmap"
    },
    {
      "id": "osm_node_2769868344",
      "nombre": "Manhattan",
      "tipo": "pub",
      "lat": 37.6116654,
      "lon": -0.9930536,
      "direccion": null,
      "codigo_postal": null,
      "telefono": null,
      "web": null,
      "instagram": null,
      "horario": null,
      "terraza": false,
      "musica": null,
      "fuente": "openstreetmap"
    },
    {
      "id": "osm_node_2769868345",
      "nombre": "Red & Black",
      "tipo": "pub",
      "lat": 37.6115897,
      "lon": -0.9932688,
      "direccion": null,
      "codigo_postal": null,
      "telefono": null,
      "web": null,
      "instagram": null,
      "horario": null,
      "terraza": false,
      "musica": null,
      "fuente": "openstreetmap"
    },
    {
      "id": "osm_node_2769868347",
      "nombre": "Detrás",
      "tipo": "pub",
      "lat": 37.6090301,
      "lon": -0.9894361,
      "direccion": null,
      "codigo_postal": null,
      "telefono": null,
      "web": null,
      "instagram": null,
      "horario": null,
      "terraza": false,
      "musica": null,
      "fuente": "openstreetmap"
    },
    {
      "id": "osm_node_2769868352",
      "nombre": "Valen",
      "tipo": "cafe",
      "lat": 37.6147932,
      "lon": -0.9938283,
      "direccion": "Calle Jorge Juan 3",
      "codigo_postal": "30205",
      "telefono": null,
      "web": null,
      "instagram": null,
      "horario": null,
      "terraza": false,
      "musica": null,
      "fuente": "openstreetmap"
    },
    {
      "id": "osm_node_2769868353",
      "nombre": "Sakan",
      "tipo": "bar",
      "lat": 37.6073414,
      "lon": -0.9921846,
      "direccion": null,
      "codigo_postal": null,
      "telefono": null,
      "web": null,
      "instagram": null,
      "horario": null,
      "terraza": true,
      "musica": null,
      "fuente": "openstreetmap"
    },
    {
      "id": "osm_node_2771085087",
      "nombre": "Ávalon",
      "tipo": "pub",
      "lat": 37.607847,
      "lon": -0.9895648,
      "direccion": null,
      "codigo_postal": null,
      "telefono": null,
      "web": null,
      "instagram": null,
      "horario": null,
      "terraza": false,
      "musica": null,
      "fuente": "openstreetmap"
    },
    {
      "id": "osm_node_2771085090",
      "nombre": "Ítaca",
      "tipo": "bar",
      "lat": 37.6091742,
      "lon": -0.9939558,
      "direccion": null,
      "codigo_postal": null,
      "telefono": null,
      "web": null,
      "instagram": null,
      "horario": null,
      "terraza": false,
      "musica": null,
      "fuente": "openstreetmap"
    },
    {
      "id": "osm_node_2771085111",
      "nombre": "Villa Esperanza",
      "tipo": "cafe",
      "lat": 37.6250471,
      "lon": -0.9867647,
      "direccion": null,
      "codigo_postal": null,
      "telefono": null,
      "web": null,
      "instagram": null,
      "horario": null,
      "terraza": false,
      "musica": null,
      "fuente": "openstreetmap"
    },
    {
      "id": "osm_node_2771085115",
      "nombre": "Mogambo",
      "tipo": "bar",
      "lat": 37.6078866,
      "lon": -0.9884841,
      "direccion": null,
      "codigo_postal": null,
      "telefono": null,
      "web": null,
      "instagram": null,
      "horario": null,
      "terraza": false,
      "musica": null,
      "fuente": "openstreetmap"
    },
    {
      "id": "osm_node_2771106558",
      "nombre": "Caffè Latte",
      "tipo": "cafe",
      "lat": 37.6038096,
      "lon": -0.9891213,
      "direccion": "Calle del Carmen 23",
      "codigo_postal": "30201",
      "telefono": null,
      "web": null,
      "instagram": null,
      "horario": null,
      "terraza": false,
      "musica": null,
      "fuente": "openstreetmap"
    },
    {
      "id": "osm_node_2771106564",
      "nombre": "Bodega Nicolás",
      "tipo": "bar",
      "lat": 37.6049469,
      "lon": -0.9902957,
      "direccion": "Calle del Carmen",
      "codigo_postal": null,
      "telefono": null,
      "web": null,
      "instagram": null,
      "horario": null,
      "terraza": false,
      "musica": null,
      "fuente": "openstreetmap"
    },
    {
      "id": "osm_node_2771181512",
      "nombre": "Leyendas",
      "tipo": "pub",
      "lat": 37.601138,
      "lon": -0.9874149,
      "direccion": "Calle Villamartín 9",
      "codigo_postal": "30201",
      "telefono": null,
      "web": null,
      "instagram": null,
      "horario": null,
      "terraza": false,
      "musica": null,
      "fuente": "openstreetmap"
    },
    {
      "id": "osm_node_2771181516",
      "nombre": "El Baresico",
      "tipo": "bar",
      "lat": 37.5999593,
      "lon": -0.9850557,
      "direccion": null,
      "codigo_postal": null,
      "telefono": null,
      "web": null,
      "instagram": null,
      "horario": null,
      "terraza": false,
      "musica": null,
      "fuente": "openstreetmap"
    },
    {
      "id": "osm_node_2771181533",
      "nombre": "San Miguel",
      "tipo": "cafe",
      "lat": 37.6010596,
      "lon": -0.9851118,
      "direccion": null,
      "codigo_postal": null,
      "telefono": null,
      "web": null,
      "instagram": null,
      "horario": null,
      "terraza": false,
      "musica": null,
      "fuente": "openstreetmap"
    },
    {
      "id": "osm_node_2771181536",
      "nombre": "Aire 13",
      "tipo": "bar",
      "lat": 37.600232,
      "lon": -0.9853488,
      "direccion": null,
      "codigo_postal": null,
      "telefono": null,
      "web": null,
      "instagram": null,
      "horario": null,
      "terraza": false,
      "musica": null,
      "fuente": "openstreetmap"
    },
    {
      "id": "osm_node_2772164994",
      "nombre": "Salón de Té",
      "tipo": "cafe",
      "lat": 37.6082816,
      "lon": -0.9862648,
      "direccion": null,
      "codigo_postal": null,
      "telefono": null,
      "web": null,
      "instagram": null,
      "horario": null,
      "terraza": false,
      "musica": null,
      "fuente": "openstreetmap"
    },
    {
      "id": "osm_node_2772164997",
      "nombre": "Suite 40",
      "tipo": "pub",
      "lat": 37.6087341,
      "lon": -0.9869603,
      "direccion": null,
      "codigo_postal": null,
      "telefono": null,
      "web": null,
      "instagram": null,
      "horario": null,
      "terraza": false,
      "musica": null,
      "fuente": "openstreetmap"
    },
    {
      "id": "osm_node_2772165001",
      "nombre": "Hispania",
      "tipo": "cafe",
      "lat": 37.6182039,
      "lon": -0.9853617,
      "direccion": null,
      "codigo_postal": null,
      "telefono": null,
      "web": null,
      "instagram": null,
      "horario": null,
      "terraza": false,
      "musica": null,
      "fuente": "openstreetmap"
    },
    {
      "id": "osm_node_2772165002",
      "nombre": "El Bambú",
      "tipo": "pub",
      "lat": 37.6088933,
      "lon": -0.9911129,
      "direccion": null,
      "codigo_postal": null,
      "telefono": null,
      "web": null,
      "instagram": null,
      "horario": null,
      "terraza": false,
      "musica": null,
      "fuente": "openstreetmap"
    },
    {
      "id": "osm_node_2772165005",
      "nombre": "Montana",
      "tipo": "bar",
      "lat": 37.6062306,
      "lon": -0.9832799,
      "direccion": null,
      "codigo_postal": null,
      "telefono": null,
      "web": null,
      "instagram": null,
      "horario": null,
      "terraza": false,
      "musica": null,
      "fuente": "openstreetmap"
    },
    {
      "id": "osm_node_2772165006",
      "nombre": "Morata´s",
      "tipo": "cafe",
      "lat": 37.6087384,
      "lon": -0.9872526,
      "direccion": null,
      "codigo_postal": null,
      "telefono": null,
      "web": null,
      "instagram": null,
      "horario": null,
      "terraza": false,
      "musica": null,
      "fuente": "openstreetmap"
    },
    {
      "id": "osm_node_2772165007",
      "nombre": "The Tube",
      "tipo": "bar",
      "lat": 37.60615,
      "lon": -0.9832778,
      "direccion": "Calle Tierno Galván",
      "codigo_postal": null,
      "telefono": null,
      "web": null,
      "instagram": null,
      "horario": null,
      "terraza": false,
      "musica": null,
      "fuente": "openstreetmap"
    },
    {
      "id": "osm_node_2772165008",
      "nombre": "El Bambú",
      "tipo": "cafe",
      "lat": 37.6092652,
      "lon": -0.9912573,
      "direccion": null,
      "codigo_postal": null,
      "telefono": null,
      "web": null,
      "instagram": null,
      "horario": null,
      "terraza": false,
      "musica": null,
      "fuente": "openstreetmap"
    },
    {
      "id": "osm_node_2772165009",
      "nombre": "El Quinqué Cervecería",
      "tipo": "biergarten",
      "lat": 37.6069152,
      "lon": -0.9872017,
      "direccion": null,
      "codigo_postal": null,
      "telefono": null,
      "web": null,
      "instagram": null,
      "horario": null,
      "terraza": false,
      "musica": null,
      "fuente": "openstreetmap"
    },
    {
      "id": "osm_node_2772165012",
      "nombre": "La Paz",
      "tipo": "bar",
      "lat": 37.6109524,
      "lon": -0.990305,
      "direccion": null,
      "codigo_postal": null,
      "telefono": null,
      "web": null,
      "instagram": null,
      "horario": null,
      "terraza": true,
      "musica": null,
      "fuente": "openstreetmap"
    },
    {
      "id": "osm_node_2772165013",
      "nombre": "Pistacho 4",
      "tipo": "bar",
      "lat": 37.6185268,
      "lon": -0.9858214,
      "direccion": null,
      "codigo_postal": null,
      "telefono": null,
      "web": null,
      "instagram": null,
      "horario": null,
      "terraza": false,
      "musica": null,
      "fuente": "openstreetmap"
    },
    {
      "id": "osm_node_2772165015",
      "nombre": "Tebas",
      "tipo": "bar",
      "lat": 37.619364,
      "lon": -0.9858535,
      "direccion": null,
      "codigo_postal": null,
      "telefono": null,
      "web": null,
      "instagram": null,
      "horario": null,
      "terraza": false,
      "musica": null,
      "fuente": "openstreetmap"
    },
    {
      "id": "osm_node_2772165016",
      "nombre": "Apadana",
      "tipo": "cafe",
      "lat": 37.6087384,
      "lon": -0.987541,
      "direccion": null,
      "codigo_postal": null,
      "telefono": null,
      "web": null,
      "instagram": null,
      "horario": null,
      "terraza": false,
      "musica": null,
      "fuente": "openstreetmap"
    },
    {
      "id": "osm_node_2772165018",
      "nombre": "Emilio Marín",
      "tipo": "cafe",
      "lat": 37.6087745,
      "lon": -0.9848869,
      "direccion": null,
      "codigo_postal": null,
      "telefono": null,
      "web": null,
      "instagram": null,
      "horario": null,
      "terraza": true,
      "musica": null,
      "fuente": "openstreetmap"
    },
    {
      "id": "osm_node_2772165019",
      "nombre": "Cafetería Óliver",
      "tipo": "cafe",
      "lat": 37.6078141,
      "lon": -0.9854985,
      "direccion": null,
      "codigo_postal": null,
      "telefono": null,
      "web": null,
      "instagram": null,
      "horario": null,
      "terraza": true,
      "musica": null,
      "fuente": "openstreetmap"
    },
    {
      "id": "osm_node_2772165020",
      "nombre": "Cortijo",
      "tipo": "cafe",
      "lat": 37.6078455,
      "lon": -0.9899216,
      "direccion": null,
      "codigo_postal": null,
      "telefono": null,
      "web": null,
      "instagram": null,
      "horario": null,
      "terraza": false,
      "musica": null,
      "fuente": "openstreetmap"
    },
    {
      "id": "osm_node_2772180541",
      "nombre": "El Nuevo Mesonico",
      "tipo": "pub",
      "lat": 37.6160056,
      "lon": -0.9896317,
      "direccion": null,
      "codigo_postal": null,
      "telefono": null,
      "web": null,
      "instagram": null,
      "horario": null,
      "terraza": false,
      "musica": null,
      "fuente": "openstreetmap"
    },
    {
      "id": "osm_node_2772180551",
      "nombre": "El Trigal",
      "tipo": "cafe",
      "lat": 37.6159396,
      "lon": -0.9898786,
      "direccion": null,
      "codigo_postal": null,
      "telefono": null,
      "web": null,
      "instagram": null,
      "horario": null,
      "terraza": false,
      "musica": null,
      "fuente": "openstreetmap"
    },
    {
      "id": "osm_node_2772207566",
      "nombre": "Colorao",
      "tipo": "bar",
      "lat": 37.603883,
      "lon": -0.9959306,
      "direccion": null,
      "codigo_postal": null,
      "telefono": null,
      "web": null,
      "instagram": null,
      "horario": null,
      "terraza": false,
      "musica": null,
      "fuente": "openstreetmap"
    },
    {
      "id": "osm_node_2772207570",
      "nombre": "La Parada de Cristian",
      "tipo": "bar",
      "lat": 37.6061524,
      "lon": -0.9980737,
      "direccion": null,
      "codigo_postal": null,
      "telefono": null,
      "web": null,
      "instagram": null,
      "horario": null,
      "terraza": false,
      "musica": null,
      "fuente": "openstreetmap"
    },
    {
      "id": "osm_node_2772207577",
      "nombre": "Capitán Nemo",
      "tipo": "bar",
      "lat": 37.6039255,
      "lon": -0.9956678,
      "direccion": null,
      "codigo_postal": null,
      "telefono": null,
      "web": null,
      "instagram": null,
      "horario": null,
      "terraza": false,
      "musica": null,
      "fuente": "openstreetmap"
    },
    {
      "id": "osm_node_2772207585",
      "nombre": "Stop",
      "tipo": "bar",
      "lat": 37.6076526,
      "lon": -0.9988033,
      "direccion": null,
      "codigo_postal": null,
      "telefono": null,
      "web": null,
      "instagram": null,
      "horario": null,
      "terraza": false,
      "musica": null,
      "fuente": "openstreetmap"
    },
    {
      "id": "osm_node_2772222928",
      "nombre": "Makina II",
      "tipo": "bar",
      "lat": 37.6021307,
      "lon": -0.9820275,
      "direccion": null,
      "codigo_postal": null,
      "telefono": null,
      "web": "https://murcia.vivelasuerte.es/",
      "instagram": null,
      "horario": null,
      "terraza": false,
      "musica": null,
      "fuente": "openstreetmap"
    },
    {
      "id": "osm_node_2772235893",
      "nombre": "Cafetería Cénit",
      "tipo": "cafe",
      "lat": 37.6113056,
      "lon": -0.9838369,
      "direccion": null,
      "codigo_postal": null,
      "telefono": null,
      "web": null,
      "instagram": null,
      "horario": null,
      "terraza": false,
      "musica": null,
      "fuente": "openstreetmap"
    },
    {
      "id": "osm_node_2772235899",
      "nombre": "Autoescuelas",
      "tipo": "bar",
      "lat": 37.6136598,
      "lon": -0.9839683,
      "direccion": null,
      "codigo_postal": null,
      "telefono": null,
      "web": null,
      "instagram": null,
      "horario": null,
      "terraza": false,
      "musica": null,
      "fuente": "openstreetmap"
    },
    {
      "id": "osm_node_2772268688",
      "nombre": "Vaiven 2.0",
      "tipo": "bar",
      "lat": 37.606841,
      "lon": -0.9773725,
      "direccion": "Paseo de Alfonso XIII",
      "codigo_postal": null,
      "telefono": null,
      "web": null,
      "instagram": null,
      "horario": null,
      "terraza": true,
      "musica": null,
      "fuente": "openstreetmap"
    },
    {
      "id": "osm_node_2772268693",
      "nombre": "Plaza de Alicante",
      "tipo": "bar",
      "lat": 37.6069521,
      "lon": -0.9738152,
      "direccion": null,
      "codigo_postal": null,
      "telefono": null,
      "web": null,
      "instagram": null,
      "horario": null,
      "terraza": false,
      "musica": null,
      "fuente": "openstreetmap"
    },
    {
      "id": "osm_node_2772268704",
      "nombre": "México",
      "tipo": "bar",
      "lat": 37.6051309,
      "lon": -0.9756331,
      "direccion": null,
      "codigo_postal": null,
      "telefono": null,
      "web": null,
      "instagram": null,
      "horario": null,
      "terraza": false,
      "musica": null,
      "fuente": "openstreetmap"
    },
    {
      "id": "osm_node_2772268710",
      "nombre": "Francis",
      "tipo": "cafe",
      "lat": 37.6068642,
      "lon": -0.9760876,
      "direccion": null,
      "codigo_postal": null,
      "telefono": null,
      "web": null,
      "instagram": null,
      "horario": null,
      "terraza": false,
      "musica": null,
      "fuente": "openstreetmap"
    },
    {
      "id": "osm_node_2772268718",
      "nombre": "D'Perico",
      "tipo": "cafe",
      "lat": 37.6065885,
      "lon": -0.9745252,
      "direccion": null,
      "codigo_postal": null,
      "telefono": null,
      "web": null,
      "instagram": null,
      "horario": null,
      "terraza": false,
      "musica": null,
      "fuente": "openstreetmap"
    },
    {
      "id": "osm_node_2775662276",
      "nombre": "D'Lio",
      "tipo": "bar",
      "lat": 37.601202,
      "lon": -0.9874309,
      "direccion": "Calle Villamartín 9",
      "codigo_postal": "30201",
      "telefono": null,
      "web": null,
      "instagram": null,
      "horario": null,
      "terraza": false,
      "musica": null,
      "fuente": "openstreetmap"
    },
    {
      "id": "osm_node_2776193352",
      "nombre": "El Candil",
      "tipo": "cafe",
      "lat": 37.6104586,
      "lon": -0.9938348,
      "direccion": null,
      "codigo_postal": null,
      "telefono": null,
      "web": null,
      "instagram": null,
      "horario": null,
      "terraza": false,
      "musica": null,
      "fuente": "openstreetmap"
    },
    {
      "id": "osm_node_2776193355",
      "nombre": "El Rincón Del Perlita",
      "tipo": "bar",
      "lat": 37.6019198,
      "lon": -0.9847265,
      "direccion": "Calle Honda 29",
      "codigo_postal": "30201",
      "telefono": null,
      "web": null,
      "instagram": null,
      "horario": null,
      "terraza": true,
      "musica": null,
      "fuente": "openstreetmap"
    },
    {
      "id": "osm_node_2776193359",
      "nombre": "Kiosco Bar Fénix",
      "tipo": "bar",
      "lat": 37.6013014,
      "lon": -0.9847077,
      "direccion": null,
      "codigo_postal": null,
      "telefono": null,
      "web": null,
      "instagram": null,
      "horario": null,
      "terraza": false,
      "musica": null,
      "fuente": "openstreetmap"
    },
    {
      "id": "osm_node_2777129733",
      "nombre": "Granada",
      "tipo": "bar",
      "lat": 37.6088194,
      "lon": -0.9834444,
      "direccion": null,
      "codigo_postal": null,
      "telefono": null,
      "web": null,
      "instagram": null,
      "horario": null,
      "terraza": true,
      "musica": null,
      "fuente": "openstreetmap"
    },
    {
      "id": "osm_node_2777129734",
      "nombre": "Reina Victoria",
      "tipo": "bar",
      "lat": 37.609766,
      "lon": -0.9853918,
      "direccion": null,
      "codigo_postal": null,
      "telefono": null,
      "web": null,
      "instagram": null,
      "horario": null,
      "terraza": false,
      "musica": null,
      "fuente": "openstreetmap"
    },
    {
      "id": "osm_node_2777129735",
      "nombre": "Maype II",
      "tipo": "bar",
      "lat": 37.6086951,
      "lon": -0.9817199,
      "direccion": null,
      "codigo_postal": null,
      "telefono": null,
      "web": null,
      "instagram": null,
      "horario": null,
      "terraza": true,
      "musica": null,
      "fuente": "openstreetmap"
    },
    {
      "id": "osm_node_2777129736",
      "nombre": "Tapería Mítico",
      "tipo": "cafe",
      "lat": 37.6099168,
      "lon": -0.9794319,
      "direccion": null,
      "codigo_postal": null,
      "telefono": null,
      "web": null,
      "instagram": null,
      "horario": null,
      "terraza": true,
      "musica": null,
      "fuente": "openstreetmap"
    },
    {
      "id": "osm_node_2777129737",
      "nombre": "Vinilo",
      "tipo": "cafe",
      "lat": 37.6094919,
      "lon": -0.9849454,
      "direccion": null,
      "codigo_postal": null,
      "telefono": null,
      "web": null,
      "instagram": null,
      "horario": null,
      "terraza": false,
      "musica": null,
      "fuente": "openstreetmap"
    },
    {
      "id": "osm_node_2777129739",
      "nombre": "Molina",
      "tipo": "cafe",
      "lat": 37.6095492,
      "lon": -0.9849653,
      "direccion": null,
      "codigo_postal": null,
      "telefono": null,
      "web": null,
      "instagram": null,
      "horario": null,
      "terraza": false,
      "musica": null,
      "fuente": "openstreetmap"
    },
    {
      "id": "osm_node_2777234251",
      "nombre": "Caipirinha",
      "tipo": "bar",
      "lat": 37.6158585,
      "lon": -0.9895707,
      "direccion": null,
      "codigo_postal": null,
      "telefono": null,
      "web": null,
      "instagram": null,
      "horario": null,
      "terraza": false,
      "musica": null,
      "fuente": "openstreetmap"
    },
    {
      "id": "osm_node_2777935750",
      "nombre": "Duo",
      "tipo": "cafe",
      "lat": 37.605117,
      "lon": -0.9868404,
      "direccion": null,
      "codigo_postal": null,
      "telefono": null,
      "web": null,
      "instagram": null,
      "horario": null,
      "terraza": true,
      "musica": null,
      "fuente": "openstreetmap"
    },
    {
      "id": "osm_node_2777935778",
      "nombre": "Yellow Submarine",
      "tipo": "bar",
      "lat": 37.5992996,
      "lon": -0.9855984,
      "direccion": "Plaza del Ayuntamiento 2",
      "codigo_postal": null,
      "telefono": null,
      "web": null,
      "instagram": null,
      "horario": null,
      "terraza": false,
      "musica": null,
      "fuente": "openstreetmap"
    },
    {
      "id": "osm_node_2777935787",
      "nombre": "El Lingote",
      "tipo": "bar",
      "lat": 37.6005203,
      "lon": -0.9859711,
      "direccion": null,
      "codigo_postal": null,
      "telefono": null,
      "web": null,
      "instagram": null,
      "horario": null,
      "terraza": false,
      "musica": null,
      "fuente": "openstreetmap"
    },
    {
      "id": "osm_node_2777935797",
      "nombre": "Parlamento Andaluz",
      "tipo": "bar",
      "lat": 37.6029513,
      "lon": -0.9883318,
      "direccion": "Calle Jabonerías 3",
      "codigo_postal": "30201",
      "telefono": null,
      "web": null,
      "instagram": null,
      "horario": null,
      "terraza": true,
      "musica": null,
      "fuente": "openstreetmap"
    },
    {
      "id": "osm_node_2777935828",
      "nombre": "El Rincón del Negro",
      "tipo": "bar",
      "lat": 37.6050681,
      "lon": -0.9865588,
      "direccion": null,
      "codigo_postal": null,
      "telefono": null,
      "web": null,
      "instagram": null,
      "horario": null,
      "terraza": true,
      "musica": null,
      "fuente": "openstreetmap"
    },
    {
      "id": "osm_node_2777935855",
      "nombre": "Kuss",
      "tipo": "cafe",
      "lat": 37.6032652,
      "lon": -0.9882635,
      "direccion": null,
      "codigo_postal": null,
      "telefono": null,
      "web": null,
      "instagram": null,
      "horario": null,
      "terraza": true,
      "musica": null,
      "fuente": "openstreetmap"
    },
    {
      "id": "osm_node_2777935870",
      "nombre": "Timber",
      "tipo": "bar",
      "lat": 37.6013966,
      "lon": -0.9851833,
      "direccion": "Calle Jara 18",
      "codigo_postal": "30201",
      "telefono": "+34 968 92 38 82",
      "web": null,
      "instagram": null,
      "horario": null,
      "terraza": false,
      "musica": null,
      "fuente": "openstreetmap"
    },
    {
      "id": "osm_node_2777935898",
      "nombre": "De Pinchos Pardos",
      "tipo": "bar",
      "lat": 37.6115489,
      "lon": -0.9935781,
      "direccion": null,
      "codigo_postal": null,
      "telefono": null,
      "web": null,
      "instagram": null,
      "horario": null,
      "terraza": false,
      "musica": null,
      "fuente": "openstreetmap"
    },
    {
      "id": "osm_node_2778288444",
      "nombre": "Submarino",
      "tipo": "bar",
      "lat": 37.6175707,
      "lon": -0.9890138,
      "direccion": null,
      "codigo_postal": null,
      "telefono": null,
      "web": null,
      "instagram": null,
      "horario": null,
      "terraza": false,
      "musica": null,
      "fuente": "openstreetmap"
    },
    {
      "id": "osm_node_2778288459",
      "nombre": "Bodega Manchega",
      "tipo": "bar",
      "lat": 37.6239335,
      "lon": -0.9840651,
      "direccion": null,
      "codigo_postal": null,
      "telefono": null,
      "web": null,
      "instagram": null,
      "horario": null,
      "terraza": false,
      "musica": null,
      "fuente": "openstreetmap"
    },
    {
      "id": "osm_node_2778288464",
      "nombre": "Colorao 15",
      "tipo": "bar",
      "lat": 37.6239633,
      "lon": -0.9835635,
      "direccion": null,
      "codigo_postal": null,
      "telefono": null,
      "web": null,
      "instagram": null,
      "horario": null,
      "terraza": false,
      "musica": null,
      "fuente": "openstreetmap"
    },
    {
      "id": "osm_node_2778288472",
      "nombre": "Layre",
      "tipo": "cafe",
      "lat": 37.6281652,
      "lon": -0.9835552,
      "direccion": null,
      "codigo_postal": null,
      "telefono": null,
      "web": null,
      "instagram": null,
      "horario": null,
      "terraza": false,
      "musica": null,
      "fuente": "openstreetmap"
    },
    {
      "id": "osm_node_2778288505",
      "nombre": "Zona Nueva",
      "tipo": "cafe",
      "lat": 37.6261301,
      "lon": -0.983287,
      "direccion": null,
      "codigo_postal": null,
      "telefono": null,
      "web": null,
      "instagram": null,
      "horario": null,
      "terraza": false,
      "musica": null,
      "fuente": "openstreetmap"
    },
    {
      "id": "osm_node_2778288513",
      "nombre": "Lapuerta",
      "tipo": "cafe",
      "lat": 37.6242479,
      "lon": -0.9831209,
      "direccion": null,
      "codigo_postal": null,
      "telefono": null,
      "web": null,
      "instagram": null,
      "horario": null,
      "terraza": false,
      "musica": null,
      "fuente": "openstreetmap"
    },
    {
      "id": "osm_node_2778288517",
      "nombre": "5mentarios",
      "tipo": "bar",
      "lat": 37.6241545,
      "lon": -0.9834643,
      "direccion": null,
      "codigo_postal": null,
      "telefono": null,
      "web": null,
      "instagram": null,
      "horario": null,
      "terraza": false,
      "musica": null,
      "fuente": "openstreetmap"
    },
    {
      "id": "osm_node_2778288524",
      "nombre": "Génesis",
      "tipo": "bar",
      "lat": 37.6209041,
      "lon": -0.9886892,
      "direccion": null,
      "codigo_postal": null,
      "telefono": null,
      "web": null,
      "instagram": null,
      "horario": null,
      "terraza": false,
      "musica": null,
      "fuente": "openstreetmap"
    },
    {
      "id": "osm_node_2778288528",
      "nombre": "Bruselas",
      "tipo": "bar",
      "lat": 37.6264997,
      "lon": -0.9833355,
      "direccion": null,
      "codigo_postal": null,
      "telefono": null,
      "web": null,
      "instagram": null,
      "horario": null,
      "terraza": false,
      "musica": null,
      "fuente": "openstreetmap"
    },
    {
      "id": "osm_node_2778288538",
      "nombre": "La Uva",
      "tipo": "bar",
      "lat": 37.6255098,
      "lon": -0.989164,
      "direccion": null,
      "codigo_postal": null,
      "telefono": null,
      "web": null,
      "instagram": null,
      "horario": null,
      "terraza": false,
      "musica": null,
      "fuente": "openstreetmap"
    },
    {
      "id": "osm_node_2778288547",
      "nombre": "San Félix",
      "tipo": "bar",
      "lat": 37.6294737,
      "lon": -0.9879328,
      "direccion": null,
      "codigo_postal": null,
      "telefono": null,
      "web": null,
      "instagram": null,
      "horario": null,
      "terraza": false,
      "musica": null,
      "fuente": "openstreetmap"
    },
    {
      "id": "osm_node_2785220122",
      "nombre": "Casa Pepe",
      "tipo": "bar",
      "lat": 37.6204867,
      "lon": -0.995279,
      "direccion": null,
      "codigo_postal": null,
      "telefono": null,
      "web": null,
      "instagram": null,
      "horario": null,
      "terraza": false,
      "musica": null,
      "fuente": "openstreetmap"
    },
    {
      "id": "osm_node_2785220124",
      "nombre": "Cafetería Golden Play",
      "tipo": "bar",
      "lat": 37.6201477,
      "lon": -0.9950418,
      "direccion": null,
      "codigo_postal": null,
      "telefono": null,
      "web": null,
      "instagram": null,
      "horario": null,
      "terraza": false,
      "musica": null,
      "fuente": "openstreetmap"
    },
    {
      "id": "osm_node_2785354259",
      "nombre": "El Monumento",
      "tipo": "bar",
      "lat": 37.6149671,
      "lon": -0.9699974,
      "direccion": null,
      "codigo_postal": null,
      "telefono": null,
      "web": null,
      "instagram": null,
      "horario": null,
      "terraza": false,
      "musica": null,
      "fuente": "openstreetmap"
    },
    {
      "id": "osm_node_2786263889",
      "nombre": "Pórtico Romano",
      "tipo": "bar",
      "lat": 37.6004428,
      "lon": -0.9842415,
      "direccion": null,
      "codigo_postal": null,
      "telefono": null,
      "web": null,
      "instagram": null,
      "horario": null,
      "terraza": false,
      "musica": null,
      "fuente": "openstreetmap"
    },
    {
      "id": "osm_node_2787422281",
      "nombre": "Grease Café",
      "tipo": "cafe",
      "lat": 37.6189343,
      "lon": -1.0006691,
      "direccion": null,
      "codigo_postal": null,
      "telefono": null,
      "web": null,
      "instagram": null,
      "horario": null,
      "terraza": false,
      "musica": null,
      "fuente": "openstreetmap"
    },
    {
      "id": "osm_node_2787840281",
      "nombre": "Maype",
      "tipo": "cafe",
      "lat": 37.6106479,
      "lon": -0.9896355,
      "direccion": null,
      "codigo_postal": null,
      "telefono": null,
      "web": null,
      "instagram": null,
      "horario": null,
      "terraza": true,
      "musica": null,
      "fuente": "openstreetmap"
    },
    {
      "id": "osm_node_2795985330",
      "nombre": "PicaFresh",
      "tipo": "bar",
      "lat": 37.6068943,
      "lon": -0.9883657,
      "direccion": null,
      "codigo_postal": null,
      "telefono": null,
      "web": null,
      "instagram": null,
      "horario": null,
      "terraza": false,
      "musica": null,
      "fuente": "openstreetmap"
    },
    {
      "id": "osm_node_2800083430",
      "nombre": "La Bodeguilla",
      "tipo": "pub",
      "lat": 37.6015401,
      "lon": -0.9856578,
      "direccion": "Calle Jara 23",
      "codigo_postal": null,
      "telefono": null,
      "web": null,
      "instagram": null,
      "horario": null,
      "terraza": false,
      "musica": null,
      "fuente": "openstreetmap"
    },
    {
      "id": "osm_node_2811706291",
      "nombre": "Escuela de Calor",
      "tipo": "pub",
      "lat": 37.5997892,
      "lon": -0.9847976,
      "direccion": "Cuesta de la Baronesa 3",
      "codigo_postal": null,
      "telefono": null,
      "web": null,
      "instagram": null,
      "horario": null,
      "terraza": false,
      "musica": null,
      "fuente": "openstreetmap"
    },
    {
      "id": "osm_node_2811706292",
      "nombre": "Strasse",
      "tipo": "pub",
      "lat": 37.6010223,
      "lon": -0.9839819,
      "direccion": null,
      "codigo_postal": null,
      "telefono": null,
      "web": null,
      "instagram": null,
      "horario": null,
      "terraza": false,
      "musica": null,
      "fuente": "openstreetmap"
    },
    {
      "id": "osm_node_2817706527",
      "nombre": "La Morala",
      "tipo": "bar",
      "lat": 37.6270798,
      "lon": -0.9635127,
      "direccion": null,
      "codigo_postal": null,
      "telefono": null,
      "web": null,
      "instagram": null,
      "horario": null,
      "terraza": false,
      "musica": null,
      "fuente": "openstreetmap"
    },
    {
      "id": "osm_node_2817706528",
      "nombre": "Tasca Andaluza",
      "tipo": "bar",
      "lat": 37.6269693,
      "lon": -0.9630835,
      "direccion": null,
      "codigo_postal": null,
      "telefono": null,
      "web": null,
      "instagram": null,
      "horario": null,
      "terraza": false,
      "musica": null,
      "fuente": "openstreetmap"
    },
    {
      "id": "osm_node_2844596235",
      "nombre": "24Horas",
      "tipo": "cafe",
      "lat": 37.6070983,
      "lon": -0.9818435,
      "direccion": null,
      "codigo_postal": null,
      "telefono": null,
      "web": null,
      "instagram": null,
      "horario": "24/7",
      "terraza": true,
      "musica": null,
      "fuente": "openstreetmap"
    },
    {
      "id": "osm_node_2883805505",
      "nombre": "Las Buhardillas",
      "tipo": "cafe",
      "lat": 37.6282476,
      "lon": -0.9916864,
      "direccion": "Calle Fernán Caballero",
      "codigo_postal": null,
      "telefono": null,
      "web": null,
      "instagram": null,
      "horario": null,
      "terraza": false,
      "musica": null,
      "fuente": "openstreetmap"
    },
    {
      "id": "osm_node_2883817901",
      "nombre": "Camden Bar",
      "tipo": "bar",
      "lat": 37.616623,
      "lon": -0.9918419,
      "direccion": null,
      "codigo_postal": null,
      "telefono": null,
      "web": null,
      "instagram": null,
      "horario": null,
      "terraza": false,
      "musica": null,
      "fuente": "openstreetmap"
    },
    {
      "id": "osm_node_3018448901",
      "nombre": "Galactica",
      "tipo": "bar",
      "lat": 37.6503681,
      "lon": -0.7172994,
      "direccion": null,
      "codigo_postal": null,
      "telefono": null,
      "web": null,
      "instagram": null,
      "horario": null,
      "terraza": true,
      "musica": null,
      "fuente": "openstreetmap"
    },
    {
      "id": "osm_node_3018448903",
      "nombre": "Pedregal",
      "tipo": "cafe",
      "lat": 37.6501882,
      "lon": -0.7171505,
      "direccion": null,
      "codigo_postal": null,
      "telefono": null,
      "web": null,
      "instagram": null,
      "horario": null,
      "terraza": true,
      "musica": null,
      "fuente": "openstreetmap"
    },
    {
      "id": "osm_node_3046356755",
      "nombre": "Adoradores de Venus y Dioses del Olimpo",
      "tipo": "pub",
      "lat": 37.6112849,
      "lon": -0.9976963,
      "direccion": null,
      "codigo_postal": null,
      "telefono": null,
      "web": null,
      "instagram": null,
      "horario": "Sep: Fr[3]-Su[-1]",
      "terraza": false,
      "musica": null,
      "fuente": "openstreetmap"
    },
    {
      "id": "osm_node_3046356756",
      "nombre": "Triunviros de Carthagonova",
      "tipo": "pub",
      "lat": 37.6111937,
      "lon": -0.9976394,
      "direccion": null,
      "codigo_postal": null,
      "telefono": null,
      "web": null,
      "instagram": null,
      "horario": "Sep: Fr[3]-Su[-1]",
      "terraza": false,
      "musica": null,
      "fuente": "openstreetmap"
    },
    {
      "id": "osm_node_3046356757",
      "nombre": "Marte y Minerva",
      "tipo": "pub",
      "lat": 37.6117108,
      "lon": -0.9979622,
      "direccion": null,
      "codigo_postal": null,
      "telefono": null,
      "web": null,
      "instagram": null,
      "horario": "Sep: Fr[3]-Su[-1]",
      "terraza": false,
      "musica": null,
      "fuente": "openstreetmap"
    },
    {
      "id": "osm_node_3046356758",
      "nombre": "Pueblo de Massalia",
      "tipo": "pub",
      "lat": 37.6116035,
      "lon": -0.9978952,
      "direccion": null,
      "codigo_postal": null,
      "telefono": null,
      "web": null,
      "instagram": null,
      "horario": "Sep: Fr[3]-Su[-1]",
      "terraza": false,
      "musica": null,
      "fuente": "openstreetmap"
    },
    {
      "id": "osm_node_3046356760",
      "nombre": "Legión de Sagunto",
      "tipo": "pub",
      "lat": 37.6114301,
      "lon": -0.9977483,
      "direccion": null,
      "codigo_postal": null,
      "telefono": null,
      "web": null,
      "instagram": null,
      "horario": "Sep: Fr[3]-Su[-1]",
      "terraza": false,
      "musica": null,
      "fuente": "openstreetmap"
    },
    {
      "id": "osm_node_3046364273",
      "nombre": "Tropas de Baal Hammon",
      "tipo": "pub",
      "lat": 37.610897,
      "lon": -0.9987567,
      "direccion": null,
      "codigo_postal": null,
      "telefono": null,
      "web": null,
      "instagram": null,
      "horario": "Sep: Fr[3]-Su[-1]",
      "terraza": false,
      "musica": null,
      "fuente": "openstreetmap"
    },
    {
      "id": "osm_node_3046364274",
      "nombre": "Tropas de Aníbal",
      "tipo": "pub",
      "lat": 37.6110121,
      "lon": -0.9987928,
      "direccion": null,
      "codigo_postal": null,
      "telefono": null,
      "web": null,
      "instagram": null,
      "horario": "Sep: Fr[3]-Su[-1]",
      "terraza": false,
      "musica": null,
      "fuente": "openstreetmap"
    },
    {
      "id": "osm_node_3046364275",
      "nombre": "Quart Hadast",
      "tipo": "pub",
      "lat": 37.6107815,
      "lon": -0.9987203,
      "direccion": null,
      "codigo_postal": null,
      "telefono": null,
      "web": null,
      "instagram": null,
      "horario": "Sep: Fr[3]-Su[-1]",
      "terraza": false,
      "musica": null,
      "fuente": "openstreetmap"
    },
    {
      "id": "osm_node_3046364276",
      "nombre": "Guardia de Tanit",
      "tipo": "pub",
      "lat": 37.6113576,
      "lon": -0.9989016,
      "direccion": null,
      "codigo_postal": null,
      "telefono": null,
      "web": null,
      "instagram": null,
      "horario": "Sep: Fr[3]-Su[-1]",
      "terraza": false,
      "musica": null,
      "fuente": "openstreetmap"
    },
    {
      "id": "osm_node_3046364277",
      "nombre": "Tropa de Mastienos",
      "tipo": "pub",
      "lat": 37.6111261,
      "lon": -0.9988287,
      "direccion": null,
      "codigo_postal": null,
      "telefono": null,
      "web": null,
      "instagram": null,
      "horario": "Sep: Fr[3]-Su[-1]",
      "terraza": false,
      "musica": null,
      "fuente": "openstreetmap"
    },
    {
      "id": "osm_node_3046364278",
      "nombre": "Tropas de Hamilcar Barca",
      "tipo": "pub",
      "lat": 37.6112426,
      "lon": -0.9988654,
      "direccion": null,
      "codigo_postal": null,
      "telefono": null,
      "web": null,
      "instagram": null,
      "horario": "Sep: Fr[3]-Su[-1]",
      "terraza": false,
      "musica": null,
      "fuente": "openstreetmap"
    },
    {
      "id": "osm_node_3046367992",
      "nombre": "Guerreros de Uxama",
      "tipo": "pub",
      "lat": 37.6102726,
      "lon": -0.9982813,
      "direccion": null,
      "codigo_postal": null,
      "telefono": null,
      "web": null,
      "instagram": null,
      "horario": "Sep: Fr[3]-Su[-1]",
      "terraza": false,
      "musica": null,
      "fuente": "openstreetmap"
    },
    {
      "id": "osm_node_3046367993",
      "nombre": "Caballeros e Isis de Carthago",
      "tipo": "pub",
      "lat": 37.6101918,
      "lon": -0.9982055,
      "direccion": null,
      "codigo_postal": null,
      "telefono": null,
      "web": null,
      "instagram": null,
      "horario": "Sep: Fr[3]-Su[-1]",
      "terraza": false,
      "musica": null,
      "fuente": "openstreetmap"
    },
    {
      "id": "osm_node_3046367994",
      "nombre": "Conquistadores de Iberia",
      "tipo": "pub",
      "lat": 37.610094,
      "lon": -0.9981136,
      "direccion": null,
      "codigo_postal": null,
      "telefono": null,
      "web": null,
      "instagram": null,
      "horario": "Sep: Fr[3]-Su[-1]",
      "terraza": false,
      "musica": null,
      "fuente": "openstreetmap"
    },
    {
      "id": "osm_node_3046367996",
      "nombre": "Lanceros Hoplitas Libios",
      "tipo": "pub",
      "lat": 37.611748,
      "lon": -0.9986175,
      "direccion": null,
      "codigo_postal": null,
      "telefono": null,
      "web": null,
      "instagram": null,
      "horario": "Sep: Fr[3]-Su[-1]",
      "terraza": false,
      "musica": null,
      "fuente": "openstreetmap"
    },
    {
      "id": "osm_node_3046367997",
      "nombre": "Legio Vernácula",
      "tipo": "pub",
      "lat": 37.6117915,
      "lon": -0.9984893,
      "direccion": null,
      "codigo_postal": null,
      "telefono": null,
      "web": null,
      "instagram": null,
      "horario": "Sep: Fr[3]-Su[-1]",
      "terraza": false,
      "musica": null,
      "fuente": "openstreetmap"
    },
    {
      "id": "osm_node_3046367998",
      "nombre": "Tropas de Tiro",
      "tipo": "pub",
      "lat": 37.6099975,
      "lon": -0.9980229,
      "direccion": null,
      "codigo_postal": null,
      "telefono": null,
      "web": null,
      "instagram": null,
      "horario": "Sep: Fr[3]-Su[-1]",
      "terraza": false,
      "musica": null,
      "fuente": "openstreetmap"
    },
    {
      "id": "osm_node_3046367999",
      "nombre": "Legión IV Quinto Trebelio",
      "tipo": "pub",
      "lat": 37.6118397,
      "lon": -0.9983475,
      "direccion": null,
      "codigo_postal": null,
      "telefono": null,
      "web": null,
      "instagram": null,
      "horario": "Sep: Fr[3]-Su[-1]",
      "terraza": false,
      "musica": null,
      "fuente": "openstreetmap"
    },
    {
      "id": "osm_node_3046368000",
      "nombre": "Navegantes de Bomilcar",
      "tipo": "pub",
      "lat": 37.6105617,
      "lon": -0.9985528,
      "direccion": null,
      "codigo_postal": null,
      "telefono": null,
      "web": null,
      "instagram": null,
      "horario": "Sep: Fr[3]-Su[-1]",
      "terraza": false,
      "musica": null,
      "fuente": "openstreetmap"
    },
    {
      "id": "osm_node_3046368001",
      "nombre": "Mercenarios de Lobetania",
      "tipo": "pub",
      "lat": 37.610469,
      "lon": -0.9984657,
      "direccion": null,
      "codigo_postal": null,
      "telefono": null,
      "web": null,
      "instagram": null,
      "horario": "Sep: Fr[3]-Su[-1]",
      "terraza": false,
      "musica": null,
      "fuente": "openstreetmap"
    },
    {
      "id": "osm_node_3046368002",
      "nombre": "Tropas de Himilcón",
      "tipo": "pub",
      "lat": 37.610366,
      "lon": -0.998369,
      "direccion": null,
      "codigo_postal": null,
      "telefono": null,
      "web": null,
      "instagram": null,
      "horario": "Sep: Fr[3]-Su[-1]",
      "terraza": false,
      "musica": null,
      "fuente": "openstreetmap"
    },
    {
      "id": "osm_node_3046372498",
      "nombre": "Legión XV Harpastum",
      "tipo": "pub",
      "lat": 37.6109655,
      "lon": -0.9975251,
      "direccion": null,
      "codigo_postal": null,
      "telefono": null,
      "web": null,
      "instagram": null,
      "horario": "Sep: Fr[3]-Su[-1]",
      "terraza": false,
      "musica": null,
      "fuente": "openstreetmap"
    },
    {
      "id": "osm_node_3046372499",
      "nombre": "Vigiles de Carthagonova",
      "tipo": "pub",
      "lat": 37.6103693,
      "lon": -0.9971298,
      "direccion": null,
      "codigo_postal": null,
      "telefono": null,
      "web": null,
      "instagram": null,
      "horario": "Sep: Fr[3]-Su[-1]",
      "terraza": false,
      "musica": null,
      "fuente": "openstreetmap"
    },
    {
      "id": "osm_node_3046372500",
      "nombre": "Fuerzas de Choque Extraordinario",
      "tipo": "pub",
      "lat": 37.6105668,
      "lon": -0.9972607,
      "direccion": null,
      "codigo_postal": null,
      "telefono": null,
      "web": null,
      "instagram": null,
      "horario": "Sep: Fr[3]-Su[-1]",
      "terraza": false,
      "musica": null,
      "fuente": "openstreetmap"
    },
    {
      "id": "osm_node_3046372501",
      "nombre": "Nova Carthago Espataria",
      "tipo": "pub",
      "lat": 37.6106576,
      "lon": -0.9973209,
      "direccion": null,
      "codigo_postal": null,
      "telefono": null,
      "web": null,
      "instagram": null,
      "horario": "Sep: Fr[3]-Su[-1]",
      "terraza": false,
      "musica": null,
      "fuente": "openstreetmap"
    },
    {
      "id": "osm_node_3046372502",
      "nombre": "Guardia Pretoriana",
      "tipo": "pub",
      "lat": 37.6107594,
      "lon": -0.9973884,
      "direccion": null,
      "codigo_postal": null,
      "telefono": null,
      "web": null,
      "instagram": null,
      "horario": "Sep: Fr[3]-Su[-1]",
      "terraza": false,
      "musica": null,
      "fuente": "openstreetmap"
    },
    {
      "id": "osm_node_3046372503",
      "nombre": "Rehenes de Carthago",
      "tipo": "pub",
      "lat": 37.6108721,
      "lon": -0.9974632,
      "direccion": null,
      "codigo_postal": null,
      "telefono": null,
      "web": null,
      "instagram": null,
      "horario": "Sep: Fr[3]-Su[-1]",
      "terraza": false,
      "musica": null,
      "fuente": "openstreetmap"
    },
    {
      "id": "osm_node_3046372504",
      "nombre": "Legión de Escipión",
      "tipo": "pub",
      "lat": 37.6104526,
      "lon": -0.997185,
      "direccion": null,
      "codigo_postal": null,
      "telefono": null,
      "web": null,
      "instagram": null,
      "horario": "Sep: Fr[3]-Su[-1]",
      "terraza": false,
      "musica": null,
      "fuente": "openstreetmap"
    },
    {
      "id": "osm_node_3046377373",
      "nombre": "Mercenarios Celtas",
      "tipo": "pub",
      "lat": 37.6106578,
      "lon": -0.9980215,
      "direccion": null,
      "codigo_postal": null,
      "telefono": null,
      "web": null,
      "instagram": null,
      "horario": "Sep: Fr[3]-Su[-1]",
      "terraza": false,
      "musica": null,
      "fuente": "openstreetmap"
    },
    {
      "id": "osm_node_3046377374",
      "nombre": "Reino de Tartesos",
      "tipo": "pub",
      "lat": 37.6105534,
      "lon": -0.9979607,
      "direccion": null,
      "codigo_postal": null,
      "telefono": null,
      "web": null,
      "instagram": null,
      "horario": "Sep: Fr[3]-Su[-1]",
      "terraza": false,
      "musica": null,
      "fuente": "openstreetmap"
    },
    {
      "id": "osm_node_3046377375",
      "nombre": "Legión Universitas",
      "tipo": "pub",
      "lat": 37.6106175,
      "lon": -0.9977454,
      "direccion": null,
      "codigo_postal": null,
      "telefono": null,
      "web": null,
      "instagram": null,
      "horario": "Sep: Fr[3]-Su[-1]",
      "terraza": false,
      "musica": null,
      "fuente": "openstreetmap"
    },
    {
      "id": "osm_node_3046377376",
      "nombre": "Legión Cayo Lelio",
      "tipo": "pub",
      "lat": 37.6107354,
      "lon": -0.9978149,
      "direccion": null,
      "codigo_postal": null,
      "telefono": null,
      "web": null,
      "instagram": null,
      "horario": "Sep: Fr[3]-Su[-1]",
      "terraza": false,
      "musica": null,
      "fuente": "openstreetmap"
    },
    {
      "id": "osm_node_3046377377",
      "nombre": "Ara Pacis",
      "tipo": "pub",
      "lat": 37.6105189,
      "lon": -0.9976892,
      "direccion": null,
      "codigo_postal": null,
      "telefono": null,
      "web": null,
      "instagram": null,
      "horario": "Sep: Fr[3]-Su[-1]",
      "terraza": false,
      "musica": null,
      "fuente": "openstreetmap"
    },
    {
      "id": "osm_node_3046377378",
      "nombre": "Tropas de Adherbal",
      "tipo": "pub",
      "lat": 37.6104528,
      "lon": -0.9979038,
      "direccion": null,
      "codigo_postal": null,
      "telefono": null,
      "web": null,
      "instagram": null,
      "horario": "Sep: Fr[3]-Su[-1]",
      "terraza": false,
      "musica": null,
      "fuente": "openstreetmap"
    },
    {
      "id": "osm_node_3046377379",
      "nombre": "Príncipes de Mastia",
      "tipo": "pub",
      "lat": 37.6103334,
      "lon": -0.997838,
      "direccion": null,
      "codigo_postal": null,
      "telefono": null,
      "web": null,
      "instagram": null,
      "horario": "Sep: Fr[3]-Su[-1]",
      "terraza": false,
      "musica": null,
      "fuente": "openstreetmap"
    },
    {
      "id": "osm_node_3046377380",
      "nombre": "Senadores Patricios de Roma",
      "tipo": "pub",
      "lat": 37.6104064,
      "lon": -0.9976271,
      "direccion": null,
      "codigo_postal": null,
      "telefono": null,
      "web": null,
      "instagram": null,
      "horario": "Sep: Fr[3]-Su[-1]",
      "terraza": false,
      "musica": null,
      "fuente": "openstreetmap"
    },
    {
      "id": "osm_node_3046377381",
      "nombre": "Tropas de Asdrúbal",
      "tipo": "pub",
      "lat": 37.610758,
      "lon": -0.9980814,
      "direccion": null,
      "codigo_postal": null,
      "telefono": null,
      "web": null,
      "instagram": null,
      "horario": "Sep: Fr[3]-Su[-1]",
      "terraza": false,
      "musica": null,
      "fuente": "openstreetmap"
    },
    {
      "id": "osm_node_3046377382",
      "nombre": "Collegium Consulum Imperatorium",
      "tipo": "pub",
      "lat": 37.6108358,
      "lon": -0.9978758,
      "direccion": null,
      "codigo_postal": null,
      "telefono": null,
      "web": null,
      "instagram": null,
      "horario": "Sep: Fr[3]-Su[-1]",
      "terraza": false,
      "musica": null,
      "fuente": "openstreetmap"
    },
    {
      "id": "osm_node_3046379795",
      "nombre": "Magistrados de Roma",
      "tipo": "pub",
      "lat": 37.6111506,
      "lon": -0.9980772,
      "direccion": null,
      "codigo_postal": null,
      "telefono": null,
      "web": null,
      "instagram": null,
      "horario": "Sep: Fr[3]-Su[-1]",
      "terraza": false,
      "musica": null,
      "fuente": "openstreetmap"
    },
    {
      "id": "osm_node_3046379796",
      "nombre": "Mercenarios Iberos",
      "tipo": "pub",
      "lat": 37.6113987,
      "lon": -0.99847,
      "direccion": null,
      "codigo_postal": null,
      "telefono": null,
      "web": null,
      "instagram": null,
      "horario": "Sep: Fr[3]-Su[-1]",
      "terraza": false,
      "musica": null,
      "fuente": "openstreetmap"
    },
    {
      "id": "osm_node_3046379797",
      "nombre": "Tropas de Magón",
      "tipo": "pub",
      "lat": 37.6112756,
      "lon": -0.9983991,
      "direccion": null,
      "codigo_postal": null,
      "telefono": null,
      "web": null,
      "instagram": null,
      "horario": "Sep: Fr[3]-Su[-1]",
      "terraza": false,
      "musica": null,
      "fuente": "openstreetmap"
    },
    {
      "id": "osm_node_3046379798",
      "nombre": "Honderos Baleares",
      "tipo": "pub",
      "lat": 37.6110752,
      "lon": -0.9982883,
      "direccion": null,
      "codigo_postal": null,
      "telefono": null,
      "web": null,
      "instagram": null,
      "horario": "Sep: Fr[3]-Su[-1]",
      "terraza": false,
      "musica": null,
      "fuente": "openstreetmap"
    },
    {
      "id": "osm_node_3046379799",
      "nombre": "Ilergetes de Indibil",
      "tipo": "pub",
      "lat": 37.6109763,
      "lon": -0.9982359,
      "direccion": null,
      "codigo_postal": null,
      "telefono": null,
      "web": null,
      "instagram": null,
      "horario": "Sep: Fr[3]-Su[-1]",
      "terraza": false,
      "musica": null,
      "fuente": "openstreetmap"
    },
    {
      "id": "osm_node_3046379800",
      "nombre": "Cinco Colinas",
      "tipo": "pub",
      "lat": 37.6111806,
      "lon": -0.9983458,
      "direccion": null,
      "codigo_postal": null,
      "telefono": null,
      "web": null,
      "instagram": null,
      "horario": "Sep: Fr[3]-Su[-1]",
      "terraza": false,
      "musica": null,
      "fuente": "openstreetmap"
    },
    {
      "id": "osm_node_3046379801",
      "nombre": "Amazonas de Capadocia",
      "tipo": "pub",
      "lat": 37.6110472,
      "lon": -0.9980224,
      "direccion": null,
      "codigo_postal": null,
      "telefono": null,
      "web": null,
      "instagram": null,
      "horario": "Sep: Fr[3]-Su[-1]",
      "terraza": false,
      "musica": null,
      "fuente": "openstreetmap"
    },
    {
      "id": "osm_node_3046379802",
      "nombre": "Gens Numisius",
      "tipo": "pub",
      "lat": 37.6114747,
      "lon": -0.9982575,
      "direccion": null,
      "codigo_postal": null,
      "telefono": null,
      "web": null,
      "instagram": null,
      "horario": "Sep: Fr[3]-Su[-1]",
      "terraza": false,
      "musica": null,
      "fuente": "openstreetmap"
    },
    {
      "id": "osm_node_3046379803",
      "nombre": "Legión III",
      "tipo": "pub",
      "lat": 37.6113688,
      "lon": -0.9981976,
      "direccion": null,
      "codigo_postal": null,
      "telefono": null,
      "web": null,
      "instagram": null,
      "horario": "Sep: Fr[3]-Su[-1]",
      "terraza": false,
      "musica": null,
      "fuente": "openstreetmap"
    },
    {
      "id": "osm_node_3054972414",
      "nombre": "Baraka",
      "tipo": "pub",
      "lat": 37.6909493,
      "lon": -1.0698701,
      "direccion": "Calle Retiro",
      "codigo_postal": "30390",
      "telefono": null,
      "web": null,
      "instagram": null,
      "horario": null,
      "terraza": false,
      "musica": null,
      "fuente": "openstreetmap"
    },
    {
      "id": "osm_node_3055006352",
      "nombre": "Sala Azul",
      "tipo": "cafe",
      "lat": 37.6889062,
      "lon": -1.0666348,
      "direccion": "Calle Camino 28",
      "codigo_postal": "30390",
      "telefono": null,
      "web": null,
      "instagram": null,
      "horario": null,
      "terraza": false,
      "musica": null,
      "fuente": "openstreetmap"
    },
    {
      "id": "osm_node_3055247902",
      "nombre": "Bar Central",
      "tipo": "bar",
      "lat": 37.6911966,
      "lon": -1.0708805,
      "direccion": "Calle Antonio Pascual",
      "codigo_postal": "30390",
      "telefono": null,
      "web": null,
      "instagram": null,
      "horario": null,
      "terraza": false,
      "musica": null,
      "fuente": "openstreetmap"
    },
    {
      "id": "osm_node_3060590296",
      "nombre": "Exágono",
      "tipo": "cafe",
      "lat": 37.6421587,
      "lon": -0.712712,
      "direccion": "Calle Entremares",
      "codigo_postal": null,
      "telefono": "+34 968563174",
      "web": null,
      "instagram": null,
      "horario": "Mo-Su 08:00-12:00",
      "terraza": false,
      "musica": null,
      "fuente": "openstreetmap"
    },
    {
      "id": "osm_node_3350497700",
      "nombre": "Cafélab Carmen Conde",
      "tipo": "cafe",
      "lat": 37.6135036,
      "lon": -0.990881,
      "direccion": null,
      "codigo_postal": null,
      "telefono": "+34 968 94 24 36",
      "web": "https://carta.cafelab.es/carta",
      "instagram": null,
      "horario": "09:00-21:00",
      "terraza": true,
      "musica": null,
      "fuente": "openstreetmap"
    },
    {
      "id": "osm_node_3350597015",
      "nombre": "Monkey Camden V",
      "tipo": "cafe",
      "lat": 37.6117365,
      "lon": -0.9886189,
      "direccion": null,
      "codigo_postal": null,
      "telefono": null,
      "web": null,
      "instagram": null,
      "horario": null,
      "terraza": false,
      "musica": null,
      "fuente": "openstreetmap"
    },
    {
      "id": "osm_node_3350597016",
      "nombre": "Donde siempre",
      "tipo": "pub",
      "lat": 37.612415,
      "lon": -0.9884431,
      "direccion": null,
      "codigo_postal": null,
      "telefono": null,
      "web": null,
      "instagram": null,
      "horario": null,
      "terraza": false,
      "musica": null,
      "fuente": "openstreetmap"
    },
    {
      "id": "osm_node_3353228615",
      "nombre": "Route 66",
      "tipo": "bar",
      "lat": 37.6135205,
      "lon": -0.9925759,
      "direccion": null,
      "codigo_postal": null,
      "telefono": null,
      "web": null,
      "instagram": null,
      "horario": null,
      "terraza": false,
      "musica": null,
      "fuente": "openstreetmap"
    },
    {
      "id": "osm_node_3354193427",
      "nombre": "Galería",
      "tipo": "cafe",
      "lat": 37.6149635,
      "lon": -0.9925144,
      "direccion": null,
      "codigo_postal": null,
      "telefono": null,
      "web": null,
      "instagram": null,
      "horario": null,
      "terraza": false,
      "musica": null,
      "fuente": "openstreetmap"
    },
    {
      "id": "osm_node_3377993614",
      "nombre": "Al Borak",
      "tipo": "bar",
      "lat": 37.604494,
      "lon": -0.9868726,
      "direccion": "Plaza Juan XXIII",
      "codigo_postal": null,
      "telefono": null,
      "web": "http://al-borak.blogspot.com.es/",
      "instagram": null,
      "horario": null,
      "terraza": false,
      "musica": null,
      "fuente": "openstreetmap"
    },
    {
      "id": "osm_node_3378083779",
      "nombre": "Nuestro Secreto",
      "tipo": "bar",
      "lat": 37.6018344,
      "lon": -0.9863533,
      "direccion": "Calle Honda 7",
      "codigo_postal": "30201",
      "telefono": null,
      "web": null,
      "instagram": null,
      "horario": null,
      "terraza": false,
      "musica": null,
      "fuente": "openstreetmap"
    },
    {
      "id": "osm_node_3378111939",
      "nombre": "El Palenque",
      "tipo": "pub",
      "lat": 37.601032,
      "lon": -0.9836491,
      "direccion": "Calle Cuatro Santos 23",
      "codigo_postal": null,
      "telefono": null,
      "web": null,
      "instagram": null,
      "horario": null,
      "terraza": false,
      "musica": null,
      "fuente": "openstreetmap"
    },
    {
      "id": "osm_node_3378111940",
      "nombre": "Cuatro Copas",
      "tipo": "bar",
      "lat": 37.6001991,
      "lon": -0.984671,
      "direccion": "Calle Cuatro Santos",
      "codigo_postal": null,
      "telefono": null,
      "web": null,
      "instagram": null,
      "horario": null,
      "terraza": false,
      "musica": null,
      "fuente": "openstreetmap"
    },
    {
      "id": "osm_node_3437350187",
      "nombre": "La Posada",
      "tipo": "pub",
      "lat": 37.6001932,
      "lon": -0.9852704,
      "direccion": "Calle del Aire 11",
      "codigo_postal": null,
      "telefono": null,
      "web": null,
      "instagram": null,
      "horario": null,
      "terraza": false,
      "musica": null,
      "fuente": "openstreetmap"
    },
    {
      "id": "osm_node_3437350188",
      "nombre": "The Chaplin Meeting Club",
      "tipo": "pub",
      "lat": 37.6000854,
      "lon": -0.9850413,
      "direccion": "Calle Cuatro Santos 1",
      "codigo_postal": null,
      "telefono": null,
      "web": null,
      "instagram": null,
      "horario": null,
      "terraza": false,
      "musica": null,
      "fuente": "openstreetmap"
    },
    {
      "id": "osm_node_3437350189",
      "nombre": "Tropical",
      "tipo": "pub",
      "lat": 37.5998793,
      "lon": -0.9850038,
      "direccion": null,
      "codigo_postal": null,
      "telefono": null,
      "web": null,
      "instagram": null,
      "horario": null,
      "terraza": false,
      "musica": null,
      "fuente": "openstreetmap"
    },
    {
      "id": "osm_node_3437350190",
      "nombre": "The Super Bar",
      "tipo": "pub",
      "lat": 37.599603,
      "lon": -0.9855013,
      "direccion": "Calle del Cañón 3",
      "codigo_postal": null,
      "telefono": null,
      "web": null,
      "instagram": null,
      "horario": null,
      "terraza": true,
      "musica": null,
      "fuente": "openstreetmap"
    },
    {
      "id": "osm_node_3437365515",
      "nombre": "La Fortaleza",
      "tipo": "bar",
      "lat": 37.5996784,
      "lon": -0.9853498,
      "direccion": "Calle del Cañón 7",
      "codigo_postal": null,
      "telefono": null,
      "web": null,
      "instagram": null,
      "horario": null,
      "terraza": false,
      "musica": null,
      "fuente": "openstreetmap"
    },
    {
      "id": "osm_node_3670623244",
      "nombre": "Bar Correos",
      "tipo": "bar",
      "lat": 37.6027693,
      "lon": -0.9831111,
      "direccion": null,
      "codigo_postal": null,
      "telefono": null,
      "web": null,
      "instagram": null,
      "horario": null,
      "terraza": false,
      "musica": null,
      "fuente": "openstreetmap"
    },
    {
      "id": "osm_node_3670623249",
      "nombre": "El Parque",
      "tipo": "bar",
      "lat": 37.6058446,
      "lon": -0.9775175,
      "direccion": "Calle Capitanes Ripoll 12",
      "codigo_postal": null,
      "telefono": "+34 968 52 10 54",
      "web": null,
      "instagram": null,
      "horario": null,
      "terraza": true,
      "musica": null,
      "fuente": "openstreetmap"
    },
    {
      "id": "osm_node_3670661570",
      "nombre": "El Café",
      "tipo": "cafe",
      "lat": 37.6066314,
      "lon": -0.9841837,
      "direccion": "Paseo de Alfonso XIII",
      "codigo_postal": null,
      "telefono": null,
      "web": null,
      "instagram": null,
      "horario": null,
      "terraza": true,
      "musica": null,
      "fuente": "openstreetmap"
    },
    {
      "id": "osm_node_3670661574",
      "nombre": "Alfonso XIII",
      "tipo": "cafe",
      "lat": 37.6065367,
      "lon": -0.9860688,
      "direccion": "Paseo de Alfonso XIII",
      "codigo_postal": null,
      "telefono": null,
      "web": null,
      "instagram": null,
      "horario": null,
      "terraza": true,
      "musica": null,
      "fuente": "openstreetmap"
    },
    {
      "id": "osm_node_3670661577",
      "nombre": "Pans & Cake",
      "tipo": "cafe",
      "lat": 37.6029325,
      "lon": -0.9895092,
      "direccion": "Calle Real 46",
      "codigo_postal": "30201",
      "telefono": null,
      "web": null,
      "instagram": null,
      "horario": null,
      "terraza": false,
      "musica": null,
      "fuente": "openstreetmap"
    },
    {
      "id": "osm_node_3670703979",
      "nombre": "El Soldadito de Plomo",
      "tipo": "bar",
      "lat": 37.599378,
      "lon": -0.9850835,
      "direccion": null,
      "codigo_postal": null,
      "telefono": null,
      "web": null,
      "instagram": null,
      "horario": null,
      "terraza": false,
      "musica": null,
      "fuente": "openstreetmap"
    },
    {
      "id": "osm_node_3670703980",
      "nombre": "La Marinera",
      "tipo": "bar",
      "lat": 37.5995277,
      "lon": -0.9856208,
      "direccion": "Calle del Cañón 1",
      "codigo_postal": "30201",
      "telefono": null,
      "web": null,
      "instagram": null,
      "horario": null,
      "terraza": true,
      "musica": null,
      "fuente": "openstreetmap"
    },
    {
      "id": "osm_node_3672055933",
      "nombre": "Cafés Cavite",
      "tipo": "cafe",
      "lat": 37.6040114,
      "lon": -0.987259,
      "direccion": "Calle Santa Florentina",
      "codigo_postal": null,
      "telefono": null,
      "web": "http://www.cafescavite.es/",
      "instagram": null,
      "horario": null,
      "terraza": false,
      "musica": null,
      "fuente": "openstreetmap"
    },
    {
      "id": "osm_node_3673412341",
      "nombre": "Ramón",
      "tipo": "cafe",
      "lat": 37.6040911,
      "lon": -0.9864913,
      "direccion": "Calle San Fernando",
      "codigo_postal": "30201",
      "telefono": null,
      "web": null,
      "instagram": null,
      "horario": null,
      "terraza": false,
      "musica": null,
      "fuente": "openstreetmap"
    },
    {
      "id": "osm_node_3673412342",
      "nombre": "El Vinagrillo",
      "tipo": "bar",
      "lat": 37.6045728,
      "lon": -0.988198,
      "direccion": "Calle Canales 20",
      "codigo_postal": null,
      "telefono": "+34 661 25 30 44",
      "web": null,
      "instagram": null,
      "horario": null,
      "terraza": false,
      "musica": null,
      "fuente": "openstreetmap"
    },
    {
      "id": "osm_node_3673412343",
      "nombre": "Cassata",
      "tipo": "cafe",
      "lat": 37.6038184,
      "lon": -0.9902267,
      "direccion": "Calle Jabonerias 51",
      "codigo_postal": "30201",
      "telefono": null,
      "web": null,
      "instagram": null,
      "horario": null,
      "terraza": false,
      "musica": null,
      "fuente": "openstreetmap"
    },
    {
      "id": "osm_node_3673417002",
      "nombre": "La chocolatería",
      "tipo": "cafe",
      "lat": 37.5992306,
      "lon": -0.9855628,
      "direccion": "Plaza del Ayuntamiento 3",
      "codigo_postal": "30202",
      "telefono": null,
      "web": null,
      "instagram": null,
      "horario": null,
      "terraza": true,
      "musica": null,
      "fuente": "openstreetmap"
    },
    {
      "id": "osm_node_3697078744",
      "nombre": "Jamaica",
      "tipo": "cafe",
      "lat": 37.6257991,
      "lon": -0.9491036,
      "direccion": null,
      "codigo_postal": null,
      "telefono": null,
      "web": null,
      "instagram": null,
      "horario": null,
      "terraza": false,
      "musica": null,
      "fuente": "openstreetmap"
    },
    {
      "id": "osm_node_3697078745",
      "nombre": "Café Toscana",
      "tipo": "cafe",
      "lat": 37.6270015,
      "lon": -0.9492485,
      "direccion": null,
      "codigo_postal": null,
      "telefono": null,
      "web": null,
      "instagram": null,
      "horario": null,
      "terraza": false,
      "musica": null,
      "fuente": "openstreetmap"
    },
    {
      "id": "osm_node_3697078750",
      "nombre": "Bombon Boss",
      "tipo": "cafe",
      "lat": 37.6252128,
      "lon": -0.9481005,
      "direccion": null,
      "codigo_postal": null,
      "telefono": null,
      "web": null,
      "instagram": null,
      "horario": null,
      "terraza": false,
      "musica": null,
      "fuente": "openstreetmap"
    },
    {
      "id": "osm_node_3922173075",
      "nombre": "Coliseum",
      "tipo": "pub",
      "lat": 37.6003547,
      "lon": -0.9843682,
      "direccion": null,
      "codigo_postal": null,
      "telefono": null,
      "web": null,
      "instagram": null,
      "horario": null,
      "terraza": false,
      "musica": null,
      "fuente": "openstreetmap"
    },
    {
      "id": "osm_node_3922173076",
      "nombre": "The Window Music Bar",
      "tipo": "pub",
      "lat": 37.6002803,
      "lon": -0.9845157,
      "direccion": "Calle Cuatro Santos 14",
      "codigo_postal": "30202",
      "telefono": "+34 661 63 66 57",
      "web": null,
      "instagram": null,
      "horario": null,
      "terraza": false,
      "musica": null,
      "fuente": "openstreetmap"
    },
    {
      "id": "osm_node_4210981894",
      "nombre": "Bar Miralbur",
      "tipo": "bar",
      "lat": 37.6226491,
      "lon": -1.0093962,
      "direccion": "Calle Picos de Europa 17",
      "codigo_postal": null,
      "telefono": null,
      "web": null,
      "instagram": null,
      "horario": null,
      "terraza": false,
      "musica": null,
      "fuente": "openstreetmap"
    },
    {
      "id": "osm_node_4222243190",
      "nombre": "Bar El Gato",
      "tipo": "bar",
      "lat": 37.6199619,
      "lon": -1.01311,
      "direccion": "Carretera de Mazarrón 36",
      "codigo_postal": null,
      "telefono": "+34 637101334",
      "web": null,
      "instagram": null,
      "horario": null,
      "terraza": false,
      "musica": null,
      "fuente": "openstreetmap"
    },
    {
      "id": "osm_node_4265920790",
      "nombre": "King Café",
      "tipo": "cafe",
      "lat": 37.6046505,
      "lon": -0.9902312,
      "direccion": "Calle del Carmen 53",
      "codigo_postal": "30201",
      "telefono": "+34 868 97 97 40",
      "web": null,
      "instagram": null,
      "horario": null,
      "terraza": true,
      "musica": null,
      "fuente": "openstreetmap"
    },
    {
      "id": "osm_node_4326678796",
      "nombre": "La Piripi",
      "tipo": "cafe",
      "lat": 37.6016111,
      "lon": -0.9845814,
      "direccion": "Plaza de San Francisco",
      "codigo_postal": null,
      "telefono": null,
      "web": null,
      "instagram": null,
      "horario": null,
      "terraza": true,
      "musica": null,
      "fuente": "openstreetmap"
    },
    {
      "id": "osm_node_4326678798",
      "nombre": "Confitería F. Sánchez",
      "tipo": "cafe",
      "lat": 37.6005329,
      "lon": -0.9861189,
      "direccion": "Calle Medieras 3",
      "codigo_postal": null,
      "telefono": null,
      "web": null,
      "instagram": null,
      "horario": null,
      "terraza": false,
      "musica": null,
      "fuente": "openstreetmap"
    },
    {
      "id": "osm_node_4326776381",
      "nombre": "Cid Café",
      "tipo": "cafe",
      "lat": 37.6061667,
      "lon": -0.9830223,
      "direccion": "Calle Tierno Galván 6",
      "codigo_postal": null,
      "telefono": "+34 868 06 67 04",
      "web": null,
      "instagram": null,
      "horario": null,
      "terraza": false,
      "musica": null,
      "fuente": "openstreetmap"
    },
    {
      "id": "osm_node_4326776384",
      "nombre": "Pikú Café",
      "tipo": "cafe",
      "lat": 37.6058257,
      "lon": -0.9843011,
      "direccion": "Calle Carlos III",
      "codigo_postal": "30201",
      "telefono": null,
      "web": null,
      "instagram": null,
      "horario": null,
      "terraza": false,
      "musica": null,
      "fuente": "openstreetmap"
    },
    {
      "id": "osm_node_4326776387",
      "nombre": "Green House",
      "tipo": "cafe",
      "lat": 37.6051021,
      "lon": -0.9866999,
      "direccion": null,
      "codigo_postal": null,
      "telefono": null,
      "web": null,
      "instagram": null,
      "horario": null,
      "terraza": true,
      "musica": null,
      "fuente": "openstreetmap"
    },
    {
      "id": "osm_node_4327071934",
      "nombre": "Purocafé",
      "tipo": "cafe",
      "lat": 37.6052122,
      "lon": -0.9765467,
      "direccion": null,
      "codigo_postal": null,
      "telefono": null,
      "web": null,
      "instagram": null,
      "horario": null,
      "terraza": true,
      "musica": null,
      "fuente": "openstreetmap"
    },
    {
      "id": "osm_node_4327125697",
      "nombre": "Los Conductores",
      "tipo": "bar",
      "lat": 37.6055227,
      "lon": -0.9892787,
      "direccion": "Calle Carlos III 10",
      "codigo_postal": null,
      "telefono": "+34 670 05 73 31",
      "web": null,
      "instagram": null,
      "horario": null,
      "terraza": false,
      "musica": null,
      "fuente": "openstreetmap"
    },
    {
      "id": "osm_node_4329428995",
      "nombre": "Monkiria",
      "tipo": "pub",
      "lat": 37.6015278,
      "lon": -0.9869947,
      "direccion": "Calle Mayor 43",
      "codigo_postal": "30201",
      "telefono": null,
      "web": null,
      "instagram": null,
      "horario": null,
      "terraza": false,
      "musica": null,
      "fuente": "openstreetmap"
    },
    {
      "id": "osm_node_4441340461",
      "nombre": "Bar Cantina",
      "tipo": "pub",
      "lat": 37.5670943,
      "lon": -1.1551238,
      "direccion": null,
      "codigo_postal": null,
      "telefono": "+34 679354894",
      "web": null,
      "instagram": null,
      "horario": null,
      "terraza": false,
      "musica": null,
      "fuente": "openstreetmap"
    },
    {
      "id": "osm_node_4695246504",
      "nombre": "Pani2",
      "tipo": "cafe",
      "lat": 37.6183965,
      "lon": -0.9868515,
      "direccion": null,
      "codigo_postal": null,
      "telefono": null,
      "web": null,
      "instagram": null,
      "horario": null,
      "terraza": false,
      "musica": null,
      "fuente": "openstreetmap"
    },
    {
      "id": "osm_node_4956566977",
      "nombre": "La Perla",
      "tipo": "bar",
      "lat": 37.6806464,
      "lon": -0.8289523,
      "direccion": null,
      "codigo_postal": null,
      "telefono": null,
      "web": null,
      "instagram": null,
      "horario": null,
      "terraza": false,
      "musica": null,
      "fuente": "openstreetmap"
    },
    {
      "id": "osm_node_4956575338",
      "nombre": "Cafetería El Pedregal",
      "tipo": "cafe",
      "lat": 37.6840081,
      "lon": -0.8314225,
      "direccion": null,
      "codigo_postal": null,
      "telefono": "+34 690 706895",
      "web": null,
      "instagram": null,
      "horario": null,
      "terraza": true,
      "musica": null,
      "fuente": "openstreetmap"
    },
    {
      "id": "osm_node_4980071580",
      "nombre": "Holycakes",
      "tipo": "cafe",
      "lat": 37.6020535,
      "lon": -0.9885545,
      "direccion": "Plaza de Castellini 2",
      "codigo_postal": "30201",
      "telefono": null,
      "web": null,
      "instagram": null,
      "horario": null,
      "terraza": true,
      "musica": null,
      "fuente": "openstreetmap"
    },
    {
      "id": "osm_node_4983286167",
      "nombre": "La Cigüeña",
      "tipo": "pub",
      "lat": 37.5993438,
      "lon": -0.9867773,
      "direccion": "Plaza de San Agustín 1",
      "codigo_postal": "30201",
      "telefono": null,
      "web": null,
      "instagram": null,
      "horario": null,
      "terraza": false,
      "musica": null,
      "fuente": "openstreetmap"
    },
    {
      "id": "osm_node_4984756181",
      "nombre": "Bar Apicoco",
      "tipo": "bar",
      "lat": 37.6309102,
      "lon": -0.7341061,
      "direccion": null,
      "codigo_postal": null,
      "telefono": null,
      "web": null,
      "instagram": null,
      "horario": null,
      "terraza": false,
      "musica": null,
      "fuente": "openstreetmap"
    },
    {
      "id": "osm_node_4984756182",
      "nombre": "Brambles Bar",
      "tipo": "bar",
      "lat": 37.6311684,
      "lon": -0.7345437,
      "direccion": null,
      "codigo_postal": null,
      "telefono": null,
      "web": null,
      "instagram": null,
      "horario": null,
      "terraza": false,
      "musica": null,
      "fuente": "openstreetmap"
    },
    {
      "id": "osm_node_4984756183",
      "nombre": "Panadería Julieta Churrería",
      "tipo": "cafe",
      "lat": 37.6311816,
      "lon": -0.7343534,
      "direccion": null,
      "codigo_postal": null,
      "telefono": null,
      "web": null,
      "instagram": null,
      "horario": null,
      "terraza": false,
      "musica": null,
      "fuente": "openstreetmap"
    },
    {
      "id": "osm_node_4990591906",
      "nombre": "La Colegiala",
      "tipo": "cafe",
      "lat": 37.6031502,
      "lon": -0.9878988,
      "direccion": "Calle Santa Florentina 2",
      "codigo_postal": "30201",
      "telefono": null,
      "web": "http://tienda.lacolegiala.com/tiendas-la-colegiala.php?tienda=38",
      "instagram": null,
      "horario": "Mo-Fr 08:00-21:00; Sa 08:00-14:30; PH,Su 08:30-14:30",
      "terraza": true,
      "musica": null,
      "fuente": "openstreetmap"
    },
    {
      "id": "osm_node_4990591911",
      "nombre": "El Purgatorio",
      "tipo": "pub",
      "lat": 37.6018643,
      "lon": -0.9849209,
      "direccion": "Calle Honda 23",
      "codigo_postal": "30201",
      "telefono": "+34 678 47 93 62",
      "web": null,
      "instagram": null,
      "horario": null,
      "terraza": true,
      "musica": null,
      "fuente": "openstreetmap"
    },
    {
      "id": "osm_node_4990591912",
      "nombre": "Atrium",
      "tipo": "bar",
      "lat": 37.6023613,
      "lon": -0.9839838,
      "direccion": "Plaza de San Francisco 9",
      "codigo_postal": "30201",
      "telefono": null,
      "web": null,
      "instagram": null,
      "horario": null,
      "terraza": false,
      "musica": null,
      "fuente": "openstreetmap"
    },
    {
      "id": "osm_node_4990679146",
      "nombre": "Café Bar Kantuti",
      "tipo": "bar",
      "lat": 37.6017876,
      "lon": -0.9832629,
      "direccion": "Calle San Antonio el Pobre",
      "codigo_postal": null,
      "telefono": null,
      "web": null,
      "instagram": null,
      "horario": null,
      "terraza": false,
      "musica": null,
      "fuente": "openstreetmap"
    },
    {
      "id": "osm_node_4990679148",
      "nombre": "El Portalón",
      "tipo": "bar",
      "lat": 37.5999865,
      "lon": -0.9858549,
      "direccion": "Calle Andino",
      "codigo_postal": "30201",
      "telefono": null,
      "web": null,
      "instagram": null,
      "horario": null,
      "terraza": false,
      "musica": null,
      "fuente": "openstreetmap"
    },
    {
      "id": "osm_node_5000461873",
      "nombre": "casablasa",
      "tipo": "pub",
      "lat": 37.6001071,
      "lon": -0.9851887,
      "direccion": "Calle del Aire 9",
      "codigo_postal": "30202",
      "telefono": null,
      "web": null,
      "instagram": null,
      "horario": null,
      "terraza": false,
      "musica": null,
      "fuente": "openstreetmap"
    },
    {
      "id": "osm_node_5000461875",
      "nombre": "Chipé",
      "tipo": "pub",
      "lat": 37.5999964,
      "lon": -0.9847011,
      "direccion": "Calle San Isidoro",
      "codigo_postal": null,
      "telefono": null,
      "web": null,
      "instagram": null,
      "horario": null,
      "terraza": false,
      "musica": null,
      "fuente": "openstreetmap"
    },
    {
      "id": "osm_node_5256620748",
      "nombre": "Tehany",
      "tipo": "bar",
      "lat": 37.6512388,
      "lon": -1.0132212,
      "direccion": null,
      "codigo_postal": null,
      "telefono": null,
      "web": null,
      "instagram": null,
      "horario": null,
      "terraza": false,
      "musica": null,
      "fuente": "openstreetmap"
    },
    {
      "id": "osm_node_5256620759",
      "nombre": "Racós",
      "tipo": "cafe",
      "lat": 37.6523532,
      "lon": -1.0129387,
      "direccion": null,
      "codigo_postal": null,
      "telefono": null,
      "web": null,
      "instagram": null,
      "horario": null,
      "terraza": false,
      "musica": null,
      "fuente": "openstreetmap"
    },
    {
      "id": "osm_node_5256632563",
      "nombre": "Pan Xana",
      "tipo": "cafe",
      "lat": 37.6510771,
      "lon": -1.0122535,
      "direccion": null,
      "codigo_postal": null,
      "telefono": null,
      "web": null,
      "instagram": null,
      "horario": null,
      "terraza": false,
      "musica": null,
      "fuente": "openstreetmap"
    },
    {
      "id": "osm_node_5320245094",
      "nombre": "Bar Apple",
      "tipo": "bar",
      "lat": 37.6782454,
      "lon": -1.021505,
      "direccion": null,
      "codigo_postal": null,
      "telefono": null,
      "web": null,
      "instagram": null,
      "horario": null,
      "terraza": false,
      "musica": null,
      "fuente": "openstreetmap"
    },
    {
      "id": "osm_node_5631166127",
      "nombre": "Yemanjá",
      "tipo": "bar",
      "lat": 37.6318972,
      "lon": -0.7023894,
      "direccion": "Calle de la Iglesia",
      "codigo_postal": null,
      "telefono": null,
      "web": null,
      "instagram": null,
      "horario": null,
      "terraza": false,
      "musica": null,
      "fuente": "openstreetmap"
    },