{
  "ciudad": "Ciudad Real",
  "total": 230,
  "locales": [
    {
      "id": "osm_node_1854353568",
      "nombre": "Clip's",
      "tipo": "pub",
      "lat": 38.7847957,
      "lon": -4.8313338,
      "direccion": null,
      "codigo_postal": null,
      "telefono": null,
      "web": null,
      "instagram": null,
      "horario": null,
      "terraza": false
    },
    {
      "id": "osm_node_1857954272",
      "nombre": "El Cordobés",
      "tipo": "bar",
      "lat": 38.7752978,
      "lon": -4.8321346,
      "direccion": null,
      "codigo_postal": null,
      "telefono": null,
      "web": null,
      "instagram": null,
      "horario": null,
      "terraza": false
    },
    {
      "id": "osm_node_1889554887",
      "nombre": "Bar Los Hermanos",
      "tipo": "bar",
      "lat": 39.4951759,
      "lon": -4.5213934,
      "direccion": null,
      "codigo_postal": null,
      "telefono": null,
      "web": null,
      "instagram": null,
      "horario": null,
      "terraza": false
    },
    {
      "id": "osm_node_1891096636",
      "nombre": "Churrería Virgen de La Antigua",
      "tipo": "cafe",
      "lat": 39.4951147,
      "lon": -4.5215107,
      "direccion": "Capitan Ocaña",
      "codigo_postal": null,
      "telefono": null,
      "web": "http://restaurantecabaneros.wix.com/micaela#!panaderiacabaneros/c1se",
      "instagram": null,
      "horario": null,
      "terraza": false
    },
    {
      "id": "osm_node_1891262745",
      "nombre": "Camping Navas de Estena",
      "tipo": "bar",
      "lat": 39.490469,
      "lon": -4.5270507,
      "direccion": null,
      "codigo_postal": null,
      "telefono": null,
      "web": null,
      "instagram": null,
      "horario": null,
      "terraza": false
    },
    {
      "id": "osm_node_2390448889",
      "nombre": "Estación de Autobuses",
      "tipo": "cafe",
      "lat": 39.1640747,
      "lon": -3.0166638,
      "direccion": "Calle Socuéllamos",
      "codigo_postal": "13700",
      "telefono": null,
      "web": null,
      "instagram": null,
      "horario": null,
      "terraza": true
    },
    {
      "id": "osm_node_2494782121",
      "nombre": "LOS JÓVENES",
      "tipo": "bar",
      "lat": 38.9088584,
      "lon": -3.6598777,
      "direccion": "Calle Ramón y Cajal",
      "codigo_postal": "13260",
      "telefono": null,
      "web": null,
      "instagram": null,
      "horario": null,
      "terraza": false
    },
    {
      "id": "osm_node_2641662618",
      "nombre": "Flor",
      "tipo": "bar",
      "lat": 39.4951435,
      "lon": -4.5224765,
      "direccion": null,
      "codigo_postal": null,
      "telefono": null,
      "web": null,
      "instagram": null,
      "horario": null,
      "terraza": false
    },
    {
      "id": "osm_node_2646312450",
      "nombre": "Ayala",
      "tipo": "bar",
      "lat": 39.069749,
      "lon": -3.6141183,
      "direccion": null,
      "codigo_postal": null,
      "telefono": null,
      "web": null,
      "instagram": null,
      "horario": null,
      "terraza": false
    },
    {
      "id": "osm_node_2646312472",
      "nombre": "Santi",
      "tipo": "bar",
      "lat": 39.0698797,
      "lon": -3.6144232,
      "direccion": "11",
      "codigo_postal": null,
      "telefono": null,
      "web": null,
      "instagram": null,
      "horario": null,
      "terraza": false
    },
    {
      "id": "osm_node_2646312474",
      "nombre": "Torillo",
      "tipo": "cafe",
      "lat": 39.0719251,
      "lon": -3.6079647,
      "direccion": null,
      "codigo_postal": null,
      "telefono": null,
      "web": null,
      "instagram": null,
      "horario": null,
      "terraza": false
    },
    {
      "id": "osm_node_2656970724",
      "nombre": "El Tapeo",
      "tipo": "bar",
      "lat": 38.8888794,
      "lon": -3.7116715,
      "direccion": "13",
      "codigo_postal": null,
      "telefono": null,
      "web": null,
      "instagram": null,
      "horario": null,
      "terraza": false
    },
    {
      "id": "osm_node_2656970734",
      "nombre": "Quijote Gil",
      "tipo": "bar",
      "lat": 38.8885054,
      "lon": -3.7117305,
      "direccion": "Plaza Mayor 15",
      "codigo_postal": null,
      "telefono": null,
      "web": null,
      "instagram": null,
      "horario": null,
      "terraza": false
    },
    {
      "id": "osm_node_2960747550",
      "nombre": "Bar Donde Sea",
      "tipo": "bar",
      "lat": 38.888399,
      "lon": -3.7122278,
      "direccion": null,
      "codigo_postal": null,
      "telefono": null,
      "web": null,
      "instagram": null,
      "horario": null,
      "terraza": false
    },
    {
      "id": "osm_node_2960747551",
      "nombre": "El Callejón de Germán",
      "tipo": "bar",
      "lat": 38.8887787,
      "lon": -3.7118488,
      "direccion": null,
      "codigo_postal": null,
      "telefono": null,
      "web": null,
      "instagram": null,
      "horario": null,
      "terraza": false
    },
    {
      "id": "osm_node_3001432019",
      "nombre": "Café Bar Casino",
      "tipo": "bar",
      "lat": 39.0187467,
      "lon": -3.8167829,
      "direccion": null,
      "codigo_postal": null,
      "telefono": null,
      "web": null,
      "instagram": null,
      "horario": null,
      "terraza": false
    },
    {
      "id": "osm_node_3011709972",
      "nombre": "Chas",
      "tipo": "bar",
      "lat": 39.1467523,
      "lon": -4.1535817,
      "direccion": null,
      "codigo_postal": null,
      "telefono": null,
      "web": null,
      "instagram": null,
      "horario": null,
      "terraza": false
    },
    {
      "id": "osm_node_3859425001",
      "nombre": "Café Bar El Piru",
      "tipo": "bar",
      "lat": 38.9863377,
      "lon": -3.9234054,
      "direccion": "Calle Sancho Panza 9",
      "codigo_postal": "13004",
      "telefono": null,
      "web": null,
      "instagram": null,
      "horario": null,
      "terraza": false
    },
    {
      "id": "osm_node_3992434726",
      "nombre": "Sociedad Cultural Cinegética",
      "tipo": "bar",
      "lat": 38.7757473,
      "lon": -4.8361928,
      "direccion": null,
      "codigo_postal": null,
      "telefono": null,
      "web": null,
      "instagram": null,
      "horario": null,
      "terraza": false
    },
    {
      "id": "osm_node_3992434727",
      "nombre": "Delicias",
      "tipo": "bar",
      "lat": 38.7755101,
      "lon": -4.8366581,
      "direccion": null,
      "codigo_postal": null,
      "telefono": null,
      "web": null,
      "instagram": null,
      "horario": null,
      "terraza": false
    },
    {
      "id": "osm_node_3992434733",
      "nombre": "La Cabaña",
      "tipo": "bar",
      "lat": 38.7752988,
      "lon": -4.8345867,
      "direccion": null,
      "codigo_postal": null,
      "telefono": null,
      "web": null,
      "instagram": null,
      "horario": null,
      "terraza": false
    },
    {
      "id": "osm_node_3992434744",
      "nombre": "Paddy O'Hara Irish Tavern",
      "tipo": "bar",
      "lat": 38.7754077,
      "lon": -4.834435,
      "direccion": null,
      "codigo_postal": null,
      "telefono": null,
      "web": null,
      "instagram": null,
      "horario": null,
      "terraza": false
    },
    {
      "id": "osm_node_4121114591",
      "nombre": "Candil 2.0",
      "tipo": "bar",
      "lat": 38.7573025,
      "lon": -3.3837066,
      "direccion": "Paseo Luis Palacios 19",
      "codigo_postal": null,
      "telefono": null,
      "web": null,
      "instagram": null,
      "horario": null,
      "terraza": false
    },
    {
      "id": "osm_node_4121114592",
      "nombre": "Margarita Qué",
      "tipo": "bar",
      "lat": 38.7586104,
      "lon": -3.3873151,
      "direccion": "Avenida Primero de Julio 66",
      "codigo_postal": null,
      "telefono": null,
      "web": null,
      "instagram": null,
      "horario": null,
      "terraza": false
    },
    {
      "id": "osm_node_4252390792",
      "nombre": "Café Viena",
      "tipo": "bar",
      "lat": 38.6853921,
      "lon": -4.1071661,
      "direccion": "Calle Goya 3",
      "codigo_postal": "13500",
      "telefono": null,
      "web": null,
      "instagram": null,
      "horario": null,
      "terraza": false
    },
    {
      "id": "osm_node_4407716590",
      "nombre": "Churrería Veracruz",
      "tipo": "bar",
      "lat": 38.7660156,
      "lon": -3.3873376,
      "direccion": "Avenida de Gregorio Prieto",
      "codigo_postal": null,
      "telefono": "+34 926320839",
      "web": null,
      "instagram": null,
      "horario": "Mo-Su 07:00-14:00",
      "terraza": false
    },
    {
      "id": "osm_node_4408530789",
      "nombre": "Cafe Bar Marimba",
      "tipo": "bar",
      "lat": 38.8889241,
      "lon": -3.7113966,
      "direccion": "Plaza Mayor 52",
      "codigo_postal": null,
      "telefono": null,
      "web": null,
      "instagram": null,
      "horario": null,
      "terraza": false
    },
    {
      "id": "osm_node_4409502091",
      "nombre": "Bar El Gordo",
      "tipo": "bar",
      "lat": 38.8885607,
      "lon": -3.7114405,
      "direccion": "Plaza Mayor 12",
      "codigo_postal": null,
      "telefono": "+34 653988162",
      "web": null,
      "instagram": null,
      "horario": null,
      "terraza": false
    },
    {
      "id": "osm_node_4460139995",
      "nombre": "Alhambra",
      "tipo": "bar",
      "lat": 38.5123705,
      "lon": -3.4971891,
      "direccion": null,
      "codigo_postal": null,
      "telefono": null,
      "web": null,
      "instagram": null,
      "horario": null,
      "terraza": false
    },
    {
      "id": "osm_node_4685054196",
      "nombre": "Cervecería La Dama",
      "tipo": "bar",
      "lat": 39.4010179,
      "lon": -3.1277629,
      "direccion": null,
      "codigo_postal": null,
      "telefono": null,
      "web": null,
      "instagram": null,
      "horario": null,
      "terraza": false
    },
    {
      "id": "osm_node_4685069591",
      "nombre": "Casino Primitivo",
      "tipo": "bar",
      "lat": 39.4054234,
      "lon": -3.1255726,
      "direccion": null,
      "codigo_postal": null,
      "telefono": null,
      "web": null,
      "instagram": null,
      "horario": null,
      "terraza": false
    },
    {
      "id": "osm_node_4699309849",
      "nombre": "Cafetería Charlie",
      "tipo": "cafe",
      "lat": 38.9768953,
      "lon": -2.8848701,
      "direccion": "Plaza Cervantes 6",
      "codigo_postal": "13249",
      "telefono": "+34677205542",
      "web": null,
      "instagram": null,
      "horario": null,
      "terraza": false
    },
    {
      "id": "osm_node_4791987222",
      "nombre": "El Esquinazo",
      "tipo": "bar",
      "lat": 39.2202148,
      "lon": -3.6098338,
      "direccion": null,
      "codigo_postal": null,
      "telefono": "+34652896215",
      "web": null,
      "instagram": null,
      "horario": null,
      "terraza": false
    },
    {
      "id": "osm_node_4793474837",
      "nombre": "El Mirador de La Mancha",
      "tipo": "bar",
      "lat": 39.2214144,
      "lon": -3.6323572,
      "direccion": "Camino de San Cristobal",
      "codigo_postal": null,
      "telefono": "+34 926666122",
      "web": null,
      "instagram": null,
      "horario": null,
      "terraza": false
    },
    {
      "id": "osm_node_4794113222",
      "nombre": "Quid Pro Quo",
      "tipo": "pub",
      "lat": 39.2206125,
      "lon": -3.6083084,
      "direccion": null,
      "codigo_postal": null,
      "telefono": null,
      "web": null,
      "instagram": null,
      "horario": null,
      "terraza": false
    },
    {
      "id": "osm_node_4794116821",
      "nombre": "La Paloma",
      "tipo": "bar",
      "lat": 39.2204257,
      "lon": -3.6080767,
      "direccion": null,
      "codigo_postal": null,
      "telefono": null,
      "web": null,
      "instagram": null,
      "horario": null,
      "terraza": false
    },
    {
      "id": "osm_node_4936184004",
      "nombre": "Bar Julián",
      "tipo": "bar",
      "lat": 39.4011293,
      "lon": -3.133657,
      "direccion": null,
      "codigo_postal": null,
      "telefono": null,
      "web": null,
      "instagram": null,
      "horario": null,
      "terraza": true
    },
    {
      "id": "osm_node_5263266548",
      "nombre": "La Manchega",
      "tipo": "cafe",
      "lat": 39.1583456,
      "lon": -3.0218596,
      "direccion": "15",
      "codigo_postal": "13700",
      "telefono": "+34 643 65 76 52",
      "web": null,
      "instagram": null,
      "horario": null,
      "terraza": true
    },
    {
      "id": "osm_node_5319238744",
      "nombre": "ENIGMA",
      "tipo": "bar",
      "lat": 39.0678201,
      "lon": -3.6111606,
      "direccion": null,
      "codigo_postal": null,
      "telefono": null,
      "web": null,
      "instagram": null,
      "horario": null,
      "terraza": false
    },
    {
      "id": "osm_node_5319245323",
      "nombre": "DISCO PUB MALECON",
      "tipo": "bar",
      "lat": 39.0681942,
      "lon": -3.6112046,
      "direccion": null,
      "codigo_postal": null,
      "telefono": null,
      "web": null,
      "instagram": null,
      "horario": null,
      "terraza": false
    },
    {
      "id": "osm_node_5319245802",
      "nombre": "DISCO BAR CANOS",
      "tipo": "bar",
      "lat": 39.0673994,
      "lon": -3.6110925,
      "direccion": null,
      "codigo_postal": null,
      "telefono": null,
      "web": null,
      "instagram": null,
      "horario": null,
      "terraza": false
    },
    {
      "id": "osm_node_5319260868",
      "nombre": "COCOA",
      "tipo": "bar",
      "lat": 39.0787837,
      "lon": -3.6081609,
      "direccion": null,
      "codigo_postal": null,
      "telefono": null,
      "web": null,
      "instagram": null,
      "horario": null,
      "terraza": false
    },
    {
      "id": "osm_node_5319270982",
      "nombre": "LA DUQUESITA",
      "tipo": "cafe",
      "lat": 39.0678617,
      "lon": -3.6125412,
      "direccion": null,
      "codigo_postal": null,
      "telefono": null,
      "web": null,
      "instagram": null,
      "horario": null,
      "terraza": false
    },
    {
      "id": "osm_node_5329609911",
      "nombre": "Cartelera",
      "tipo": "bar",
      "lat": 39.3925863,
      "lon": -3.2196569,
      "direccion": null,
      "codigo_postal": null,
      "telefono": null,
      "web": null,
      "instagram": null,
      "horario": null,
      "terraza": false
    },
    {
      "id": "osm_node_5329609912",
      "nombre": "La Casa del Preso",
      "tipo": "bar",
      "lat": 39.392579,
      "lon": -3.2184849,
      "direccion": null,
      "codigo_postal": null,
      "telefono": null,
      "web": null,
      "instagram": null,
      "horario": null,
      "terraza": false
    },
    {
      "id": "osm_node_5329679858",
      "nombre": "Cervecería Life",
      "tipo": "bar",
      "lat": 39.3920728,
      "lon": -3.2186138,
      "direccion": null,
      "codigo_postal": null,
      "telefono": null,
      "web": null,
      "instagram": null,
      "horario": null,
      "terraza": false
    },
    {
      "id": "osm_node_5364562458",
      "nombre": "Bar Santa Maria",
      "tipo": "bar",
      "lat": 38.9093267,
      "lon": -3.6602228,
      "direccion": null,
      "codigo_postal": null,
      "telefono": null,
      "web": null,
      "instagram": null,
      "horario": null,
      "terraza": false
    },
    {
      "id": "osm_node_5364562473",
      "nombre": "Tetería Altozano",
      "tipo": "bar",
      "lat": 38.9067532,
      "lon": -3.6693691,
      "direccion": null,
      "codigo_postal": null,
      "telefono": null,
      "web": null,
      "instagram": null,
      "horario": null,
      "terraza": false
    },
    {
      "id": "osm_node_5364577506",
      "nombre": "Vian",
      "tipo": "pub",
      "lat": 38.9083987,
      "lon": -3.6669506,
      "direccion": null,
      "codigo_postal": null,
      "telefono": null,
      "web": null,
      "instagram": null,
      "horario": null,
      "terraza": false
    },
    {
      "id": "osm_node_5364629710",
      "nombre": "Chillout",
      "tipo": "pub",
      "lat": 38.9066026,
      "lon": -3.6693158,
      "direccion": null,
      "codigo_postal": null,
      "telefono": null,
      "web": null,
      "instagram": null,
      "horario": null,
      "terraza": false
    },
    {
      "id": "osm_node_5364783741",
      "nombre": "Bar Victoria",
      "tipo": "bar",
      "lat": 38.9086244,
      "lon": -3.667178,
      "direccion": null,
      "codigo_postal": null,
      "telefono": null,
      "web": null,
      "instagram": null,
      "horario": null,
      "terraza": false
    },
    {
      "id": "osm_node_5364783750",
      "nombre": "Bar Valencia",
      "tipo": "bar",
      "lat": 38.908475,
      "lon": -3.6590152,
      "direccion": null,
      "codigo_postal": null,
      "telefono": null,
      "web": null,
      "instagram": null,
      "horario": null,
      "terraza": false
    },
    {
      "id": "osm_node_5364789914",
      "nombre": "Churrería Bar Ángel",
      "tipo": "bar",
      "lat": 38.8999722,
      "lon": -3.6588071,
      "direccion": null,
      "codigo_postal": null,
      "telefono": null,
      "web": null,
      "instagram": null,
      "horario": null,
      "terraza": false
    },
    {
      "id": "osm_node_5365758629",
      "nombre": "Bar Hermanos López",
      "tipo": "bar",
      "lat": 38.9036176,
      "lon": -3.665723,
      "direccion": null,
      "codigo_postal": null,
      "telefono": null,
      "web": null,
      "instagram": null,
      "horario": null,
      "terraza": false
    },
    {
      "id": "osm_node_5411890633",
      "nombre": "Bar Taperia EGB",
      "tipo": "cafe",
      "lat": 39.1550834,
      "lon": -3.0199252,
      "direccion": "Calle Independencia 58",
      "codigo_postal": "13700",
      "telefono": null,
      "web": null,
      "instagram": null,
      "horario": null,
      "terraza": false
    },
    {
      "id": "osm_node_5414065626",
      "nombre": "Los faroles de Tomas",
      "tipo": "bar",
      "lat": 38.9833131,
      "lon": -3.9289721,
      "direccion": "Plaza del Pilar",
      "codigo_postal": "13001",
      "telefono": null,
      "web": null,
      "instagram": null,
      "horario": null,
      "terraza": false
    },
    {
      "id": "osm_node_5414076224",
      "nombre": "Cañas y Tapas",
      "tipo": "bar",
      "lat": 38.9855417,
      "lon": -3.9216664,
      "direccion": "Calle Pozo Concejo",
      "codigo_postal": null,
      "telefono": null,
      "web": null,
      "instagram": null,
      "horario": null,
      "terraza": false
    },
    {
      "id": "osm_node_5469364212",
      "nombre": "Bar de la Estación",
      "tipo": "bar",
      "lat": 39.2209154,
      "lon": -3.6114693,
      "direccion": null,
      "codigo_postal": null,
      "telefono": null,
      "web": null,
      "instagram": null,
      "horario": null,
      "terraza": false
    },
    {
      "id": "osm_node_5469364214",
      "nombre": "El Portón",
      "tipo": "bar",
      "lat": 39.2192634,
      "lon": -3.6104956,
      "direccion": null,
      "codigo_postal": null,
      "telefono": null,
      "web": null,
      "instagram": null,
      "horario": null,
      "terraza": true
    },
    {
      "id": "osm_node_5493123524",
      "nombre": "Harry's",
      "tipo": "bar",
      "lat": 38.7301473,
      "lon": -4.0701566,
      "direccion": "Calle Mayor",
      "codigo_postal": "13440",
      "telefono": null,
      "web": null,
      "instagram": null,
      "horario": "Mo-Sa 06:00-16:00",
      "terraza": false
    },
    {
      "id": "osm_node_5502777008",
      "nombre": "Tascas & Taberna",
      "tipo": "bar",
      "lat": 38.9798391,
      "lon": -3.9222251,
      "direccion": null,
      "codigo_postal": null,
      "telefono": null,
      "web": null,
      "instagram": null,
      "horario": null,
      "terraza": true
    },
    {
      "id": "osm_node_5502777009",
      "nombre": "Vendrell",
      "tipo": "bar",
      "lat": 38.9802207,
      "lon": -3.9228112,
      "direccion": null,
      "codigo_postal": null,
      "telefono": null,
      "web": null,
      "instagram": null,
      "horario": null,
      "terraza": true
    },
    {
      "id": "osm_node_5783987606",
      "nombre": "Acuario",
      "tipo": "bar",
      "lat": 38.9855887,
      "lon": -3.9288903,
      "direccion": null,
      "codigo_postal": null,
      "telefono": null,
      "web": null,
      "instagram": null,
      "horario": null,
      "terraza": false
    },
    {
      "id": "osm_node_5783987607",
      "nombre": "El Portalón",
      "tipo": "bar",
      "lat": 38.9855456,
      "lon": -3.9288625,
      "direccion": null,
      "codigo_postal": null,
      "telefono": null,
      "web": null,
      "instagram": null,
      "horario": null,
      "terraza": false
    },
    {
      "id": "osm_node_5844827975",
      "nombre": "Bar Restaurante \"Nueva Ola\"",
      "tipo": "bar",
      "lat": 38.6165022,
      "lon": -2.8114355,
      "direccion": null,
      "codigo_postal": null,
      "telefono": null,
      "web": null,
      "instagram": null,
      "horario": null,
      "terraza": false
    },
    {
      "id": "osm_node_5844827976",
      "nombre": "Pub JM",
      "tipo": "bar",
      "lat": 38.6182645,
      "lon": -2.8103764,
      "direccion": null,
      "codigo_postal": null,
      "telefono": null,
      "web": null,
      "instagram": null,
      "horario": null,
      "terraza": false
    },
    {
      "id": "osm_node_5844827977",
      "nombre": "Bar de la Carretera",
      "tipo": "bar",
      "lat": 38.61914,
      "lon": -2.810167,
      "direccion": null,
      "codigo_postal": null,
      "telefono": null,
      "web": null,
      "instagram": null,
      "horario": null,
      "terraza": false
    },
    {
      "id": "osm_node_5844827978",
      "nombre": "Pub Kalifa",
      "tipo": "bar",
      "lat": 38.6192484,
      "lon": -2.8103056,
      "direccion": null,
      "codigo_postal": null,
      "telefono": null,
      "web": null,
      "instagram": null,
      "horario": null,
      "terraza": false
    },
    {
      "id": "osm_node_5844827979",
      "nombre": "Bar Cervantes",
      "tipo": "bar",
      "lat": 38.6191139,
      "lon": -2.8072254,
      "direccion": null,
      "codigo_postal": null,
      "telefono": null,
      "web": null,
      "instagram": null,
      "horario": null,
      "terraza": false
    },
    {
      "id": "osm_node_5844827980",
      "nombre": "Bar Farga",
      "tipo": "bar",
      "lat": 38.6172328,
      "lon": -2.8073781,
      "direccion": null,
      "codigo_postal": null,
      "telefono": null,
      "web": null,
      "instagram": null,
      "horario": null,
      "terraza": false
    },
    {
      "id": "osm_node_5948387713",
      "nombre": "Bar Las Chicas",
      "tipo": "cafe",
      "lat": 39.2191878,
      "lon": -3.504143,
      "direccion": null,
      "codigo_postal": null,
      "telefono": null,
      "web": null,
      "instagram": null,
      "horario": null,
      "terraza": false
    },
    {
      "id": "osm_node_6338838518",
      "nombre": "Cafetería Bar",
      "tipo": "cafe",
      "lat": 38.9800749,
      "lon": -3.9272274,
      "direccion": null,
      "codigo_postal": null,
      "telefono": null,
      "web": null,
      "instagram": null,
      "horario": null,
      "terraza": false
    },
    {
      "id": "osm_node_6338838537",
      "nombre": "El Estudiante",
      "tipo": "pub",
      "lat": 38.9897589,
      "lon": -3.9217561,
      "direccion": null,
      "codigo_postal": null,
      "telefono": null,
      "web": null,
      "instagram": null,
      "horario": null,
      "terraza": false
    },
    {
      "id": "osm_node_6355330288",
      "nombre": "Bar Ven y Ven",
      "tipo": "pub",
      "lat": 38.6946528,
      "lon": -4.1097722,
      "direccion": null,
      "codigo_postal": null,
      "telefono": null,
      "web": null,
      "instagram": null,
      "horario": null,
      "terraza": false
    },
    {
      "id": "osm_node_6472004485",
      "nombre": "Martina",
      "tipo": "bar",
      "lat": 38.9872239,
      "lon": -3.9285611,
      "direccion": null,
      "codigo_postal": null,
      "telefono": null,
      "web": null,
      "instagram": null,
      "horario": null,
      "terraza": false
    },
    {
      "id": "osm_node_6522695514",
      "nombre": "Los Ángeles",
      "tipo": "cafe",
      "lat": 38.980924,
      "lon": -3.9241379,
      "direccion": null,
      "codigo_postal": null,
      "telefono": null,
      "web": null,
      "instagram": null,
      "horario": null,
      "terraza": false
    },
    {
      "id": "osm_node_6522695515",
      "nombre": "Carmona's Pub",
      "tipo": "pub",
      "lat": 38.9807926,
      "lon": -3.9245503,
      "direccion": null,
      "codigo_postal": null,
      "telefono": null,
      "web": null,
      "instagram": null,
      "horario": null,
      "terraza": false
    },
    {
      "id": "osm_node_6522695516",
      "nombre": "San José",
      "tipo": "cafe",
      "lat": 38.9809887,
      "lon": -3.9242276,
      "direccion": null,
      "codigo_postal": null,
      "telefono": null,
      "web": null,
      "instagram": null,
      "horario": null,
      "terraza": false
    },
    {
      "id": "osm_node_6703164508",
      "nombre": "Cafeteria Altagracia",
      "tipo": "cafe",
      "lat": 39.0019596,
      "lon": -3.3732237,
      "direccion": "Calle Carrilejos",
      "codigo_postal": "13200",
      "telefono": null,
      "web": null,
      "instagram": null,
      "horario": null,
      "terraza": true
    },
    {
      "id": "osm_node_6709587457",
      "nombre": "Bar del Pueblo",
      "tipo": "bar",
      "lat": 38.8943796,
      "lon": -3.3892601,
      "direccion": null,
      "codigo_postal": null,
      "telefono": null,
      "web": null,
      "instagram": null,
      "horario": null,
      "terraza": false
    },
    {
      "id": "osm_node_6732771314",
      "nombre": "Pan Real",
      "tipo": "cafe",
      "lat": 38.7297332,
      "lon": -4.0723199,
      "direccion": "Calle Andalucía",
      "codigo_postal": "13440",
      "telefono": null,
      "web": null,
      "instagram": null,
      "horario": null,
      "terraza": false
    },
    {
      "id": "osm_node_6732771315",
      "nombre": "Bar Oriente",
      "tipo": "bar",
      "lat": 38.7267536,
      "lon": -4.079602,
      "direccion": "Plaza de los Palacios",
      "codigo_postal": "13440",
      "telefono": null,
      "web": null,
      "instagram": null,
      "horario": null,
      "terraza": false
    },
    {
      "id": "osm_node_6732771316",
      "nombre": "Bar Donde Sea",
      "tipo": "bar",
      "lat": 38.7272501,
      "lon": -4.0802459,
      "direccion": "Glorieta de Navarra",
      "codigo_postal": "13440",
      "telefono": null,
      "web": null,
      "instagram": null,
      "horario": null,
      "terraza": false
    },
    {
      "id": "osm_node_6732771317",
      "nombre": "Bar Cervantes",
      "tipo": "bar",
      "lat": 38.7276136,
      "lon": -4.0798461,
      "direccion": "Calle Cervantes",
      "codigo_postal": "13440",
      "telefono": null,
      "web": null,
      "instagram": null,
      "horario": null,
      "terraza": false
    },
    {
      "id": "osm_node_7035369549",
      "nombre": "El cazador",
      "tipo": "bar",
      "lat": 39.1298761,
      "lon": -3.0824385,
      "direccion": null,
      "codigo_postal": null,
      "telefono": null,
      "web": null,
      "instagram": null,
      "horario": null,
      "terraza": true
    },
    {
      "id": "osm_node_7035381149",
      "nombre": "Ven y verás",
      "tipo": "bar",
      "lat": 39.1307822,
      "lon": -3.0878595,
      "direccion": null,
      "codigo_postal": null,
      "telefono": null,
      "web": null,
      "instagram": null,
      "horario": null,
      "terraza": true
    },
    {
      "id": "osm_node_7119440385",
      "nombre": "La Sede",
      "tipo": "bar",
      "lat": 39.0700387,
      "lon": -3.6136487,
      "direccion": "Plaza de Santa María",
      "codigo_postal": null,
      "telefono": null,
      "web": null,
      "instagram": null,
      "horario": null,
      "terraza": false
    },
    {
      "id": "osm_node_7147225018",
      "nombre": "Bar E-Tapas",
      "tipo": "cafe",
      "lat": 39.3916216,
      "lon": -3.2238221,
      "direccion": null,
      "codigo_postal": null,
      "telefono": null,
      "web": null,
      "instagram": null,
      "horario": null,
      "terraza": false
    },
    {
      "id": "osm_node_7147225021",
      "nombre": "El Café",
      "tipo": "cafe",
      "lat": 39.3901882,
      "lon": -3.2187297,
      "direccion": null,
      "codigo_postal": null,
      "telefono": null,
      "web": null,
      "instagram": null,
      "horario": null,
      "terraza": false
    },
    {
      "id": "osm_node_7147225022",
      "nombre": "Bar Oasis",
      "tipo": "cafe",
      "lat": 39.3901524,
      "lon": -3.2185552,
      "direccion": null,
      "codigo_postal": null,
      "telefono": null,
      "web": null,
      "instagram": null,
      "horario": null,
      "terraza": false
    },
    {
      "id": "osm_node_7147225023",
      "nombre": "Bar Olimpo",
      "tipo": "cafe",
      "lat": 39.3885157,
      "lon": -3.2175163,
      "direccion": null,
      "codigo_postal": null,
      "telefono": null,
      "web": null,
      "instagram": null,
      "horario": null,
      "terraza": false
    },
    {
      "id": "osm_node_7147398721",
      "nombre": "La caye",
      "tipo": "pub",
      "lat": 39.3894617,
      "lon": -3.210106,
      "direccion": null,
      "codigo_postal": null,
      "telefono": null,
      "web": null,
      "instagram": null,
      "horario": null,
      "terraza": false
    },
    {
      "id": "osm_node_7147398722",
      "nombre": "La Tapería del Pasaje",
      "tipo": "cafe",
      "lat": 39.3895332,
      "lon": -3.2101006,
      "direccion": null,
      "codigo_postal": null,
      "telefono": null,
      "web": null,
      "instagram": null,
      "horario": null,
      "terraza": false
    },
    {
      "id": "osm_node_7147398725",
      "nombre": "El Jardinillo",
      "tipo": "pub",
      "lat": 39.3901665,
      "lon": -3.2106619,
      "direccion": null,
      "codigo_postal": null,
      "telefono": null,
      "web": null,
      "instagram": null,
      "horario": null,
      "terraza": false
    },
    {
      "id": "osm_node_7147398726",
      "nombre": "La Viña E",
      "tipo": "cafe",
      "lat": 39.3897456,
      "lon": -3.2106538,
      "direccion": null,
      "codigo_postal": null,
      "telefono": null,
      "web": null,
      "instagram": null,
      "horario": null,
      "terraza": false
    },
    {
      "id": "osm_node_7147398729",
      "nombre": "La Cervecería",
      "tipo": "cafe",
      "lat": 39.3931591,
      "lon": -3.2192089,
      "direccion": null,
      "codigo_postal": null,
      "telefono": null,
      "web": null,
      "instagram": null,
      "horario": null,
      "terraza": false
    },
    {
      "id": "osm_node_7147398730",
      "nombre": "Route 66",
      "tipo": "cafe",
      "lat": 39.3935808,
      "lon": -3.2189767,
      "direccion": null,
      "codigo_postal": null,
      "telefono": null,
      "web": null,
      "instagram": null,
      "horario": null,
      "terraza": false
    },
    {
      "id": "osm_node_7147398733",
      "nombre": "La traviesa",
      "tipo": "bar",
      "lat": 39.3933349,
      "lon": -3.2199243,
      "direccion": null,
      "codigo_postal": null,
      "telefono": null,
      "web": null,
      "instagram": null,
      "horario": null,
      "terraza": false
    },
    {
      "id": "osm_node_7147398741",
      "nombre": "Café Mo-Do",
      "tipo": "bar",
      "lat": 39.3934742,
      "lon": -3.2224076,
      "direccion": null,
      "codigo_postal": null,
      "telefono": null,
      "web": null,
      "instagram": null,
      "horario": null,
      "terraza": false
    },
    {
      "id": "osm_node_7147398744",
      "nombre": "Menganita de Tal",
      "tipo": "bar",
      "lat": 39.3932962,
      "lon": -3.222615,
      "direccion": null,
      "codigo_postal": null,
      "telefono": null,
      "web": null,
      "instagram": null,
      "horario": null,
      "terraza": false
    },
    {
      "id": "osm_node_7147398747",
      "nombre": "Moment's",
      "tipo": "bar",
      "lat": 39.3927264,
      "lon": -3.2223357,
      "direccion": null,
      "codigo_postal": null,
      "telefono": null,
      "web": null,
      "instagram": null,
      "horario": null,
      "terraza": false
    },
    {
      "id": "osm_node_7149347621",
      "nombre": "Aquí Me Quedo",
      "tipo": "cafe",
      "lat": 38.975428,
      "lon": -2.8861862,
      "direccion": "Avenida de Castilla la Mancha 10",
      "codigo_postal": "13249",
      "telefono": "+34 608917295",
      "web": null,
      "instagram": null,
      "horario": null,
      "terraza": false
    },
    {
      "id": "osm_node_7187810153",
      "nombre": "Churrería el Pólígono",
      "tipo": "cafe",
      "lat": 39.1518271,
      "lon": -3.0111667,
      "direccion": null,
      "codigo_postal": null,
      "telefono": null,
      "web": null,
      "instagram": null,
      "horario": null,
      "terraza": false
    },
    {
      "id": "osm_node_7342798087",
      "nombre": "Mosquito",
      "tipo": "bar",
      "lat": 38.6889,
      "lon": -4.1080565,
      "direccion": "Paseo de San Gregorio 33",
      "codigo_postal": "13500",
      "telefono": null,
      "web": null,
      "instagram": null,
      "horario": null,
      "terraza": false
    },
    {
      "id": "osm_node_7343475243",
      "nombre": "Mr. Gin",
      "tipo": "bar",
      "lat": 38.6892716,
      "lon": -4.1088287,
      "direccion": null,
      "codigo_postal": null,
      "telefono": null,
      "web": null,
      "instagram": null,
      "horario": null,
      "terraza": false
    },
    {
      "id": "osm_node_7343488789",
      "nombre": "La Canela",
      "tipo": "cafe",
      "lat": 38.6872515,
      "lon": -4.1061874,
      "direccion": null,
      "codigo_postal": null,
      "telefono": null,
      "web": null,
      "instagram": null,
      "horario": null,
      "terraza": false
    },
    {
      "id": "osm_node_7503249448",
      "nombre": "Casa Manolo",
      "tipo": "bar",
      "lat": 38.9828581,
      "lon": -3.9388983,
      "direccion": "Calle de José de Ribera 11",
      "codigo_postal": "13002",
      "telefono": null,
      "web": null,
      "instagram": null,
      "horario": null,
      "terraza": true
    },
    {
      "id": "osm_node_7503249451",
      "nombre": "Bar Rony",
      "tipo": "bar",
      "lat": 38.9832199,
      "lon": -3.9390403,
      "direccion": "Calle de José de Ribera 12",
      "codigo_postal": "13002",
      "telefono": null,
      "web": null,
      "instagram": null,
      "horario": null,
      "terraza": true
    },
    {
      "id": "osm_node_7503249455",
      "nombre": "Churrería La Hormiga",
      "tipo": "cafe",
      "lat": 38.9849493,
      "lon": -3.939288,
      "direccion": "Camino Campillo 58",
      "codigo_postal": "13002",
      "telefono": null,
      "web": null,
      "instagram": null,
      "horario": null,
      "terraza": true
    },
    {
      "id": "osm_node_7810418337",
      "nombre": "Bar La Piscina",
      "tipo": "cafe",
      "lat": 39.3077605,
      "lon": -3.0240861,
      "direccion": null,
      "codigo_postal": null,
      "telefono": null,
      "web": null,
      "instagram": null,
      "horario": null,
      "terraza": false
    },
    {
      "id": "osm_node_7810418340",
      "nombre": "Casino",
      "tipo": "cafe",
      "lat": 39.3099446,
      "lon": -3.0266296,
      "direccion": null,
      "codigo_postal": null,
      "telefono": null,
      "web": null,
      "instagram": null,
      "horario": null,
      "terraza": false
    },
    {
      "id": "osm_node_7810732747",
      "nombre": "Bar Mari Carmen",
      "tipo": "cafe",
      "lat": 39.402976,
      "lon": -3.1195459,
      "direccion": null,
      "codigo_postal": null,
      "telefono": null,
      "web": null,
      "instagram": null,
      "horario": null,
      "terraza": false
    },
    {
      "id": "osm_node_7810732751",
      "nombre": "Churrería San Sebastián",
      "tipo": "cafe",
      "lat": 39.4057345,
      "lon": -3.1172808,
      "direccion": null,
      "codigo_postal": null,
      "telefono": null,
      "web": null,
      "instagram": null,
      "horario": null,
      "terraza": false
    },
    {
      "id": "osm_node_7810732762",
      "nombre": "Verano Pablo",
      "tipo": "pub",
      "lat": 39.400236,
      "lon": -3.1205142,
      "direccion": null,
      "codigo_postal": null,
      "telefono": null,
      "web": null,
      "instagram": null,
      "horario": null,
      "terraza": false
    },
    {
      "id": "osm_node_7810732765",
      "nombre": "Bar La Espuela",
      "tipo": "cafe",
      "lat": 39.398524,
      "lon": -3.1243926,
      "direccion": null,
      "codigo_postal": null,
      "telefono": null,
      "web": null,
      "instagram": null,
      "horario": null,
      "terraza": false
    },
    {
      "id": "osm_node_7810732767",
      "nombre": "Churrería Colón",
      "tipo": "cafe",
      "lat": 39.398068,
      "lon": -3.1283006,
      "direccion": null,
      "codigo_postal": null,
      "telefono": null,
      "web": null,
      "instagram": null,
      "horario": null,
      "terraza": false
    },
    {
      "id": "osm_node_7813104149",
      "nombre": "El Rincón de Lola",
      "tipo": "cafe",
      "lat": 39.4005888,
      "lon": -3.1271956,
      "direccion": null,
      "codigo_postal": null,
      "telefono": null,
      "web": null,
      "instagram": null,
      "horario": null,
      "terraza": false
    },
    {
      "id": "osm_node_7813104150",
      "nombre": "El Encuentro",
      "tipo": "cafe",
      "lat": 39.4006699,
      "lon": -3.1272094,
      "direccion": null,
      "codigo_postal": null,
      "telefono": null,
      "web": null,
      "instagram": null,
      "horario": null,
      "terraza": false
    },
    {
      "id": "osm_node_7813104152",
      "nombre": "Tapeo Los Gigantes",
      "tipo": "cafe",
      "lat": 39.401038,
      "lon": -3.1276486,
      "direccion": null,
      "codigo_postal": null,
      "telefono": null,
      "web": null,
      "instagram": null,
      "horario": null,
      "terraza": false
    },
    {
      "id": "osm_node_7813104153",
      "nombre": "Los Molinos",
      "tipo": "cafe",
      "lat": 39.4011448,
      "lon": -3.1280504,
      "direccion": null,
      "codigo_postal": null,
      "telefono": null,
      "web": null,
      "instagram": null,
      "horario": null,
      "terraza": false
    },
    {
      "id": "osm_node_7813104164",
      "nombre": "Chaflán",
      "tipo": "cafe",
      "lat": 39.403565,
      "lon": -3.1322115,
      "direccion": null,
      "codigo_postal": null,
      "telefono": null,
      "web": null,
      "instagram": null,
      "horario": null,
      "terraza": false
    },
    {
      "id": "osm_node_7813104166",
      "nombre": "Evita",
      "tipo": "cafe",
      "lat": 39.4024942,
      "lon": -3.1352504,
      "direccion": null,
      "codigo_postal": null,
      "telefono": null,
      "web": null,
      "instagram": null,
      "horario": null,
      "terraza": false
    },
    {
      "id": "osm_node_7813504171",
      "nombre": "Cervecería Santa Ana",
      "tipo": "cafe",
      "lat": 39.4061179,
      "lon": -3.1251356,
      "direccion": null,
      "codigo_postal": null,
      "telefono": null,
      "web": null,
      "instagram": null,
      "horario": null,
      "terraza": false
    },
    {
      "id": "osm_node_7813504172",
      "nombre": "Bolera Bohemios",
      "tipo": "bar",
      "lat": 39.4063334,
      "lon": -3.1263694,
      "direccion": null,
      "codigo_postal": null,
      "telefono": null,
      "web": null,
      "instagram": null,
      "horario": null,
      "terraza": false
    },
    {
      "id": "osm_node_7813504176",
      "nombre": "El Pósito",
      "tipo": "cafe",
      "lat": 39.4049844,
      "lon": -3.1265174,
      "direccion": null,
      "codigo_postal": null,
      "telefono": null,
      "web": null,
      "instagram": null,
      "horario": null,
      "terraza": false
    },
    {
      "id": "osm_node_7890864752",
      "nombre": "Bar La Plaza",
      "tipo": "pub",
      "lat": 39.405407,
      "lon": -3.1264901,
      "direccion": null,
      "codigo_postal": null,
      "telefono": null,
      "web": null,
      "instagram": null,
      "horario": null,
      "terraza": false
    },
    {
      "id": "osm_node_7890864753",
      "nombre": "Bar Yesterday",
      "tipo": "pub",
      "lat": 39.4022656,
      "lon": -3.1258056,
      "direccion": null,
      "codigo_postal": null,
      "telefono": null,
      "web": null,
      "instagram": null,
      "horario": null,
      "terraza": false
    },
    {
      "id": "osm_node_8054729224",
      "nombre": "Bar La Bodeguilla",
      "tipo": "pub",
      "lat": 38.8443367,
      "lon": -3.2410427,
      "direccion": null,
      "codigo_postal": null,
      "telefono": "+34 926 630000",
      "web": null,
      "instagram": null,
      "horario": null,
      "terraza": false
    },
    {
      "id": "osm_node_8054729225",
      "nombre": "Bar Guchi",
      "tipo": "pub",
      "lat": 38.8445649,
      "lon": -3.2425332,
      "direccion": null,
      "codigo_postal": null,
      "telefono": "+34 926 630118",
      "web": null,
      "instagram": null,
      "horario": null,
      "terraza": false
    },
    {
      "id": "osm_node_8055353105",
      "nombre": "Guerra",
      "tipo": "pub",
      "lat": 38.8426609,
      "lon": -3.241576,
      "direccion": null,
      "codigo_postal": null,
      "telefono": "+34 666 861677",
      "web": null,
      "instagram": null,
      "horario": null,
      "terraza": false
    },
    {
      "id": "osm_node_8433333925",
      "nombre": "Pub Paradise",
      "tipo": "bar",
      "lat": 38.4659233,
      "lon": -4.0727672,
      "direccion": null,
      "codigo_postal": null,
      "telefono": null,
      "web": null,
      "instagram": null,
      "horario": null,
      "terraza": false
    },
    {
      "id": "osm_node_8433333926",
      "nombre": "Luisfer",
      "tipo": "cafe",
      "lat": 38.4657451,
      "lon": -4.0720578,
      "direccion": null,
      "codigo_postal": null,
      "telefono": null,
      "web": null,
      "instagram": null,
      "horario": null,
      "terraza": false
    },
    {
      "id": "osm_node_8833452273",
      "nombre": "Cerveceria Pinky",
      "tipo": "pub",
      "lat": 38.5226053,
      "lon": -3.5641829,
      "direccion": null,
      "codigo_postal": null,
      "telefono": "+34 926 336616",
      "web": null,
      "instagram": null,
      "horario": null,
      "terraza": false
    },
    {
      "id": "osm_node_8833474780",
      "nombre": "El Pradillo",
      "tipo": "pub",
      "lat": 38.5229435,
      "lon": -3.5623349,
      "direccion": null,
      "codigo_postal": null,
      "telefono": "+34 680 983215",
      "web": null,
      "instagram": null,
      "horario": null,
      "terraza": true
    },
    {
      "id": "osm_node_8890388379",
      "nombre": "Bar Castellanos",
      "tipo": "bar",
      "lat": 38.798116,
      "lon": -3.7421203,
      "direccion": "Calle Duque Victoria 4",
      "codigo_postal": "13360",
      "telefono": null,
      "web": null,
      "instagram": null,
      "horario": "Mo-Su 07:00-02:00",
      "terraza": false
    },
    {
      "id": "osm_node_8908021017",
      "nombre": "Pingüino",
      "tipo": "bar",
      "lat": 39.2348993,
      "lon": -3.7721209,
      "direccion": null,
      "codigo_postal": null,
      "telefono": null,
      "web": null,
      "instagram": null,
      "horario": null,
      "terraza": false
    },
    {
      "id": "osm_node_9666897981",
      "nombre": "Café América",
      "tipo": "cafe",
      "lat": 39.4041231,
      "lon": -2.9570818,
      "direccion": null,
      "codigo_postal": null,
      "telefono": null,
      "web": null,
      "instagram": null,
      "horario": null,
      "terraza": false
    },
    {
      "id": "osm_node_9666897983",
      "nombre": "Pub Publik",
      "tipo": "bar",
      "lat": 39.3916652,
      "lon": -2.9509181,
      "direccion": null,
      "codigo_postal": null,
      "telefono": null,
      "web": null,
      "instagram": null,
      "horario": null,
      "terraza": false
    },
    {
      "id": "osm_node_9741724659",
      "nombre": "Café & Cía",
      "tipo": "cafe",
      "lat": 38.7595835,
      "lon": -3.3787768,
      "direccion": null,
      "codigo_postal": null,
      "telefono": null,
      "web": null,
      "instagram": null,
      "horario": null,
      "terraza": false
    },
    {
      "id": "osm_node_9749737611",
      "nombre": "Café-Bar Mere",
      "tipo": "pub",
      "lat": 38.9976247,
      "lon": -3.3707679,
      "direccion": null,
      "codigo_postal": null,
      "telefono": null,
      "web": null,
      "instagram": null,
      "horario": null,
      "terraza": true
    },
    {
      "id": "osm_node_9898464317",
      "nombre": "Cafetería",
      "tipo": "bar",
      "lat": 38.8843466,
      "lon": -3.3909225,
      "direccion": null,
      "codigo_postal": null,
      "telefono": null,
      "web": null,
      "instagram": null,
      "horario": null,
      "terraza": false
    },
    {
      "id": "osm_node_9900671217",
      "nombre": "El Comedor de la Mancha",
      "tipo": "bar",
      "lat": 39.1085318,
      "lon": -3.3777206,
      "direccion": null,
      "codigo_postal": null,
      "telefono": null,
      "web": null,
      "instagram": null,
      "horario": null,
      "terraza": false
    },
    {
      "id": "osm_node_10143465519",
      "nombre": "Eventos Tapería",
      "tipo": "bar",
      "lat": 39.36707,
      "lon": -3.354526,
      "direccion": null,
      "codigo_postal": null,
      "telefono": null,
      "web": null,
      "instagram": null,
      "horario": null,
      "terraza": false
    },
    {
      "id": "osm_node_10155521521",
      "nombre": "K'felito",
      "tipo": "bar",
      "lat": 38.9648266,
      "lon": -3.8893393,
      "direccion": null,
      "codigo_postal": null,
      "telefono": null,
      "web": null,
      "instagram": null,
      "horario": null,
      "terraza": false
    },
    {
      "id": "osm_node_10229416362",
      "nombre": "Melocomotodo",
      "tipo": "pub",
      "lat": 39.4001013,
      "lon": -3.1212008,
      "direccion": null,
      "codigo_postal": null,
      "telefono": null,
      "web": null,
      "instagram": null,
      "horario": null,
      "terraza": false
    },
    {
      "id": "osm_node_10229416363",
      "nombre": "La Sal",
      "tipo": "pub",
      "lat": 39.4001261,
      "lon": -3.1210694,
      "direccion": null,
      "codigo_postal": null,
      "telefono": null,
      "web": null,
      "instagram": null,
      "horario": null,
      "terraza": true
    },
    {
      "id": "osm_node_10255866950",
      "nombre": "Mi Cortijo",
      "tipo": "cafe",
      "lat": 38.5211223,
      "lon": -3.5618394,
      "direccion": null,
      "codigo_postal": null,
      "telefono": null,
      "web": null,
      "instagram": null,
      "horario": null,
      "terraza": false
    },
    {
      "id": "osm_node_10561889582",
      "nombre": "El racimo de oro",
      "tipo": "pub",
      "lat": 39.3898598,
      "lon": -3.2100312,
      "direccion": null,
      "codigo_postal": null,
      "telefono": null,
      "web": null,
      "instagram": null,
      "horario": null,
      "terraza": false
    },
    {
      "id": "osm_node_11113557341",
      "nombre": "La lonja",
      "tipo": "pub",
      "lat": 39.3895364,
      "lon": -3.2106931,
      "direccion": null,
      "codigo_postal": null,
      "telefono": null,
      "web": null,
      "instagram": null,
      "horario": null,
      "terraza": false
    },
    {
      "id": "osm_node_11146281105",
      "nombre": "Platea Bar Café",
      "tipo": "bar",
      "lat": 38.8887351,
      "lon": -3.7123291,
      "direccion": "Plaza Mayor 39",
      "codigo_postal": null,
      "telefono": null,
      "web": null,
      "instagram": null,
      "horario": null,
      "terraza": false
    },
    {
      "id": "osm_node_11169050710",
      "nombre": "La Patricia",
      "tipo": "cafe",
      "lat": 39.3900273,
      "lon": -3.2118338,
      "direccion": null,
      "codigo_postal": null,
      "telefono": null,
      "web": null,
      "instagram": null,
      "horario": "We-Mo,PH 07:00-11:30",
      "terraza": false
    },
    {
      "id": "osm_node_11195932238",
      "nombre": "Disco-Bar Enco",
      "tipo": "bar",
      "lat": 38.5220066,
      "lon": -3.5591169,
      "direccion": null,
      "codigo_postal": null,
      "telefono": null,
      "web": null,
      "instagram": null,
      "horario": null,
      "terraza": false
    },
    {
      "id": "osm_node_11278344139",
      "nombre": "Bar La Vendimia",
      "tipo": "pub",
      "lat": 39.0473014,
      "lon": -3.5897355,
      "direccion": null,
      "codigo_postal": null,
      "telefono": "+34 653 023 193",
      "web": null,
      "instagram": null,
      "horario": null,
      "terraza": false
    },
    {
      "id": "osm_node_11343224504",
      "nombre": "La Pintona Craft Beer",
      "tipo": "pub",
      "lat": 39.3672821,
      "lon": -3.3552284,
      "direccion": "12",
      "codigo_postal": null,
      "telefono": "+34 622 82 69 17",
      "web": "https://www.cervezalamaldita.com/",
      "instagram": null,
      "horario": "Fr 19:00-02:00; Sa 12:00-16:00,19:00-02:00; Su 12:00-16:00,17:00-01:00",
      "terraza": false
    },
    {
      "id": "osm_node_11727895720",
      "nombre": "Los Alisos",
      "tipo": "bar",
      "lat": 38.9831843,
      "lon": -3.9387799,
      "direccion": "Calle Goya",
      "codigo_postal": "13002",
      "telefono": null,
      "web": null,
      "instagram": null,
      "horario": "Mo-Su 10:00-22:00",
      "terraza": true
    },
    {
      "id": "osm_node_11913593540",
      "nombre": "Bar Jamón Jamón",
      "tipo": "bar",
      "lat": 38.8887281,
      "lon": -3.7122358,
      "direccion": null,
      "codigo_postal": null,
      "telefono": null,
      "web": null,
      "instagram": null,
      "horario": null,
      "terraza": false
    },
    {
      "id": "osm_node_11913593541",
      "nombre": "Cafetería Teo",
      "tipo": "cafe",
      "lat": 38.8883537,
      "lon": -3.7123339,
      "direccion": null,
      "codigo_postal": null,
      "telefono": null,
      "web": null,
      "instagram": null,
      "horario": "07:00-13:00",
      "terraza": false
    },
    {
      "id": "osm_node_11913593545",
      "nombre": "Bar Biki Bat",
      "tipo": "bar",
      "lat": 38.8884176,
      "lon": -3.7120695,
      "direccion": null,
      "codigo_postal": null,
      "telefono": null,
      "web": null,
      "instagram": null,
      "horario": null,
      "terraza": false
    },
    {
      "id": "osm_node_11913593546",
      "nombre": "Quebranto",
      "tipo": "bar",
      "lat": 38.8888934,
      "lon": -3.7115039,
      "direccion": null,
      "codigo_postal": null,
      "telefono": null,
      "web": null,
      "instagram": null,
      "horario": null,
      "terraza": false
    },
    {
      "id": "osm_node_11913748612",
      "nombre": "Bar Camelo",
      "tipo": "bar",
      "lat": 38.8900329,
      "lon": -3.7075127,
      "direccion": null,
      "codigo_postal": null,
      "telefono": null,
      "web": null,
      "instagram": null,
      "horario": null,
      "terraza": true
    },
    {
      "id": "osm_node_11913748619",
      "nombre": "La Comedia",
      "tipo": "cafe",
      "lat": 38.8901251,
      "lon": -3.7083499,
      "direccion": null,
      "codigo_postal": null,
      "telefono": null,
      "web": null,
      "instagram": null,
      "horario": null,
      "terraza": false
    },
    {
      "id": "osm_node_12010162452",
      "nombre": "Di Roma",
      "tipo": "pub",
      "lat": 38.765113,
      "lon": -3.387583,
      "direccion": null,
      "codigo_postal": null,
      "telefono": null,
      "web": null,
      "instagram": null,
      "horario": null,
      "terraza": false
    },
    {
      "id": "osm_node_12488395133",
      "nombre": "Cervecería-Cafetería El Ruedo",
      "tipo": "cafe",
      "lat": 39.1519249,
      "lon": -3.0244582,
      "direccion": "Calle Don Víctor Peñasco 124",
      "codigo_postal": null,
      "telefono": "+34 926 81 64 46",
      "web": "https://cerveceriaelruedo.es/",
      "instagram": null,
      "horario": null,
      "terraza": true
    },
    {
      "id": "osm_node_12488395138",
      "nombre": "Cafeteria Cerveceria La Plaza",
      "tipo": "cafe",
      "lat": 39.1526044,
      "lon": -3.0236545,
      "direccion": "Calle Don Víctor Peñasco 105",
      "codigo_postal": null,
      "telefono": null,
      "web": null,
      "instagram": null,
      "horario": null,
      "terraza": true
    },
    {
      "id": "osm_node_12492638370",
      "nombre": "Sertyman",
      "tipo": "cafe",
      "lat": 39.1723989,
      "lon": -3.0097222,
      "direccion": null,
      "codigo_postal": null,
      "telefono": null,
      "web": null,
      "instagram": null,
      "horario": null,
      "terraza": true
    },
    {
      "id": "osm_node_12495829829",
      "nombre": "La Casita del Jamón",
      "tipo": "pub",
      "lat": 39.1517812,
      "lon": -3.0244901,
      "direccion": "Calle Don Víctor Peñasco 126",
      "codigo_postal": null,
      "telefono": null,
      "web": null,
      "instagram": null,
      "horario": null,
      "terraza": false
    },
    {
      "id": "osm_node_12847666882",
      "nombre": "Tapi tapitas",
      "tipo": "pub",
      "lat": 38.9961648,
      "lon": -3.3726465,
      "direccion": null,
      "codigo_postal": null,
      "telefono": null,
      "web": null,
      "instagram": null,
      "horario": null,
      "terraza": false
    },
    {
      "id": "osm_node_13009069615",
      "nombre": "Café-Bar Avenida",
      "tipo": "cafe",
      "lat": 39.1561921,
      "lon": -3.0224203,
      "direccion": "Calle Don Víctor Peñasco 35",
      "codigo_postal": "13700",
      "telefono": "+34 926 51 21 12",
      "web": null,
      "instagram": null,
      "horario": null,
      "terraza": true
    },
    {
      "id": "osm_node_13015354939",
      "nombre": "Cafetería Uclés",
      "tipo": "cafe",
      "lat": 39.1577784,
      "lon": -3.0219492,
      "direccion": "Calle Don Víctor Peñasco 12",
      "codigo_postal": "13700",
      "telefono": "+34 722 34 41 93",
      "web": null,
      "instagram": null,
      "horario": null,
      "terraza": true
    },
    {
      "id": "osm_node_13015354942",
      "nombre": "El Rinconcito",
      "tipo": "cafe",
      "lat": 39.1580381,
      "lon": -3.0218193,
      "direccion": "Calle Don Víctor Peñasco 2",
      "codigo_postal": "13700",
      "telefono": null,
      "web": null,
      "instagram": null,
      "horario": null,
      "terraza": false
    },
    {
      "id": "osm_node_13015401463",
      "nombre": "El 5º pecado",
      "tipo": "cafe",
      "lat": 39.1484564,
      "lon": -3.0226352,
      "direccion": "Avenida D. Antonio Huertas 39",
      "codigo_postal": "13700",
      "telefono": "+34 622 39 18 24",
      "web": null,
      "instagram": null,
      "horario": null,
      "terraza": true
    },
    {
      "id": "osm_node_13028311021",
      "nombre": "Pub Grandma Club Hookahs",
      "tipo": "pub",
      "lat": 39.149296,
      "lon": -3.0206322,
      "direccion": "Avenida D. Antonio Huertas 55",
      "codigo_postal": null,
      "telefono": "+34 652 06 42 87",
      "web": "https://grandma.es/",
      "instagram": null,
      "horario": null,
      "terraza": false
    },
    {
      "id": "osm_node_13031388700",
      "nombre": "Black Café Cocktail",
      "tipo": "cafe",
      "lat": 39.1499844,
      "lon": -3.0180841,
      "direccion": "Avenida D. Antonio Huertas 46",
      "codigo_postal": "13700",
      "telefono": null,
      "web": "http://instagram.com/blackcafecocktail/",
      "instagram": null,
      "horario": null,
      "terraza": true
    },
    {
      "id": "osm_node_13033810485",
      "nombre": "Cafe Los 80's",
      "tipo": "cafe",
      "lat": 39.1515193,
      "lon": -3.0144047,
      "direccion": "Avenida D. Antonio Huertas 86",
      "codigo_postal": "13700",
      "telefono": null,
      "web": null,
      "instagram": null,
      "horario": null,
      "terraza": false
    },
    {
      "id": "osm_node_13033810490",
      "nombre": "Cafetería Pastelería Tres Caprichos",
      "tipo": "cafe",
      "lat": 39.1519057,
      "lon": -3.01342,
      "direccion": "Avenida D. Antonio Huertas 118",
      "codigo_postal": "13700",
      "telefono": "+34 622 78 79 34",
      "web": null,
      "instagram": null,
      "horario": null,
      "terraza": true
    },
    {
      "id": "osm_node_13033810495",
      "nombre": "Cervecería El Sitio",
      "tipo": "cafe",
      "lat": 39.1522533,
      "lon": -3.0132351,
      "direccion": "Avenida D. Antonio Huertas 149",
      "codigo_postal": "13700",
      "telefono": "+34 643 72 42 24",
      "web": null,
      "instagram": null,
      "horario": null,
      "terraza": true
    },
    {
      "id": "osm_node_13033810498",
      "nombre": "MALHABAD Café Pub",
      "tipo": "cafe",
      "lat": 39.1524523,
      "lon": -3.0127774,
      "direccion": "Avenida D. Antonio Huertas 161",
      "codigo_postal": "13700",
      "telefono": null,
      "web": null,
      "instagram": null,
      "horario": null,
      "terraza": false
    },
    {
      "id": "osm_node_13050059428",
      "nombre": "Pub Tabú",
      "tipo": "cafe",
      "lat": 39.1530196,
      "lon": -3.011453,
      "direccion": "Avenida Juan Carlos I 7",
      "codigo_postal": "13700",
      "telefono": null,
      "web": "https://jjchosteleros.com/",
      "instagram": null,
      "horario": null,
      "terraza": true
    },
    {
      "id": "osm_node_13050059432",
      "nombre": "Café Bar La Reata",
      "tipo": "cafe",
      "lat": 39.1538471,
      "lon": -3.0100001,
      "direccion": "Avenida Juan Carlos I 31",
      "codigo_postal": "13700",
      "telefono": null,
      "web": null,
      "instagram": null,
      "horario": null,
      "terraza": true
    },
    {
      "id": "osm_node_13050059434",
      "nombre": "Bar Buena Fuente",
      "tipo": "cafe",
      "lat": 39.1540715,
      "lon": -3.0095829,
      "direccion": "Avenida Juan Carlos I 37",
      "codigo_postal": "13700",
      "telefono": null,
      "web": null,
      "instagram": null,
      "horario": null,
      "terraza": false
    },
    {
      "id": "osm_node_13050059448",
      "nombre": "Cafetería Cervecería \"Los Gemelos\"",
      "tipo": "cafe",
      "lat": 39.1545175,
      "lon": -3.0082555,
      "direccion": "Avenida Juan Carlos I 32",
      "codigo_postal": "13700",
      "telefono": "+34 677 01 93 18",
      "web": null,
      "instagram": null,
      "horario": null,
      "terraza": true
    },
    {
      "id": "osm_node_13050059450",
      "nombre": "Pub Anabel",
      "tipo": "cafe",
      "lat": 39.1542643,
      "lon": -3.008696,
      "direccion": "Avenida Juan Carlos I 28",
      "codigo_postal": "13700",
      "telefono": "+34 679 56 13 12",
      "web": null,
      "instagram": null,
      "horario": null,
      "terraza": false
    },
    {
      "id": "osm_node_13052122366",
      "nombre": "Santa Fe Station",
      "tipo": "pub",
      "lat": 39.1597294,
      "lon": -3.0066572,
      "direccion": "Avenida Juan Carlos I 107",
      "codigo_postal": "13700",
      "telefono": "+34 676 82 54 17",
      "web": null,
      "instagram": null,
      "horario": null,
      "terraza": true
    },
    {
      "id": "osm_node_13052122368",
      "nombre": "Cafe-Pub La Velada",
      "tipo": "cafe",
      "lat": 39.1616467,
      "lon": -3.0066832,
      "direccion": "Avenida Juan Carlos I 121",
      "codigo_postal": "13700",
      "telefono": "+34 675 65 17 79",
      "web": null,
      "instagram": null,
      "horario": null,
      "terraza": true
    },
    {
      "id": "osm_node_13063382060",
      "nombre": "Yuma Cervecería",
      "tipo": "cafe",
      "lat": 39.1627209,
      "lon": -3.0176914,
      "direccion": "Calle Socuéllamos 107",
      "codigo_postal": "13700",
      "telefono": null,
      "web": null,
      "instagram": null,
      "horario": null,
      "terraza": false
    },
    {
      "id": "osm_node_13063382065",
      "nombre": "Cafetería-Bar El Labrador",
      "tipo": "cafe",
      "lat": 39.164504,
      "lon": -3.0163369,
      "direccion": "Avenida de la Virgen Viñas 7",
      "codigo_postal": "13700",
      "telefono": null,
      "web": null,
      "instagram": null,
      "horario": null,
      "terraza": false
    },
    {
      "id": "osm_node_13070806471",
      "nombre": "TapaCarta",
      "tipo": "cafe",
      "lat": 39.1521405,
      "lon": -3.0107877,
      "direccion": "Calle Plinio 1",
      "codigo_postal": "13700",
      "telefono": "+34 926 51 01 34",
      "web": "vhttps://tapaalacarta.com/",
      "instagram": null,
      "horario": null,
      "terraza": true
    },
    {
      "id": "osm_node_13070806474",
      "nombre": "Cafetería Bar La Poma",
      "tipo": "cafe",
      "lat": 39.1528237,
      "lon": -3.0122857,
      "direccion": "Calle Doña Crisanta 150",
      "codigo_postal": "13700",
      "telefono": "+34 926 50 62 87",
      "web": "https://lapoma-tomelloso.jimdosite.com/",
      "instagram": null,
      "horario": null,
      "terraza": true
    },
    {
      "id": "osm_node_13401328585",
      "nombre": "Excalibur",
      "tipo": "pub",
      "lat": 39.2284401,
      "lon": -3.7749686,
      "direccion": null,
      "codigo_postal": null,
      "telefono": null,
      "web": null,
      "instagram": null,
      "horario": null,
      "terraza": false
    },
    {
      "id": "osm_node_13524190732",
      "nombre": "Cafetería New York",
      "tipo": "cafe",
      "lat": 39.1588622,
      "lon": -3.0217913,
      "direccion": "Calle Campo 10",
      "codigo_postal": "13700",
      "telefono": null,
      "web": null,
      "instagram": null,
      "horario": null,
      "terraza": false
    },
    {
      "id": "osm_node_13584824123",
      "nombre": "Cup of love",
      "tipo": "cafe",
      "lat": 39.1563006,
      "lon": -3.0230243,
      "direccion": "Calle Francisco García Pavón 3",
      "codigo_postal": "13700",
      "telefono": null,
      "web": null,
      "instagram": null,
      "horario": null,
      "terraza": false
    },
    {
      "id": "osm_node_13585601567",
      "nombre": "Cafetería Gran Vía",
      "tipo": "cafe",
      "lat": 39.1563266,
      "lon": -3.0234942,
      "direccion": "Calle Francisco García Pavón 18",
      "codigo_postal": "13700",
      "telefono": null,
      "web": "https://restaurantegranvia.com/",
      "instagram": null,
      "horario": null,
      "terraza": true
    },
    {
      "id": "osm_node_13595570301",
      "nombre": "Cafetería Cano’s",
      "tipo": "cafe",
      "lat": 39.1575033,
      "lon": -3.0207418,
      "direccion": "Calle Independencia 9",
      "codigo_postal": "13700",
      "telefono": null,
      "web": null,
      "instagram": null,
      "horario": null,
      "terraza": true
    },
    {
      "id": "osm_node_13599025081",
      "nombre": "Café de la Glorieta",
      "tipo": "cafe",
      "lat": 39.1551392,
      "lon": -3.0204296,
      "direccion": "Calle Pintor López Torres 29",
      "codigo_postal": "13700",
      "telefono": "+34 692 63 50 23",
      "web": "https://m.facebook.com/cafetindelaglorieta1982?refsrc=https://es-es.facebook.com/cafetindelaglorieta1982",
      "instagram": null,
      "horario": null,
      "terraza": false
    },
    {
      "id": "osm_node_13599025093",
      "nombre": "Mónaco Irish Pub",
      "tipo": "cafe",
      "lat": 39.1559706,
      "lon": -3.0218867,
      "direccion": "Calle Azucena 7",
      "codigo_postal": "13700",
      "telefono": null,
      "web": null,
      "instagram": null,
      "horario": null,
      "terraza": false
    },
    {
      "id": "osm_node_13599025094",
      "nombre": "Memphis Pub",
      "tipo": "cafe",
      "lat": 39.1559294,
      "lon": -3.0216319,
      "direccion": "Calle Azucena 13",
      "codigo_postal": "13700",
      "telefono": null,
      "web": null,
      "instagram": null,
      "horario": null,
      "terraza": false
    },
    {
      "id": "osm_node_13602709419",
      "nombre": "Cafetería Julia",
      "tipo": "cafe",
      "lat": 39.1579388,
      "lon": -3.0207739,
      "direccion": "Calle D. Evaristo 3",
      "codigo_postal": "13700",
      "telefono": null,
      "web": "https://cafeteriajulia.com/",
      "instagram": null,
      "horario": null,
      "terraza": true
    },
    {
      "id": "osm_node_13620219395",
      "nombre": "El Pasaje",
      "tipo": "cafe",
      "lat": 39.1583175,
      "lon": -3.0202464,
      "direccion": "Pasaje Iglesia",
      "codigo_postal": "13700",
      "telefono": "+34 642 37 34 09",
      "web": null,
      "instagram": null,
      "horario": null,
      "terraza": true
    },
    {
      "id": "osm_node_13620220401",
      "nombre": "Churrería Tejeringos",
      "tipo": "cafe",
      "lat": 39.1595871,
      "lon": -3.0218299,
      "direccion": "Calle Veracruz 7",
      "codigo_postal": "13700",
      "telefono": "+34 926 50 16 89",
      "web": "http://www.tejeringos.es/",
      "instagram": null,
      "horario": null,
      "terraza": false
    },
    {
      "id": "osm_node_13622922891",
      "nombre": "Apple Café",
      "tipo": "cafe",
      "lat": 39.1600418,
      "lon": -3.0216949,
      "direccion": "Plaza del Mercado 10",
      "codigo_postal": null,
      "telefono": null,
      "web": null,
      "instagram": null,
      "horario": null,
      "terraza": false
    },
    {
      "id": "osm_node_13655030592",
      "nombre": "Cafetería La Tertulia",
      "tipo": "cafe",
      "lat": 39.150691,
      "lon": -3.0254632,
      "direccion": "Calle Buenos Aires 54",
      "codigo_postal": "13700",
      "telefono": "+34 695 56 81 98",
      "web": null,
      "instagram": null,
      "horario": null,
      "terraza": true
    },
    {
      "id": "osm_node_13655035201",
      "nombre": "La Casona Churrería-Cervecería",
      "tipo": "cafe",
      "lat": 39.1482537,
      "lon": -3.0275846,
      "direccion": "Paseo Ramón Ugena 31",
      "codigo_postal": "13700",
      "telefono": null,
      "web": null,
      "instagram": null,
      "horario": null,
      "terraza": true
    },
    {
      "id": "osm_way_300543001",
      "nombre": "Bar Piscina Municipal",
      "tipo": "bar",
      "lat": 39.327614,
      "lon": -4.652226,
      "direccion": null,
      "codigo_postal": null,
      "telefono": null,
      "web": null,
      "instagram": null,
      "horario": null,
      "terraza": false
    },
    {
      "id": "osm_way_314696338",
      "nombre": "Las Musas",
      "tipo": "bar",
      "lat": 39.408762,
      "lon": -3.12375,
      "direccion": "Calle Barbero 3,5,7",
      "codigo_postal": "13610",
      "telefono": "+34 926589191",
      "web": "http://www.lasmusasrestaurante.com/",
      "instagram": null,
      "horario": null,
      "terraza": false
    },
    {
      "id": "osm_way_314696339",
      "nombre": "Las Musas",
      "tipo": "bar",
      "lat": 39.408816,
      "lon": -3.12363,
      "direccion": null,
      "codigo_postal": null,
      "telefono": null,
      "web": "http://www.lasmusasrestaurante.com/",
      "instagram": null,
      "horario": null,
      "terraza": false
    },
    {
      "id": "osm_way_362482963",
      "nombre": "Bar Lady Ana",
      "tipo": "bar",
      "lat": 39.315085,
      "lon": -4.0599,
      "direccion": "Avenida Emperador Carlos V",
      "codigo_postal": "13427",
      "telefono": null,
      "web": null,
      "instagram": null,
      "horario": null,
      "terraza": false
    },
    {
      "id": "osm_way_362487664",
      "nombre": "Bar Qué Tomas?",
      "tipo": "bar",
      "lat": 39.314208,
      "lon": -4.04438,
      "direccion": "Avenida de Castilla La Mancha 39",
      "codigo_postal": "13427",
      "telefono": null,
      "web": null,
      "instagram": null,
      "horario": null,
      "terraza": false
    },
    {
      "id": "osm_way_458173037",
      "nombre": "Pub El Paso",
      "tipo": "pub",
      "lat": 39.327498,
      "lon": -4.649079,
      "direccion": "Carretera de Retuerta 18",
      "codigo_postal": "13110",
      "telefono": null,
      "web": null,
      "instagram": null,
      "horario": null,
      "terraza": false
    },
    {
      "id": "osm_way_511120435",
      "nombre": "Hermanos Muñoz",
      "tipo": "bar",
      "lat": 38.93582,
      "lon": -3.98152,
      "direccion": "Calle de Cervantes",
      "codigo_postal": "13195",
      "telefono": null,
      "web": null,
      "instagram": null,
      "horario": null,
      "terraza": false
    },
    {
      "id": "osm_way_511120436",
      "nombre": "Cervantes",
      "tipo": "bar",
      "lat": 38.936387,
      "lon": -3.980612,
      "direccion": "Calle de Cervantes",
      "codigo_postal": "13195",
      "telefono": null,
      "web": null,
      "instagram": null,
      "horario": null,
      "terraza": false
    },
    {
      "id": "osm_way_511120438",
      "nombre": "Los Jardines",
      "tipo": "bar",
      "lat": 38.93695,
      "lon": -3.979696,
      "direccion": null,
      "codigo_postal": null,
      "telefono": null,
      "web": null,
      "instagram": null,
      "horario": null,
      "terraza": false
    },
    {
      "id": "osm_way_550859543",
      "nombre": "El Mirador",
      "tipo": "bar",
      "lat": 39.150775,
      "lon": -3.024855,
      "direccion": null,
      "codigo_postal": null,
      "telefono": null,
      "web": null,
      "instagram": null,
      "horario": null,
      "terraza": false
    },
    {
      "id": "osm_way_675061521",
      "nombre": "Cafetería de la Estación de Autobuses",
      "tipo": "cafe",
      "lat": 39.128632,
      "lon": -3.103066,
      "direccion": null,
      "codigo_postal": null,
      "telefono": null,
      "web": null,
      "instagram": null,
      "horario": null,
      "terraza": false
    },
    {
      "id": "osm_way_790601934",
      "nombre": "Bar Tu y Yo",
      "tipo": "pub",
      "lat": 38.682705,
      "lon": -4.108046,
      "direccion": "Calle Asdrúbal 10",
      "codigo_postal": "13500",
      "telefono": null,
      "web": null,
      "instagram": null,
      "horario": null,
      "terraza": false
    },
    {
      "id": "osm_way_864483520",
      "nombre": "El Parque",
      "tipo": "pub",
      "lat": 38.848103,
      "lon": -3.23983,
      "direccion": null,
      "codigo_postal": null,
      "telefono": null,
      "web": null,
      "instagram": null,
      "horario": null,
      "terraza": false
    },
    {
      "id": "osm_way_924766833",
      "nombre": "Cafeteria ADV Miguelturra",
      "tipo": "cafe",
      "lat": 38.960553,
      "lon": -3.883034,
      "direccion": null,
      "codigo_postal": null,
      "telefono": null,
      "web": null,
      "instagram": null,
      "horario": null,
      "terraza": true
    },
    {
      "id": "osm_way_1085062765",
      "nombre": "Bar Angel",
      "tipo": "cafe",
      "lat": 38.61527,
      "lon": -4.184358,
      "direccion": null,
      "codigo_postal": null,
      "telefono": null,
      "web": null,
      "instagram": null,
      "horario": null,
      "terraza": false
    },
    {
      "id": "osm_way_1206147154",
      "nombre": "Hogar del Jubilado",
      "tipo": "pub",
      "lat": 38.79674,
      "lon": -3.745345,
      "direccion": null,
      "codigo_postal": null,
      "telefono": null,
      "web": null,
      "instagram": null,
      "horario": null,
      "terraza": false
    },
    {
      "id": "osm_way_1425596817",
      "nombre": "Bar del Jubilado",
      "tipo": "pub",
      "lat": 38.694362,
      "lon": -2.696772,
      "direccion": null,
      "codigo_postal": null,
      "telefono": null,
      "web": null,
      "instagram": null,
      "horario": null,
      "terraza": false
    },
    {
      "id": "osm_way_1425604563",
      "nombre": "La Oficina",
      "tipo": "pub",
      "lat": 38.692811,
      "lon": -2.695573,
      "direccion": null,
      "codigo_postal": null,
      "telefono": null,
      "web": null,
      "instagram": null,
      "horario": null,
      "terraza": false
    },
    {
      "id": "osm_way_1425604564",
      "nombre": "Bar Casablanca",
      "tipo": "pub",
      "lat": 38.692944,
      "lon": -2.695411,
      "direccion": null,
      "codigo_postal": null,
      "telefono": null,
      "web": null,
      "instagram": null,
      "horario": null,
      "terraza": false
    },
    {
      "id": "osm_way_1425604566",
      "nombre": "Bar España",
      "tipo": "pub",
      "lat": 38.692737,
      "lon": -2.695019,
      "direccion": null,
      "codigo_postal": null,
      "telefono": null,
      "web": null,
      "instagram": null,
      "horario": null,
      "terraza": false
    },
    {
      "id": "osm_way_1425776482",
      "nombre": "Bar Caldero",
      "tipo": "pub",
      "lat": 38.692196,
      "lon": -2.694972,
      "direccion": null,
      "codigo_postal": null,
      "telefono": null,
      "web": null,
      "instagram": null,
      "horario": null,
      "terraza": false
    },
    {
      "id": "osm_way_1425789471",
      "nombre": "Bar el Mayoral",
      "tipo": "pub",
      "lat": 38.695906,
      "lon": -2.693527,
      "direccion": null,
      "codigo_postal": null,
      "telefono": null,
      "web": null,
      "instagram": null,
      "horario": null,
      "terraza": false
    },
    {
      "id": "osm_way_1425789496",
      "nombre": "Bar El Cruce",
      "tipo": "pub",
      "lat": 38.694952,
      "lon": -2.691461,
      "direccion": null,
      "codigo_postal": null,
      "telefono": null,
      "web": null,
      "instagram": null,
      "horario": null,
      "terraza": false
    },
    {
      "id": "osm_way_1425789497",
      "nombre": "Bar Reyes",
      "tipo": "pub",
      "lat": 38.695099,
      "lon": -2.691768,
      "direccion": null,
      "codigo_postal": null,
      "telefono": null,
      "web": null,
      "instagram": null,
      "horario": null,
      "terraza": false
    },
    {
      "id": "osm_way_1425792216",
      "nombre": "Bar La Parra",
      "tipo": "pub",
      "lat": 38.69285,
      "lon": -2.693598,
      "direccion": null,
      "codigo_postal": null,
      "telefono": null,
      "web": null,
      "instagram": null,
      "horario": null,
      "terraza": false
    },
    {
      "id": "osm_way_1425796128",
      "nombre": "Bar El Porton",
      "tipo": "pub",
      "lat": 38.691889,
      "lon": -2.690204,
      "direccion": null,
      "codigo_postal": null,
      "telefono": null,
      "web": null,
      "instagram": null,
      "horario": null,
      "terraza": false
    },
    {
      "id": "osm_way_1425797127",
      "nombre": "Bar La Piscina",
      "tipo": "pub",
      "lat": 38.692362,
      "lon": -2.688894,
      "direccion": null,
      "codigo_postal": null,
      "telefono": null,
      "web": null,
      "instagram": null,
      "horario": null,
      "terraza": false
    },
    {
      "id": "osm_way_1469110840",
      "nombre": "El Perfil de Sátur",
      "tipo": "bar",
      "lat": 38.5225,
      "lon": -3.55909,
      "direccion": null,
      "codigo_postal": null,
      "telefono": null,
      "web": null,
      "instagram": null,
      "horario": null,
      "terraza": false
    }
  ]
}