{
  "ciudad": "Fuenlabrada",
  "total": 242,
  "locales": [
    {
      "id": "osm_node_848085885",
      "nombre": "Cervecería La Ramona",
      "tipo": "bar",
      "lat": 40.2932992,
      "lon": -3.7910076,
      "direccion": null,
      "codigo_postal": null,
      "telefono": null,
      "web": null,
      "instagram": null,
      "horario": null,
      "terraza": false,
      "musica": null,
      "fuente": "openstreetmap"
    },
    {
      "id": "osm_node_1851321052",
      "nombre": "Café Bar Peña",
      "tipo": "cafe",
      "lat": 40.2885337,
      "lon": -3.7911128,
      "direccion": null,
      "codigo_postal": null,
      "telefono": null,
      "web": null,
      "instagram": null,
      "horario": null,
      "terraza": false,
      "musica": null,
      "fuente": "openstreetmap"
    },
    {
      "id": "osm_node_1853010600",
      "nombre": "Cafetería El Parque",
      "tipo": "cafe",
      "lat": 40.2867183,
      "lon": -3.7908664,
      "direccion": null,
      "codigo_postal": null,
      "telefono": null,
      "web": null,
      "instagram": null,
      "horario": null,
      "terraza": false,
      "musica": null,
      "fuente": "openstreetmap"
    },
    {
      "id": "osm_node_1854115668",
      "nombre": "Cafetería Noroeste",
      "tipo": "bar",
      "lat": 40.2868861,
      "lon": -3.7936614,
      "direccion": null,
      "codigo_postal": null,
      "telefono": null,
      "web": null,
      "instagram": null,
      "horario": null,
      "terraza": false,
      "musica": null,
      "fuente": "openstreetmap"
    },
    {
      "id": "osm_node_1854361087",
      "nombre": "Cafetería Venezuela",
      "tipo": "cafe",
      "lat": 40.2880535,
      "lon": -3.7831529,
      "direccion": "Venezuela 3",
      "codigo_postal": "28945",
      "telefono": null,
      "web": null,
      "instagram": null,
      "horario": null,
      "terraza": false,
      "musica": null,
      "fuente": "openstreetmap"
    },
    {
      "id": "osm_node_1854361164",
      "nombre": "Cervecería Cuzco",
      "tipo": "bar",
      "lat": 40.2883476,
      "lon": -3.7829561,
      "direccion": "Cuzco 32",
      "codigo_postal": "28945",
      "telefono": null,
      "web": null,
      "instagram": null,
      "horario": null,
      "terraza": false,
      "musica": null,
      "fuente": "openstreetmap"
    },
    {
      "id": "osm_node_1855367761",
      "nombre": "Éboli",
      "tipo": "cafe",
      "lat": 40.2771946,
      "lon": -3.792095,
      "direccion": "Calle de Las Eras 19",
      "codigo_postal": "28944",
      "telefono": null,
      "web": "http://www.pasteleriaeboli.es/",
      "instagram": null,
      "horario": null,
      "terraza": false,
      "musica": null,
      "fuente": "openstreetmap"
    },
    {
      "id": "osm_node_1855545055",
      "nombre": "Cervecería Gráfico",
      "tipo": "bar",
      "lat": 40.2761261,
      "lon": -3.7918927,
      "direccion": "Calle de Fuentetodos 2",
      "codigo_postal": "28944",
      "telefono": null,
      "web": null,
      "instagram": null,
      "horario": null,
      "terraza": false,
      "musica": null,
      "fuente": "openstreetmap"
    },
    {
      "id": "osm_node_1855773850",
      "nombre": "Cafetería Oliva III",
      "tipo": "cafe",
      "lat": 40.2755992,
      "lon": -3.7905512,
      "direccion": "Calle de Fuentevaqueros 41",
      "codigo_postal": "28944",
      "telefono": null,
      "web": null,
      "instagram": null,
      "horario": null,
      "terraza": false,
      "musica": null,
      "fuente": "openstreetmap"
    },
    {
      "id": "osm_node_1855958373",
      "nombre": "Bar Belmonte",
      "tipo": "bar",
      "lat": 40.2783155,
      "lon": -3.7903307,
      "direccion": "Calle de Santa Ana 4",
      "codigo_postal": "28944",
      "telefono": null,
      "web": null,
      "instagram": null,
      "horario": null,
      "terraza": false,
      "musica": null,
      "fuente": "openstreetmap"
    },
    {
      "id": "osm_node_1857009629",
      "nombre": "Boise",
      "tipo": "bar",
      "lat": 40.2826428,
      "lon": -3.7928123,
      "direccion": "Calle de la Plaza 16",
      "codigo_postal": null,
      "telefono": null,
      "web": null,
      "instagram": null,
      "horario": "Mo-Fr 08:30-01:00; Sa 18:00-02:00; Su 18:00-00:00",
      "terraza": false,
      "musica": null,
      "fuente": "openstreetmap"
    },
    {
      "id": "osm_node_1857009642",
      "nombre": "Cervecería La Herradura",
      "tipo": "bar",
      "lat": 40.2833433,
      "lon": -3.7948293,
      "direccion": null,
      "codigo_postal": null,
      "telefono": null,
      "web": null,
      "instagram": null,
      "horario": null,
      "terraza": false,
      "musica": null,
      "fuente": "openstreetmap"
    },
    {
      "id": "osm_node_1857861822",
      "nombre": "Cafetería Bohemia",
      "tipo": "cafe",
      "lat": 40.2907782,
      "lon": -3.7907749,
      "direccion": null,
      "codigo_postal": null,
      "telefono": null,
      "web": null,
      "instagram": null,
      "horario": null,
      "terraza": false,
      "musica": null,
      "fuente": "openstreetmap"
    },
    {
      "id": "osm_node_1857861824",
      "nombre": "Cervecería El Cabral",
      "tipo": "bar",
      "lat": 40.287522,
      "lon": -3.7918662,
      "direccion": null,
      "codigo_postal": null,
      "telefono": null,
      "web": null,
      "instagram": null,
      "horario": null,
      "terraza": false,
      "musica": null,
      "fuente": "openstreetmap"
    },
    {
      "id": "osm_node_1857861825",
      "nombre": "Cervecería El Mirador",
      "tipo": "bar",
      "lat": 40.2856221,
      "lon": -3.7931965,
      "direccion": null,
      "codigo_postal": null,
      "telefono": null,
      "web": null,
      "instagram": null,
      "horario": null,
      "terraza": false,
      "musica": null,
      "fuente": "openstreetmap"
    },
    {
      "id": "osm_node_1857861840",
      "nombre": "Moonday Tapas",
      "tipo": "bar",
      "lat": 40.2874957,
      "lon": -3.7917564,
      "direccion": null,
      "codigo_postal": null,
      "telefono": null,
      "web": null,
      "instagram": null,
      "horario": null,
      "terraza": false,
      "musica": null,
      "fuente": "openstreetmap"
    },
    {
      "id": "osm_node_1857861842",
      "nombre": "Señorío de Fuenlabrada",
      "tipo": "bar",
      "lat": 40.2903292,
      "lon": -3.7915771,
      "direccion": null,
      "codigo_postal": null,
      "telefono": null,
      "web": null,
      "instagram": null,
      "horario": null,
      "terraza": false,
      "musica": null,
      "fuente": "openstreetmap"
    },
    {
      "id": "osm_node_1857861975",
      "nombre": "Bar El Españolito",
      "tipo": "bar",
      "lat": 40.2925089,
      "lon": -3.7913888,
      "direccion": null,
      "codigo_postal": null,
      "telefono": null,
      "web": null,
      "instagram": null,
      "horario": null,
      "terraza": false,
      "musica": null,
      "fuente": "openstreetmap"
    },
    {
      "id": "osm_node_1857862030",
      "nombre": "Cafetería Aloys",
      "tipo": "cafe",
      "lat": 40.2948648,
      "lon": -3.7902171,
      "direccion": null,
      "codigo_postal": null,
      "telefono": null,
      "web": null,
      "instagram": null,
      "horario": null,
      "terraza": false,
      "musica": null,
      "fuente": "openstreetmap"
    },
    {
      "id": "osm_node_1858963482",
      "nombre": "Bar Coyote",
      "tipo": "bar",
      "lat": 40.2825661,
      "lon": -3.792216,
      "direccion": null,
      "codigo_postal": null,
      "telefono": null,
      "web": null,
      "instagram": null,
      "horario": null,
      "terraza": false,
      "musica": null,
      "fuente": "openstreetmap"
    },
    {
      "id": "osm_node_1858963484",
      "nombre": "Cafetería Madrid",
      "tipo": "cafe",
      "lat": 40.2865966,
      "lon": -3.7924644,
      "direccion": null,
      "codigo_postal": null,
      "telefono": null,
      "web": null,
      "instagram": null,
      "horario": null,
      "terraza": false,
      "musica": null,
      "fuente": "openstreetmap"
    },
    {
      "id": "osm_node_1859424589",
      "nombre": "Cervecería Mezclas",
      "tipo": "pub",
      "lat": 40.282713,
      "lon": -3.7932933,
      "direccion": null,
      "codigo_postal": null,
      "telefono": null,
      "web": null,
      "instagram": null,
      "horario": null,
      "terraza": false,
      "musica": null,
      "fuente": "openstreetmap"
    },
    {
      "id": "osm_node_1859424810",
      "nombre": "Cervecería La Posada",
      "tipo": "bar",
      "lat": 40.2825242,
      "lon": -3.792114,
      "direccion": null,
      "codigo_postal": null,
      "telefono": null,
      "web": null,
      "instagram": null,
      "horario": null,
      "terraza": false,
      "musica": null,
      "fuente": "openstreetmap"
    },
    {
      "id": "osm_node_1860337668",
      "nombre": "La Gata Azul",
      "tipo": "pub",
      "lat": 40.2830741,
      "lon": -3.7954909,
      "direccion": "Calle de las Navas 34",
      "codigo_postal": "28944",
      "telefono": "+34 916 06 16 82",
      "web": null,
      "instagram": null,
      "horario": "Mo-Su 11:00-23:00",
      "terraza": false,
      "musica": null,
      "fuente": "openstreetmap"
    },
    {
      "id": "osm_node_1860338016",
      "nombre": "Cafetería Eclipse",
      "tipo": "cafe",
      "lat": 40.283963,
      "lon": -3.794376,
      "direccion": null,
      "codigo_postal": null,
      "telefono": null,
      "web": null,
      "instagram": null,
      "horario": null,
      "terraza": false,
      "musica": null,
      "fuente": "openstreetmap"
    },
    {
      "id": "osm_node_1860630810",
      "nombre": "Bar de Copas Planeta",
      "tipo": "bar",
      "lat": 40.2830088,
      "lon": -3.791801,
      "direccion": null,
      "codigo_postal": null,
      "telefono": null,
      "web": null,
      "instagram": null,
      "horario": "Th-Sa 22:00-04:00",
      "terraza": false,
      "musica": null,
      "fuente": "openstreetmap"
    },
    {
      "id": "osm_node_1860630847",
      "nombre": "Bar Mahal",
      "tipo": "bar",
      "lat": 40.2831873,
      "lon": -3.7925098,
      "direccion": null,
      "codigo_postal": null,
      "telefono": null,
      "web": null,
      "instagram": null,
      "horario": null,
      "terraza": false,
      "musica": null,
      "fuente": "openstreetmap"
    },
    {
      "id": "osm_node_1861423266",
      "nombre": "Cafetería Lounge Capriccio",
      "tipo": "cafe",
      "lat": 40.2831915,
      "lon": -3.7923915,
      "direccion": null,
      "codigo_postal": null,
      "telefono": null,
      "web": null,
      "instagram": null,
      "horario": null,
      "terraza": false,
      "musica": null,
      "fuente": "openstreetmap"
    },
    {
      "id": "osm_node_1861708667",
      "nombre": "Cafetería Lounge Capriccio",
      "tipo": "cafe",
      "lat": 40.2831932,
      "lon": -3.7924209,
      "direccion": null,
      "codigo_postal": null,
      "telefono": null,
      "web": null,
      "instagram": null,
      "horario": null,
      "terraza": false,
      "musica": null,
      "fuente": "openstreetmap"
    },
    {
      "id": "osm_node_1863391361",
      "nombre": "Bar El Arroyo",
      "tipo": "bar",
      "lat": 40.2766627,
      "lon": -3.80039,
      "direccion": null,
      "codigo_postal": null,
      "telefono": null,
      "web": null,
      "instagram": null,
      "horario": null,
      "terraza": false,
      "musica": null,
      "fuente": "openstreetmap"
    },
    {
      "id": "osm_node_1863391540",
      "nombre": "Bar Extremeño",
      "tipo": "bar",
      "lat": 40.2768704,
      "lon": -3.8009355,
      "direccion": null,
      "codigo_postal": null,
      "telefono": null,
      "web": null,
      "instagram": null,
      "horario": null,
      "terraza": false,
      "musica": null,
      "fuente": "openstreetmap"
    },
    {
      "id": "osm_node_1863391636",
      "nombre": "Bar Nieto",
      "tipo": "bar",
      "lat": 40.2770225,
      "lon": -3.8001854,
      "direccion": null,
      "codigo_postal": null,
      "telefono": null,
      "web": null,
      "instagram": null,
      "horario": null,
      "terraza": false,
      "musica": null,
      "fuente": "openstreetmap"
    },
    {
      "id": "osm_node_1863391827",
      "nombre": "Bar Sol",
      "tipo": "bar",
      "lat": 40.2773191,
      "lon": -3.8002219,
      "direccion": null,
      "codigo_postal": null,
      "telefono": null,
      "web": null,
      "instagram": null,
      "horario": null,
      "terraza": false,
      "musica": null,
      "fuente": "openstreetmap"
    },
    {
      "id": "osm_node_1863392116",
      "nombre": "La Colmena",
      "tipo": "pub",
      "lat": 40.2781502,
      "lon": -3.7967248,
      "direccion": null,
      "codigo_postal": null,
      "telefono": null,
      "web": null,
      "instagram": null,
      "horario": null,
      "terraza": false,
      "musica": null,
      "fuente": "openstreetmap"
    },
    {
      "id": "osm_node_1864364952",
      "nombre": "Cafetería D'Madrid",
      "tipo": "cafe",
      "lat": 40.2792621,
      "lon": -3.7942241,
      "direccion": null,
      "codigo_postal": null,
      "telefono": null,
      "web": null,
      "instagram": null,
      "horario": null,
      "terraza": false,
      "musica": null,
      "fuente": "openstreetmap"
    },
    {
      "id": "osm_node_1868902584",
      "nombre": "Mesón Barquero",
      "tipo": "bar",
      "lat": 40.2781178,
      "lon": -3.8003004,
      "direccion": null,
      "codigo_postal": null,
      "telefono": null,
      "web": null,
      "instagram": null,
      "horario": null,
      "terraza": false,
      "musica": null,
      "fuente": "openstreetmap"
    },
    {
      "id": "osm_node_1868902590",
      "nombre": "Bar Miraflor",
      "tipo": "bar",
      "lat": 40.2781413,
      "lon": -3.8000846,
      "direccion": null,
      "codigo_postal": null,
      "telefono": null,
      "web": null,
      "instagram": null,
      "horario": null,
      "terraza": false,
      "musica": null,
      "fuente": "openstreetmap"
    },
    {
      "id": "osm_node_1868902639",
      "nombre": "Bar Manolo",
      "tipo": "bar",
      "lat": 40.2782967,
      "lon": -3.8001145,
      "direccion": null,
      "codigo_postal": null,
      "telefono": null,
      "web": null,
      "instagram": null,
      "horario": null,
      "terraza": false,
      "musica": null,
      "fuente": "openstreetmap"
    },
    {
      "id": "osm_node_1868902735",
      "nombre": "Cafetería Convair",
      "tipo": "cafe",
      "lat": 40.278985,
      "lon": -3.7999481,
      "direccion": null,
      "codigo_postal": null,
      "telefono": null,
      "web": null,
      "instagram": null,
      "horario": null,
      "terraza": false,
      "musica": null,
      "fuente": "openstreetmap"
    },
    {
      "id": "osm_node_1870611613",
      "nombre": "Churrería Don Churro",
      "tipo": "cafe",
      "lat": 40.2779068,
      "lon": -3.7972131,
      "direccion": null,
      "codigo_postal": null,
      "telefono": null,
      "web": null,
      "instagram": null,
      "horario": null,
      "terraza": false,
      "musica": null,
      "fuente": "openstreetmap"
    },
    {
      "id": "osm_node_1870611616",
      "nombre": "El Rincón de Laura",
      "tipo": "cafe",
      "lat": 40.2780858,
      "lon": -3.796854,
      "direccion": null,
      "codigo_postal": null,
      "telefono": null,
      "web": null,
      "instagram": null,
      "horario": null,
      "terraza": false,
      "musica": null,
      "fuente": "openstreetmap"
    },
    {
      "id": "osm_node_1870611619",
      "nombre": "Hermanos Suero",
      "tipo": "cafe",
      "lat": 40.277852,
      "lon": -3.797323,
      "direccion": null,
      "codigo_postal": null,
      "telefono": null,
      "web": null,
      "instagram": null,
      "horario": null,
      "terraza": false,
      "musica": null,
      "fuente": "openstreetmap"
    },
    {
      "id": "osm_node_1873347440",
      "nombre": "Café Alhambra",
      "tipo": "cafe",
      "lat": 40.2762915,
      "lon": -3.7979066,
      "direccion": null,
      "codigo_postal": null,
      "telefono": null,
      "web": null,
      "instagram": null,
      "horario": null,
      "terraza": false,
      "musica": null,
      "fuente": "openstreetmap"
    },
    {
      "id": "osm_node_1887981280",
      "nombre": "Alessandra",
      "tipo": "cafe",
      "lat": 40.279904,
      "lon": -3.7970503,
      "direccion": "Calle de Extremadura 10",
      "codigo_postal": null,
      "telefono": null,
      "web": null,
      "instagram": null,
      "horario": null,
      "terraza": false,
      "musica": null,
      "fuente": "openstreetmap"
    },
    {
      "id": "osm_node_1887981295",
      "nombre": "Bar Castilla",
      "tipo": "bar",
      "lat": 40.2767798,
      "lon": -3.7972735,
      "direccion": "Calle del Higueral 3",
      "codigo_postal": "28944",
      "telefono": null,
      "web": null,
      "instagram": null,
      "horario": null,
      "terraza": false,
      "musica": null,
      "fuente": "openstreetmap"
    },
    {
      "id": "osm_node_1888352862",
      "nombre": "Cervecería Rocío",
      "tipo": "bar",
      "lat": 40.2804981,
      "lon": -3.7972621,
      "direccion": "Calle de Lourdes 6",
      "codigo_postal": "28944",
      "telefono": null,
      "web": null,
      "instagram": null,
      "horario": null,
      "terraza": false,
      "musica": null,
      "fuente": "openstreetmap"
    },
    {
      "id": "osm_node_1888469315",
      "nombre": "Bar Granada",
      "tipo": "bar",
      "lat": 40.2862053,
      "lon": -3.8061501,
      "direccion": null,
      "codigo_postal": "28943",
      "telefono": null,
      "web": null,
      "instagram": null,
      "horario": null,
      "terraza": false,
      "musica": null,
      "fuente": "openstreetmap"
    },
    {
      "id": "osm_node_1888485761",
      "nombre": "Bar Restaurante La Santa Sed",
      "tipo": "bar",
      "lat": 40.2822501,
      "lon": -3.7938037,
      "direccion": null,
      "codigo_postal": null,
      "telefono": null,
      "web": null,
      "instagram": null,
      "horario": null,
      "terraza": false,
      "musica": null,
      "fuente": "openstreetmap"
    },
    {
      "id": "osm_node_1888533705",
      "nombre": "Bar Romero",
      "tipo": "bar",
      "lat": 40.3008669,
      "lon": -3.8167882,
      "direccion": "Calle del Sauce",
      "codigo_postal": null,
      "telefono": null,
      "web": null,
      "instagram": null,
      "horario": null,
      "terraza": false,
      "musica": null,
      "fuente": "openstreetmap"
    },
    {
      "id": "osm_node_1895924548",
      "nombre": "Bar Preciados",
      "tipo": "bar",
      "lat": 40.2812539,
      "lon": -3.7966054,
      "direccion": "Calle de Madrid 2",
      "codigo_postal": "28944",
      "telefono": null,
      "web": null,
      "instagram": null,
      "horario": null,
      "terraza": false,
      "musica": null,
      "fuente": "openstreetmap"
    },
    {
      "id": "osm_node_1895924549",
      "nombre": "Cafetería Ferrari",
      "tipo": "cafe",
      "lat": 40.2803718,
      "lon": -3.7972,
      "direccion": "Calle de Madrid 13",
      "codigo_postal": "28944",
      "telefono": null,
      "web": null,
      "instagram": null,
      "horario": null,
      "terraza": false,
      "musica": null,
      "fuente": "openstreetmap"
    },
    {
      "id": "osm_node_1895924550",
      "nombre": "Cafetería Nevada",
      "tipo": "cafe",
      "lat": 40.2815181,
      "lon": -3.7978171,
      "direccion": "Calle de Luis Sauquillo 59",
      "codigo_postal": "28944",
      "telefono": null,
      "web": null,
      "instagram": null,
      "horario": null,
      "terraza": false,
      "musica": null,
      "fuente": "openstreetmap"
    },
    {
      "id": "osm_node_1896212532",
      "nombre": "Bar La Finca",
      "tipo": "bar",
      "lat": 40.280907,
      "lon": -3.7947938,
      "direccion": "Calle de Navalcarnero 4",
      "codigo_postal": null,
      "telefono": null,
      "web": null,
      "instagram": null,
      "horario": null,
      "terraza": false,
      "musica": null,
      "fuente": "openstreetmap"
    },
    {
      "id": "osm_node_1897065030",
      "nombre": "Café Español",
      "tipo": "cafe",
      "lat": 40.2820846,
      "lon": -3.795196,
      "direccion": "Calle de la Arena",
      "codigo_postal": "28944",
      "telefono": null,
      "web": null,
      "instagram": null,
      "horario": null,
      "terraza": false,
      "musica": null,
      "fuente": "openstreetmap"
    },
    {
      "id": "osm_node_1897065070",
      "nombre": "Cafetería La Esmeralda",
      "tipo": "cafe",
      "lat": 40.2809251,
      "lon": -3.79338,
      "direccion": null,
      "codigo_postal": null,
      "telefono": null,
      "web": null,
      "instagram": null,
      "horario": null,
      "terraza": false,
      "musica": null,
      "fuente": "openstreetmap"
    },
    {
      "id": "osm_node_1900737392",
      "nombre": "Fuxion",
      "tipo": "bar",
      "lat": 40.2806419,
      "lon": -3.7934091,
      "direccion": null,
      "codigo_postal": null,
      "telefono": null,
      "web": null,
      "instagram": null,
      "horario": null,
      "terraza": false,
      "musica": null,
      "fuente": "openstreetmap"
    },
    {
      "id": "osm_node_1904005978",
      "nombre": "Cafetería El Castor",
      "tipo": "cafe",
      "lat": 40.2809786,
      "lon": -3.7906325,
      "direccion": null,
      "codigo_postal": null,
      "telefono": null,
      "web": null,
      "instagram": null,
      "horario": null,
      "terraza": false,
      "musica": null,
      "fuente": "openstreetmap"
    },
    {
      "id": "osm_node_1906683526",
      "nombre": "Cervecería Aranda II",
      "tipo": "bar",
      "lat": 40.2810373,
      "lon": -3.7873967,
      "direccion": null,
      "codigo_postal": null,
      "telefono": null,
      "web": null,
      "instagram": null,
      "horario": null,
      "terraza": false,
      "musica": null,
      "fuente": "openstreetmap"
    },
    {
      "id": "osm_node_1911330023",
      "nombre": "Bar Artes",
      "tipo": "bar",
      "lat": 40.281376,
      "lon": -3.7901655,
      "direccion": null,
      "codigo_postal": null,
      "telefono": null,
      "web": null,
      "instagram": null,
      "horario": null,
      "terraza": false,
      "musica": null,
      "fuente": "openstreetmap"
    },
    {
      "id": "osm_node_1911330024",
      "nombre": "Bar El Coyote",
      "tipo": "bar",
      "lat": 40.2817194,
      "lon": -3.7906414,
      "direccion": null,
      "codigo_postal": null,
      "telefono": null,
      "web": null,
      "instagram": null,
      "horario": null,
      "terraza": false,
      "musica": null,
      "fuente": "openstreetmap"
    },
    {
      "id": "osm_node_1911330025",
      "nombre": "Taberna Scala",
      "tipo": "bar",
      "lat": 40.2795234,
      "lon": -3.7906219,
      "direccion": "Calle de Extremadura 40",
      "codigo_postal": "28944",
      "telefono": "+34910 27 90 64",
      "web": null,
      "instagram": null,
      "horario": null,
      "terraza": false,
      "musica": null,
      "fuente": "openstreetmap"
    },
    {
      "id": "osm_node_1911330026",
      "nombre": "El Corrillo",
      "tipo": "bar",
      "lat": 40.2818536,
      "lon": -3.7925165,
      "direccion": null,
      "codigo_postal": null,
      "telefono": null,
      "web": null,
      "instagram": null,
      "horario": null,
      "terraza": false,
      "musica": null,
      "fuente": "openstreetmap"
    },
    {
      "id": "osm_node_1911330028",
      "nombre": "Juvenal",
      "tipo": "bar",
      "lat": 40.280264,
      "lon": -3.7925951,
      "direccion": null,
      "codigo_postal": null,
      "telefono": null,
      "web": null,
      "instagram": null,
      "horario": null,
      "terraza": false,
      "musica": null,
      "fuente": "openstreetmap"
    },
    {
      "id": "osm_node_1911330029",
      "nombre": "Los Gavilanes",
      "tipo": "bar",
      "lat": 40.281897,
      "lon": -3.7926772,
      "direccion": null,
      "codigo_postal": null,
      "telefono": null,
      "web": null,
      "instagram": null,
      "horario": null,
      "terraza": false,
      "musica": null,
      "fuente": "openstreetmap"
    },
    {
      "id": "osm_node_1915950251",
      "nombre": "Los Ángeles",
      "tipo": "bar",
      "lat": 40.2842146,
      "lon": -3.7961496,
      "direccion": null,
      "codigo_postal": null,
      "telefono": null,
      "web": null,
      "instagram": null,
      "horario": null,
      "terraza": false,
      "musica": null,
      "fuente": "openstreetmap"
    },
    {
      "id": "osm_node_1916847214",
      "nombre": "Escolar",
      "tipo": "bar",
      "lat": 40.2844158,
      "lon": -3.7954944,
      "direccion": null,
      "codigo_postal": null,
      "telefono": null,
      "web": null,
      "instagram": null,
      "horario": null,
      "terraza": false,
      "musica": null,
      "fuente": "openstreetmap"
    },
    {
      "id": "osm_node_1917339265",
      "nombre": "Cafetería Quintanero",
      "tipo": "cafe",
      "lat": 40.2864839,
      "lon": -3.7958833,
      "direccion": null,
      "codigo_postal": null,
      "telefono": null,
      "web": null,
      "instagram": null,
      "horario": null,
      "terraza": false,
      "musica": null,
      "fuente": "openstreetmap"
    },
    {
      "id": "osm_node_1920070168",
      "nombre": "Bar Marbella",
      "tipo": "bar",
      "lat": 40.2849639,
      "lon": -3.7953357,
      "direccion": null,
      "codigo_postal": null,
      "telefono": null,
      "web": null,
      "instagram": null,
      "horario": null,
      "terraza": false,
      "musica": null,
      "fuente": "openstreetmap"
    },
    {
      "id": "osm_node_1920070171",
      "nombre": "Bar San Antonio",
      "tipo": "bar",
      "lat": 40.2853597,
      "lon": -3.7953611,
      "direccion": null,
      "codigo_postal": null,
      "telefono": null,
      "web": null,
      "instagram": null,
      "horario": null,
      "terraza": false,
      "musica": null,
      "fuente": "openstreetmap"
    },
    {
      "id": "osm_node_1921687358",
      "nombre": "Bar Cervecería First Class",
      "tipo": "bar",
      "lat": 40.2872286,
      "lon": -3.7946863,
      "direccion": null,
      "codigo_postal": null,
      "telefono": null,
      "web": null,
      "instagram": null,
      "horario": null,
      "terraza": false,
      "musica": null,
      "fuente": "openstreetmap"
    },
    {
      "id": "osm_node_1921687359",
      "nombre": "Bar Los Hermanos",
      "tipo": "bar",
      "lat": 40.2862047,
      "lon": -3.795152,
      "direccion": null,
      "codigo_postal": null,
      "telefono": null,
      "web": null,
      "instagram": null,
      "horario": null,
      "terraza": false,
      "musica": null,
      "fuente": "openstreetmap"
    },
    {
      "id": "osm_node_1921687360",
      "nombre": "Obrador de Goya",
      "tipo": "cafe",
      "lat": 40.2875311,
      "lon": -3.7924635,
      "direccion": null,
      "codigo_postal": null,
      "telefono": "+34 917 865 102",
      "web": "https://obradordegoya.com/",
      "instagram": null,
      "horario": null,
      "terraza": false,
      "musica": null,
      "fuente": "openstreetmap"
    },
    {
      "id": "osm_node_1921687407",
      "nombre": "Mesón El Cazador",
      "tipo": "bar",
      "lat": 40.2855171,
      "lon": -3.7953064,
      "direccion": null,
      "codigo_postal": null,
      "telefono": null,
      "web": null,
      "instagram": null,
      "horario": null,
      "terraza": false,
      "musica": null,
      "fuente": "openstreetmap"
    },
    {
      "id": "osm_node_1922313901",
      "nombre": "Bar Bleda",
      "tipo": "bar",
      "lat": 40.2880711,
      "lon": -3.7938763,
      "direccion": null,
      "codigo_postal": null,
      "telefono": null,
      "web": null,
      "instagram": null,
      "horario": null,
      "terraza": false,
      "musica": null,
      "fuente": "openstreetmap"
    },
    {
      "id": "osm_node_1923500173",
      "nombre": "Cervecería La Puebla",
      "tipo": "bar",
      "lat": 40.2891392,
      "lon": -3.7928597,
      "direccion": null,
      "codigo_postal": null,
      "telefono": null,
      "web": null,
      "instagram": null,
      "horario": null,
      "terraza": false,
      "musica": null,
      "fuente": "openstreetmap"
    },
    {
      "id": "osm_node_1923500224",
      "nombre": "Lucky Bar",
      "tipo": "bar",
      "lat": 40.2891757,
      "lon": -3.7931025,
      "direccion": null,
      "codigo_postal": null,
      "telefono": null,
      "web": null,
      "instagram": null,
      "horario": null,
      "terraza": false,
      "musica": null,
      "fuente": "openstreetmap"
    },
    {
      "id": "osm_node_1923500325",
      "nombre": "Cafetería May",
      "tipo": "cafe",
      "lat": 40.2892734,
      "lon": -3.7931035,
      "direccion": null,
      "codigo_postal": null,
      "telefono": null,
      "web": null,
      "instagram": null,
      "horario": null,
      "terraza": false,
      "musica": null,
      "fuente": "openstreetmap"
    },
    {
      "id": "osm_node_1923860742",
      "nombre": "Café - Bar",
      "tipo": "cafe",
      "lat": 40.2914038,
      "lon": -3.7925868,
      "direccion": null,
      "codigo_postal": null,
      "telefono": null,
      "web": null,
      "instagram": null,
      "horario": null,
      "terraza": false,
      "musica": null,
      "fuente": "openstreetmap"
    },
    {
      "id": "osm_node_1924907195",
      "nombre": "Cafetería Tinín",
      "tipo": "cafe",
      "lat": 40.2902949,
      "lon": -3.7923437,
      "direccion": null,
      "codigo_postal": null,
      "telefono": null,
      "web": null,
      "instagram": null,
      "horario": null,
      "terraza": false,
      "musica": null,
      "fuente": "openstreetmap"
    },
    {
      "id": "osm_node_1924907568",
      "nombre": "Mundo Torta",
      "tipo": "cafe",
      "lat": 40.291572,
      "lon": -3.7921852,
      "direccion": null,
      "codigo_postal": null,
      "telefono": null,
      "web": null,
      "instagram": null,
      "horario": null,
      "terraza": false,
      "musica": null,
      "fuente": "openstreetmap"
    },
    {
      "id": "osm_node_1927738759",
      "nombre": "Bar",
      "tipo": "bar",
      "lat": 40.2958865,
      "lon": -3.7922944,
      "direccion": null,
      "codigo_postal": null,
      "telefono": null,
      "web": null,
      "instagram": null,
      "horario": null,
      "terraza": false,
      "musica": null,
      "fuente": "openstreetmap"
    },
    {
      "id": "osm_node_1930269874",
      "nombre": "Bar Oliva",
      "tipo": "bar",
      "lat": 40.2874207,
      "lon": -3.7926868,
      "direccion": null,
      "codigo_postal": null,
      "telefono": null,
      "web": null,
      "instagram": null,
      "horario": null,
      "terraza": false,
      "musica": null,
      "fuente": "openstreetmap"
    },
    {
      "id": "osm_node_1930269876",
      "nombre": "Café El Río",
      "tipo": "cafe",
      "lat": 40.2927415,
      "lon": -3.7922215,
      "direccion": null,
      "codigo_postal": null,
      "telefono": null,
      "web": null,
      "instagram": null,
      "horario": null,
      "terraza": false,
      "musica": null,
      "fuente": "openstreetmap"
    },
    {
      "id": "osm_node_1930269878",
      "nombre": "Cervecería Cruz Blanca",
      "tipo": "bar",
      "lat": 40.2890022,
      "lon": -3.7937212,
      "direccion": null,
      "codigo_postal": null,
      "telefono": null,
      "web": null,
      "instagram": null,
      "horario": null,
      "terraza": false,
      "musica": null,
      "fuente": "openstreetmap"
    },
    {
      "id": "osm_node_1930269879",
      "nombre": "Chevere",
      "tipo": "bar",
      "lat": 40.2890052,
      "lon": -3.7934633,
      "direccion": null,
      "codigo_postal": null,
      "telefono": null,
      "web": null,
      "instagram": null,
      "horario": null,
      "terraza": false,
      "musica": null,
      "fuente": "openstreetmap"
    },
    {
      "id": "osm_node_1931948342",
      "nombre": "Belgius",
      "tipo": "bar",
      "lat": 40.2929157,
      "lon": -3.7914824,
      "direccion": null,
      "codigo_postal": null,
      "telefono": null,
      "web": null,
      "instagram": null,
      "horario": null,
      "terraza": false,
      "musica": null,
      "fuente": "openstreetmap"
    },
    {
      "id": "osm_node_1931948346",
      "nombre": "Cafetería En K'Mariano",
      "tipo": "cafe",
      "lat": 40.2945237,
      "lon": -3.7914837,
      "direccion": null,
      "codigo_postal": null,
      "telefono": null,
      "web": null,
      "instagram": null,
      "horario": null,
      "terraza": false,
      "musica": null,
      "fuente": "openstreetmap"
    },
    {
      "id": "osm_node_1931948359",
      "nombre": "Enebro Tapas Bar",
      "tipo": "bar",
      "lat": 40.2930957,
      "lon": -3.7912452,
      "direccion": null,
      "codigo_postal": null,
      "telefono": null,
      "web": null,
      "instagram": null,
      "horario": null,
      "terraza": false,
      "musica": null,
      "fuente": "openstreetmap"
    },
    {
      "id": "osm_node_1931948398",
      "nombre": "Warhol Lounge Café",
      "tipo": "bar",
      "lat": 40.2932208,
      "lon": -3.7910984,
      "direccion": null,
      "codigo_postal": null,
      "telefono": null,
      "web": null,
      "instagram": null,
      "horario": null,
      "terraza": false,
      "musica": null,
      "fuente": "openstreetmap"
    },
    {
      "id": "osm_node_1934959549",
      "nombre": "La Guarida",
      "tipo": "cafe",
      "lat": 40.2951034,
      "lon": -3.7868798,
      "direccion": null,
      "codigo_postal": null,
      "telefono": null,
      "web": null,
      "instagram": null,
      "horario": null,
      "terraza": false,
      "musica": null,
      "fuente": "openstreetmap"
    },
    {
      "id": "osm_node_1942821146",
      "nombre": "Bar Castillo",
      "tipo": "bar",
      "lat": 40.2878545,
      "lon": -3.7924942,
      "direccion": null,
      "codigo_postal": null,
      "telefono": null,
      "web": null,
      "instagram": null,
      "horario": null,
      "terraza": false,
      "musica": null,
      "fuente": "openstreetmap"
    },
    {
      "id": "osm_node_1942823465",
      "nombre": "Cafetería Merlot",
      "tipo": "cafe",
      "lat": 40.2943805,
      "lon": -3.7867899,
      "direccion": null,
      "codigo_postal": null,
      "telefono": null,
      "web": null,
      "instagram": null,
      "horario": null,
      "terraza": false,
      "musica": null,
      "fuente": "openstreetmap"
    },
    {
      "id": "osm_node_1942823815",
      "nombre": "Bar Grillo",
      "tipo": "bar",
      "lat": 40.2945002,
      "lon": -3.7855945,
      "direccion": "Avenida de los Andes 30",
      "codigo_postal": "28945",
      "telefono": null,
      "web": null,
      "instagram": null,
      "horario": null,
      "terraza": false,
      "musica": null,
      "fuente": "openstreetmap"
    },
    {
      "id": "osm_node_1943979825",
      "nombre": "Bar Basilio",
      "tipo": "bar",
      "lat": 40.2948505,
      "lon": -3.7848852,
      "direccion": null,
      "codigo_postal": null,
      "telefono": null,
      "web": null,
      "instagram": null,
      "horario": null,
      "terraza": false,
      "musica": null,
      "fuente": "openstreetmap"
    },
    {
      "id": "osm_node_1943979827",
      "nombre": "Bar El Parque",
      "tipo": "bar",
      "lat": 40.2941747,
      "lon": -3.7850305,
      "direccion": null,
      "codigo_postal": null,
      "telefono": null,
      "web": null,
      "instagram": null,
      "horario": null,
      "terraza": false,
      "musica": null,
      "fuente": "openstreetmap"
    },
    {
      "id": "osm_node_1943979830",
      "nombre": "Café La Avanzada",
      "tipo": "cafe",
      "lat": 40.2956638,
      "lon": -3.7893018,
      "direccion": null,
      "codigo_postal": null,
      "telefono": null,
      "web": null,
      "instagram": null,
      "horario": null,
      "terraza": false,
      "musica": null,
      "fuente": "openstreetmap"
    },
    {
      "id": "osm_node_1943979835",
      "nombre": "Cervecería Callao",
      "tipo": "bar",
      "lat": 40.2939139,
      "lon": -3.7853823,
      "direccion": null,
      "codigo_postal": null,
      "telefono": null,
      "web": null,
      "instagram": null,
      "horario": null,
      "terraza": false,
      "musica": null,
      "fuente": "openstreetmap"
    },
    {
      "id": "osm_node_1943979838",
      "nombre": "Churrería - Cafetería Iris",
      "tipo": "cafe",
      "lat": 40.2947719,
      "lon": -3.7849274,
      "direccion": null,
      "codigo_postal": null,
      "telefono": null,
      "web": null,
      "instagram": null,
      "horario": null,
      "terraza": false,
      "musica": null,
      "fuente": "openstreetmap"
    },
    {
      "id": "osm_node_1962960298",
      "nombre": "Cervecería Manhattan",
      "tipo": "bar",
      "lat": 40.2924951,
      "lon": -3.7854258,
      "direccion": null,
      "codigo_postal": null,
      "telefono": null,
      "web": null,
      "instagram": null,
      "horario": null,
      "terraza": false,
      "musica": null,
      "fuente": "openstreetmap"
    },
    {
      "id": "osm_node_2100102869",
      "nombre": "Cafetería Layt",
      "tipo": "cafe",
      "lat": 40.2827064,
      "lon": -3.7971373,
      "direccion": null,
      "codigo_postal": null,
      "telefono": null,
      "web": null,
      "instagram": null,
      "horario": null,
      "terraza": false,
      "musica": null,
      "fuente": "openstreetmap"
    },
    {
      "id": "osm_node_2100102938",
      "nombre": "Bar Los Mencianos",
      "tipo": "pub",
      "lat": 40.2829752,
      "lon": -3.7979325,
      "direccion": null,
      "codigo_postal": null,
      "telefono": null,
      "web": null,
      "instagram": null,
      "horario": null,
      "terraza": false,
      "musica": null,
      "fuente": "openstreetmap"
    },
    {
      "id": "osm_node_2119436072",
      "nombre": "Cafetería Maye",
      "tipo": "cafe",
      "lat": 40.28416,
      "lon": -3.7904414,
      "direccion": null,
      "codigo_postal": null,
      "telefono": null,
      "web": null,
      "instagram": null,
      "horario": null,
      "terraza": false,
      "musica": null,
      "fuente": "openstreetmap"
    },
    {
      "id": "osm_node_2119436780",
      "nombre": "Cafetería JM",
      "tipo": "cafe",
      "lat": 40.2852529,
      "lon": -3.7917713,
      "direccion": null,
      "codigo_postal": null,
      "telefono": null,
      "web": null,
      "instagram": null,
      "horario": null,
      "terraza": false,
      "musica": null,
      "fuente": "openstreetmap"
    },
    {
      "id": "osm_node_2119436885",
      "nombre": "Bar Extremeño",
      "tipo": "pub",
      "lat": 40.285472,
      "lon": -3.7915449,
      "direccion": null,
      "codigo_postal": null,
      "telefono": null,
      "web": null,
      "instagram": null,
      "horario": null,
      "terraza": false,
      "musica": null,
      "fuente": "openstreetmap"
    },
    {
      "id": "osm_node_2123827649",
      "nombre": "Bar Esquila Daksa",
      "tipo": "cafe",
      "lat": 40.2825468,
      "lon": -3.7866743,
      "direccion": null,
      "codigo_postal": null,
      "telefono": null,
      "web": null,
      "instagram": null,
      "horario": null,
      "terraza": false,
      "musica": null,
      "fuente": "openstreetmap"
    },
    {
      "id": "osm_node_2128149553",
      "nombre": "Bar José",
      "tipo": "bar",
      "lat": 40.2879376,
      "lon": -3.7890108,
      "direccion": null,
      "codigo_postal": null,
      "telefono": null,
      "web": null,
      "instagram": null,
      "horario": null,
      "terraza": false,
      "musica": null,
      "fuente": "openstreetmap"
    },
    {
      "id": "osm_node_2128149647",
      "nombre": "Cafetería Capri",
      "tipo": "cafe",
      "lat": 40.2884957,
      "lon": -3.7891376,
      "direccion": null,
      "codigo_postal": null,
      "telefono": null,
      "web": null,
      "instagram": null,
      "horario": null,
      "terraza": false,
      "musica": null,
      "fuente": "openstreetmap"
    },
    {
      "id": "osm_node_2128149675",
      "nombre": "Cafetería Vidrios",
      "tipo": "cafe",
      "lat": 40.2886449,
      "lon": -3.7891091,
      "direccion": null,
      "codigo_postal": null,
      "telefono": null,
      "web": null,
      "instagram": null,
      "horario": null,
      "terraza": false,
      "musica": null,
      "fuente": "openstreetmap"
    },
    {
      "id": "osm_node_2140342215",
      "nombre": "Cafetería Magalia",
      "tipo": "cafe",
      "lat": 40.2998595,
      "lon": -3.8074349,
      "direccion": null,
      "codigo_postal": null,
      "telefono": "+34 916084981",
      "web": null,
      "instagram": null,
      "horario": null,
      "terraza": false,
      "musica": null,
      "fuente": "openstreetmap"
    },
    {
      "id": "osm_node_2145766609",
      "nombre": "Cafetería Lucas",
      "tipo": "cafe",
      "lat": 40.2970676,
      "lon": -3.8096158,
      "direccion": null,
      "codigo_postal": null,
      "telefono": null,
      "web": null,
      "instagram": null,
      "horario": null,
      "terraza": false,
      "musica": null,
      "fuente": "openstreetmap"
    },
    {
      "id": "osm_node_2175742652",
      "nombre": "Cafetería del Prado",
      "tipo": "cafe",
      "lat": 40.2941986,
      "lon": -3.8105854,
      "direccion": null,
      "codigo_postal": null,
      "telefono": null,
      "web": null,
      "instagram": null,
      "horario": null,
      "terraza": false,
      "musica": null,
      "fuente": "openstreetmap"
    },
    {
      "id": "osm_node_2175743066",
      "nombre": "El Sabor del Encuentro",
      "tipo": "pub",
      "lat": 40.2947337,
      "lon": -3.8105288,
      "direccion": null,
      "codigo_postal": null,
      "telefono": null,
      "web": null,
      "instagram": null,
      "horario": null,
      "terraza": false,
      "musica": null,
      "fuente": "openstreetmap"
    },
    {
      "id": "osm_node_2179687775",
      "nombre": "Cafetería Villacastín II",
      "tipo": "cafe",
      "lat": 40.295415,
      "lon": -3.7949427,
      "direccion": null,
      "codigo_postal": null,
      "telefono": null,
      "web": null,
      "instagram": null,
      "horario": null,
      "terraza": false,
      "musica": null,
      "fuente": "openstreetmap"
    },
    {
      "id": "osm_node_2254645408",
      "nombre": "Cafetería Monfragüe",
      "tipo": "cafe",
      "lat": 40.2931345,
      "lon": -3.8029994,
      "direccion": null,
      "codigo_postal": null,
      "telefono": null,
      "web": null,
      "instagram": null,
      "horario": null,
      "terraza": false,
      "musica": null,
      "fuente": "openstreetmap"
    },
    {
      "id": "osm_node_2286026307",
      "nombre": "Cafetería Tierra Astur",
      "tipo": "cafe",
      "lat": 40.2854725,
      "lon": -3.7995253,
      "direccion": null,
      "codigo_postal": null,
      "telefono": null,
      "web": null,
      "instagram": null,
      "horario": null,
      "terraza": false,
      "musica": null,
      "fuente": "openstreetmap"
    },
    {
      "id": "osm_node_2286026308",
      "nombre": "Vikingos",
      "tipo": "bar",
      "lat": 40.2855531,
      "lon": -3.7986424,
      "direccion": "Calle de Irlanda 7",
      "codigo_postal": null,
      "telefono": null,
      "web": null,
      "instagram": null,
      "horario": null,
      "terraza": false,
      "musica": null,
      "fuente": "openstreetmap"
    },
    {
      "id": "osm_node_2288248355",
      "nombre": "Cervecería Trébol",
      "tipo": "cafe",
      "lat": 40.2816552,
      "lon": -3.7869858,
      "direccion": null,
      "codigo_postal": null,
      "telefono": null,
      "web": null,
      "instagram": null,
      "horario": null,
      "terraza": false,
      "musica": null,
      "fuente": "openstreetmap"
    },
    {
      "id": "osm_node_2403882898",
      "nombre": "Bar El Parque",
      "tipo": "pub",
      "lat": 40.2961654,
      "lon": -3.8057295,
      "direccion": null,
      "codigo_postal": null,
      "telefono": null,
      "web": null,
      "instagram": null,
      "horario": null,
      "terraza": false,
      "musica": null,
      "fuente": "openstreetmap"
    },
    {
      "id": "osm_node_2593623666",
      "nombre": "Pastelería-Cafetería Fuentes",
      "tipo": "cafe",
      "lat": 40.2914371,
      "lon": -3.7970829,
      "direccion": null,
      "codigo_postal": null,
      "telefono": null,
      "web": null,
      "instagram": null,
      "horario": null,
      "terraza": false,
      "musica": null,
      "fuente": "openstreetmap"
    },
    {
      "id": "osm_node_2779322501",
      "nombre": "Bar Olmedo",
      "tipo": "pub",
      "lat": 40.2864367,
      "lon": -3.7997334,
      "direccion": null,
      "codigo_postal": null,
      "telefono": null,
      "web": null,
      "instagram": null,
      "horario": null,
      "terraza": false,
      "musica": null,
      "fuente": "openstreetmap"
    },
    {
      "id": "osm_node_2818416885",
      "nombre": "Camino a Casa",
      "tipo": "cafe",
      "lat": 40.2594201,
      "lon": -3.761278,
      "direccion": null,
      "codigo_postal": null,
      "telefono": null,
      "web": null,
      "instagram": null,
      "horario": null,
      "terraza": false,
      "musica": null,
      "fuente": "openstreetmap"
    },
    {
      "id": "osm_node_2914517276",
      "nombre": "Bar La Montaña",
      "tipo": "cafe",
      "lat": 40.291147,
      "lon": -3.7991846,
      "direccion": null,
      "codigo_postal": null,
      "telefono": null,
      "web": null,
      "instagram": null,
      "horario": null,
      "terraza": false,
      "musica": null,
      "fuente": "openstreetmap"
    },
    {
      "id": "osm_node_2917388348",
      "nombre": "Churrería La Churre",
      "tipo": "cafe",
      "lat": 40.2912412,
      "lon": -3.799074,
      "direccion": null,
      "codigo_postal": null,
      "telefono": null,
      "web": null,
      "instagram": null,
      "horario": null,
      "terraza": false,
      "musica": null,
      "fuente": "openstreetmap"
    },
    {
      "id": "osm_node_2918271819",
      "nombre": "L'italiano del barrio",
      "tipo": "cafe",
      "lat": 40.2893453,
      "lon": -3.8012084,
      "direccion": null,
      "codigo_postal": null,
      "telefono": null,
      "web": null,
      "instagram": null,
      "horario": null,
      "terraza": false,
      "musica": null,
      "fuente": "openstreetmap"
    },
    {
      "id": "osm_node_2918330338",
      "nombre": "Cafetería Calderón",
      "tipo": "cafe",
      "lat": 40.2803029,
      "lon": -3.7956251,
      "direccion": null,
      "codigo_postal": null,
      "telefono": null,
      "web": null,
      "instagram": null,
      "horario": null,
      "terraza": false,
      "musica": null,
      "fuente": "openstreetmap"
    },
    {
      "id": "osm_node_2918330339",
      "nombre": "Cheers",
      "tipo": "cafe",
      "lat": 40.2802416,
      "lon": -3.7959388,
      "direccion": null,
      "codigo_postal": null,
      "telefono": null,
      "web": null,
      "instagram": null,
      "horario": null,
      "terraza": false,
      "musica": null,
      "fuente": "openstreetmap"
    },
    {
      "id": "osm_node_2920014633",
      "nombre": "The skull roses",
      "tipo": "pub",
      "lat": 40.2843409,
      "lon": -3.7901704,
      "direccion": null,
      "codigo_postal": null,
      "telefono": null,
      "web": null,
      "instagram": null,
      "horario": null,
      "terraza": false,
      "musica": null,
      "fuente": "openstreetmap"
    },
    {
      "id": "osm_node_2920014640",
      "nombre": "La Villa",
      "tipo": "cafe",
      "lat": 40.2841239,
      "lon": -3.7912362,
      "direccion": null,
      "codigo_postal": null,
      "telefono": null,
      "web": null,
      "instagram": null,
      "horario": null,
      "terraza": false,
      "musica": null,
      "fuente": "openstreetmap"
    },
    {
      "id": "osm_node_2921648695",
      "nombre": "Café Sunset",
      "tipo": "cafe",
      "lat": 40.2840477,
      "lon": -3.8028582,
      "direccion": "Calle de Italia 4",
      "codigo_postal": null,
      "telefono": null,
      "web": null,
      "instagram": null,
      "horario": null,
      "terraza": false,
      "musica": null,
      "fuente": "openstreetmap"
    },
    {
      "id": "osm_node_2923082440",
      "nombre": "Bar El Nueve",
      "tipo": "cafe",
      "lat": 40.2836242,
      "lon": -3.8033172,
      "direccion": null,
      "codigo_postal": null,
      "telefono": null,
      "web": null,
      "instagram": null,
      "horario": null,
      "terraza": false,
      "musica": null,
      "fuente": "openstreetmap"
    },
    {
      "id": "osm_node_2923082443",
      "nombre": "Bar La Cachopería",
      "tipo": "pub",
      "lat": 40.2826074,
      "lon": -3.80434,
      "direccion": null,
      "codigo_postal": null,
      "telefono": null,
      "web": null,
      "instagram": null,
      "horario": null,
      "terraza": false,
      "musica": null,
      "fuente": "openstreetmap"
    },
    {
      "id": "osm_node_2923577074",
      "nombre": "Café Concepto Los Tipos de Interés",
      "tipo": "cafe",
      "lat": 40.2824978,
      "lon": -3.7881938,
      "direccion": null,
      "codigo_postal": null,
      "telefono": null,
      "web": null,
      "instagram": null,
      "horario": null,
      "terraza": false,
      "musica": null,
      "fuente": "openstreetmap"
    },
    {
      "id": "osm_node_2923577076",
      "nombre": "Cervecería A Lo Bestia",
      "tipo": "pub",
      "lat": 40.282935,
      "lon": -3.7889021,
      "direccion": null,
      "codigo_postal": null,
      "telefono": null,
      "web": null,
      "instagram": null,
      "horario": null,
      "terraza": false,
      "musica": null,
      "fuente": "openstreetmap"
    },
    {
      "id": "osm_node_2923577081",
      "nombre": "Pub El Convento",
      "tipo": "bar",
      "lat": 40.2825237,
      "lon": -3.7880399,
      "direccion": null,
      "codigo_postal": null,
      "telefono": null,
      "web": null,
      "instagram": null,
      "horario": null,
      "terraza": false,
      "musica": null,
      "fuente": "openstreetmap"
    },
    {
      "id": "osm_node_2927546197",
      "nombre": "Bar Casado",
      "tipo": "cafe",
      "lat": 40.286119,
      "lon": -3.8018476,
      "direccion": null,
      "codigo_postal": null,
      "telefono": null,
      "web": null,
      "instagram": null,
      "horario": null,
      "terraza": false,
      "musica": null,
      "fuente": "openstreetmap"
    },
    {
      "id": "osm_node_2927546198",
      "nombre": "Cafetería El Dorado",
      "tipo": "cafe",
      "lat": 40.285657,
      "lon": -3.8027233,
      "direccion": null,
      "codigo_postal": null,
      "telefono": null,
      "web": null,
      "instagram": null,
      "horario": null,
      "terraza": false,
      "musica": null,
      "fuente": "openstreetmap"
    },
    {
      "id": "osm_node_2929916500",
      "nombre": "Bar La Pulguita",
      "tipo": "cafe",
      "lat": 40.2866928,
      "lon": -3.8006308,
      "direccion": null,
      "codigo_postal": null,
      "telefono": null,
      "web": null,
      "instagram": null,
      "horario": null,
      "terraza": false,
      "musica": null,
      "fuente": "openstreetmap"
    },
    {
      "id": "osm_node_2929917501",
      "nombre": "Cafetería Coral",
      "tipo": "cafe",
      "lat": 40.2861936,
      "lon": -3.8006884,
      "direccion": null,
      "codigo_postal": null,
      "telefono": null,
      "web": null,
      "instagram": null,
      "horario": null,
      "terraza": false,
      "musica": null,
      "fuente": "openstreetmap"
    },
    {
      "id": "osm_node_2929917502",
      "nombre": "Cafetería Fátima",
      "tipo": "cafe",
      "lat": 40.285524,
      "lon": -3.8021842,
      "direccion": null,
      "codigo_postal": null,
      "telefono": null,
      "web": null,
      "instagram": null,
      "horario": null,
      "terraza": false,
      "musica": null,
      "fuente": "openstreetmap"
    },
    {
      "id": "osm_node_2929917507",
      "nombre": "La Espuela",
      "tipo": "cafe",
      "lat": 40.285792,
      "lon": -3.8015679,
      "direccion": null,
      "codigo_postal": null,
      "telefono": null,
      "web": null,
      "instagram": null,
      "horario": null,
      "terraza": false,
      "musica": null,
      "fuente": "openstreetmap"
    },
    {
      "id": "osm_node_2932591232",
      "nombre": "Delicias",
      "tipo": "cafe",
      "lat": 40.2840946,
      "lon": -3.7978546,
      "direccion": null,
      "codigo_postal": null,
      "telefono": null,
      "web": null,
      "instagram": null,
      "horario": null,
      "terraza": false,
      "musica": null,
      "fuente": "openstreetmap"
    },
    {
      "id": "osm_node_3114600572",
      "nombre": "Cafetería Francia",
      "tipo": "cafe",
      "lat": 40.2854223,
      "lon": -3.807345,
      "direccion": "Calle de Francia 38",
      "codigo_postal": "28943",
      "telefono": null,
      "web": null,
      "instagram": null,
      "horario": null,
      "terraza": false,
      "musica": null,
      "fuente": "openstreetmap"
    },
    {
      "id": "osm_node_3184520860",
      "nombre": "Bar El Triángulo",
      "tipo": "pub",
      "lat": 40.2817156,
      "lon": -3.8058434,
      "direccion": null,
      "codigo_postal": null,
      "telefono": null,
      "web": null,
      "instagram": null,
      "horario": null,
      "terraza": false,
      "musica": null,
      "fuente": "openstreetmap"
    },
    {
      "id": "osm_node_3184522063",
      "nombre": "Bar Sujar",
      "tipo": "pub",
      "lat": 40.2817254,
      "lon": -3.8074303,
      "direccion": null,
      "codigo_postal": null,
      "telefono": null,
      "web": null,
      "instagram": null,
      "horario": null,
      "terraza": false,
      "musica": null,
      "fuente": "openstreetmap"
    },
    {
      "id": "osm_node_3184941386",
      "nombre": "Cafetería El Pater",
      "tipo": "cafe",
      "lat": 40.2816728,
      "lon": -3.807841,
      "direccion": null,
      "codigo_postal": null,
      "telefono": null,
      "web": null,
      "instagram": null,
      "horario": null,
      "terraza": false,
      "musica": null,
      "fuente": "openstreetmap"
    },
    {
      "id": "osm_node_3184941387",
      "nombre": "Cafetería Fórmula 1",
      "tipo": "cafe",
      "lat": 40.2814625,
      "lon": -3.8082582,
      "direccion": null,
      "codigo_postal": null,
      "telefono": null,
      "web": null,
      "instagram": null,
      "horario": null,
      "terraza": false,
      "musica": null,
      "fuente": "openstreetmap"
    },
    {
      "id": "osm_node_3184941388",
      "nombre": "Cafetería Racha",
      "tipo": "cafe",
      "lat": 40.2822543,
      "lon": -3.8088031,
      "direccion": null,
      "codigo_postal": null,
      "telefono": null,
      "web": null,
      "instagram": null,
      "horario": null,
      "terraza": false,
      "musica": null,
      "fuente": "openstreetmap"
    },
    {
      "id": "osm_node_3184941389",
      "nombre": "Cafetería Reyna",
      "tipo": "cafe",
      "lat": 40.2815404,
      "lon": -3.8078254,
      "direccion": null,
      "codigo_postal": null,
      "telefono": null,
      "web": null,
      "instagram": null,
      "horario": null,
      "terraza": false,
      "musica": null,
      "fuente": "openstreetmap"
    },
    {
      "id": "osm_node_3184941390",
      "nombre": "Cafetería Trébol",
      "tipo": "cafe",
      "lat": 40.2820428,
      "lon": -3.8087874,
      "direccion": null,
      "codigo_postal": null,
      "telefono": null,
      "web": null,
      "instagram": null,
      "horario": null,
      "terraza": false,
      "musica": null,
      "fuente": "openstreetmap"
    },
    {
      "id": "osm_node_3184941411",
      "nombre": "Tasca La Bruja",
      "tipo": "pub",
      "lat": 40.2816035,
      "lon": -3.8078329,
      "direccion": null,
      "codigo_postal": null,
      "telefono": null,
      "web": null,
      "instagram": null,
      "horario": null,
      "terraza": false,
      "musica": null,
      "fuente": "openstreetmap"
    },
    {
      "id": "osm_node_3258726668",
      "nombre": "Cervecería Garbancito",
      "tipo": "bar",
      "lat": 40.2877898,
      "lon": -3.8045882,
      "direccion": null,
      "codigo_postal": null,
      "telefono": null,
      "web": null,
      "instagram": null,
      "horario": null,
      "terraza": false,
      "musica": null,
      "fuente": "openstreetmap"
    },
    {
      "id": "osm_node_3662349535",
      "nombre": "La Catedral",
      "tipo": "pub",
      "lat": 40.293291,
      "lon": -3.8240499,
      "direccion": null,
      "codigo_postal": null,
      "telefono": null,
      "web": null,
      "instagram": null,
      "horario": null,
      "terraza": false,
      "musica": null,
      "fuente": "openstreetmap"
    },
    {
      "id": "osm_node_5141133152",
      "nombre": "Luxiry 66",
      "tipo": "bar",
      "lat": 40.3002666,
      "lon": -3.8094985,
      "direccion": "Calle de Galicia 32",
      "codigo_postal": "28942",
      "telefono": null,
      "web": null,
      "instagram": null,
      "horario": null,
      "terraza": false,
      "musica": null,
      "fuente": "openstreetmap"
    },
    {
      "id": "osm_node_5764450987",
      "nombre": "Malabar",
      "tipo": "pub",
      "lat": 40.2929245,
      "lon": -3.8227055,
      "direccion": null,
      "codigo_postal": null,
      "telefono": null,
      "web": null,
      "instagram": null,
      "horario": null,
      "terraza": false,
      "musica": null,
      "fuente": "openstreetmap"
    },
    {
      "id": "osm_node_6579797990",
      "nombre": "Cafetería Versalles",
      "tipo": "cafe",
      "lat": 40.2948449,
      "lon": -3.8332473,
      "direccion": "Calle de Gabriela Mistral 8",
      "codigo_postal": "28942",
      "telefono": null,
      "web": null,
      "instagram": null,
      "horario": null,
      "terraza": false,
      "musica": null,
      "fuente": "openstreetmap"
    },
    {
      "id": "osm_node_6579798585",
      "nombre": "Cafetería Bureo",
      "tipo": "cafe",
      "lat": 40.2954906,
      "lon": -3.8329279,
      "direccion": "Calle de Gabriela Mistral 12",
      "codigo_postal": "28942",
      "telefono": null,
      "web": null,
      "instagram": null,
      "horario": null,
      "terraza": false,
      "musica": null,
      "fuente": "openstreetmap"
    },
    {
      "id": "osm_node_6579819485",
      "nombre": "Churrería Cris",
      "tipo": "cafe",
      "lat": 40.29488,
      "lon": -3.8332367,
      "direccion": "Calle de Gabriela Mistral 8",
      "codigo_postal": "28942",
      "telefono": null,
      "web": null,
      "instagram": null,
      "horario": null,
      "terraza": false,
      "musica": null,
      "fuente": "openstreetmap"
    },
    {
      "id": "osm_node_6691169067",
      "nombre": "Bar Bravo",
      "tipo": "cafe",
      "lat": 40.2971281,
      "lon": -3.8099769,
      "direccion": null,
      "codigo_postal": null,
      "telefono": null,
      "web": null,
      "instagram": null,
      "horario": null,
      "terraza": true,
      "musica": null,
      "fuente": "openstreetmap"
    },
    {
      "id": "osm_node_7634393585",
      "nombre": "Meli",
      "tipo": "cafe",
      "lat": 40.2938371,
      "lon": -3.7834505,
      "direccion": null,
      "codigo_postal": null,
      "telefono": null,
      "web": null,
      "instagram": null,
      "horario": null,
      "terraza": false,
      "musica": null,
      "fuente": "openstreetmap"
    },
    {
      "id": "osm_node_8037362066",
      "nombre": "Cafetería El Ocho",
      "tipo": "cafe",
      "lat": 40.2946189,
      "lon": -3.7930417,
      "direccion": null,
      "codigo_postal": null,
      "telefono": null,
      "web": null,
      "instagram": null,
      "horario": null,
      "terraza": false,
      "musica": null,
      "fuente": "openstreetmap"
    },
    {
      "id": "osm_node_9646132541",
      "nombre": "Cafetería Loranca",
      "tipo": "cafe",
      "lat": 40.2986115,
      "lon": -3.8321714,
      "direccion": null,
      "codigo_postal": null,
      "telefono": null,
      "web": null,
      "instagram": null,
      "horario": null,
      "terraza": false,
      "musica": null,
      "fuente": "openstreetmap"
    },
    {
      "id": "osm_node_9716300168",
      "nombre": "Habana cocktails & gin",
      "tipo": "bar",
      "lat": 40.2929574,
      "lon": -3.7909036,
      "direccion": null,
      "codigo_postal": null,
      "telefono": null,
      "web": null,
      "instagram": null,
      "horario": "Su, We-Th 18:00-02:00; Mo-Tu 20:00-02:00; Fr-Sa 20:00-05:00",
      "terraza": false,
      "musica": null,
      "fuente": "openstreetmap"
    },
    {
      "id": "osm_node_9716300169",
      "nombre": "Kubo King",
      "tipo": "bar",
      "lat": 40.2927923,
      "lon": -3.7911064,
      "direccion": null,
      "codigo_postal": null,
      "telefono": null,
      "web": null,
      "instagram": null,
      "horario": null,
      "terraza": false,
      "musica": null,
      "fuente": "openstreetmap"
    },
    {
      "id": "osm_node_10266409313",
      "nombre": "La taberna del tiempo",
      "tipo": "bar",
      "lat": 40.2869018,
      "lon": -3.7999155,
      "direccion": "Calle de Móstoles 38",
      "codigo_postal": null,
      "telefono": null,
      "web": null,
      "instagram": null,
      "horario": null,
      "terraza": false,
      "musica": null,
      "fuente": "openstreetmap"
    },
    {
      "id": "osm_node_10266409315",
      "nombre": "Bar Restaurante Lucas",
      "tipo": "bar",
      "lat": 40.2849747,
      "lon": -3.7989818,
      "direccion": null,
      "codigo_postal": null,
      "telefono": null,
      "web": null,
      "instagram": null,
      "horario": null,
      "terraza": false,
      "musica": null,
      "fuente": "openstreetmap"
    },
    {
      "id": "osm_node_10266409510",
      "nombre": "Manhattan",
      "tipo": "bar",
      "lat": 40.2874484,
      "lon": -3.8000446,
      "direccion": "Avenida de las Regiones",
      "codigo_postal": null,
      "telefono": null,
      "web": null,
      "instagram": null,
      "horario": null,
      "terraza": false,
      "musica": null,
      "fuente": "openstreetmap"
    },
    {
      "id": "osm_node_10709109781",
      "nombre": "Bar Vagary",
      "tipo": "pub",
      "lat": 40.2823046,
      "lon": -3.7912116,
      "direccion": null,
      "codigo_postal": null,
      "telefono": null,
      "web": null,
      "instagram": null,
      "horario": null,
      "terraza": true,
      "musica": null,
      "fuente": "openstreetmap"
    },
    {
      "id": "osm_node_10922496535",
      "nombre": "Bar OTTO8",
      "tipo": "bar",
      "lat": 40.2904589,
      "lon": -3.8027625,
      "direccion": null,
      "codigo_postal": null,
      "telefono": null,
      "web": null,
      "instagram": null,
      "horario": null,
      "terraza": false,
      "musica": null,
      "fuente": "openstreetmap"
    },
    {
      "id": "osm_node_10922496545",
      "nombre": "Cervecería Ferrer",
      "tipo": "bar",
      "lat": 40.2910679,
      "lon": -3.8021109,
      "direccion": null,
      "codigo_postal": null,
      "telefono": null,
      "web": null,
      "instagram": null,
      "horario": null,
      "terraza": false,
      "musica": null,
      "fuente": "openstreetmap"
    },
    {
      "id": "osm_node_10922718608",
      "nombre": "Cerveceria La Placita",
      "tipo": "bar",
      "lat": 40.2973953,
      "lon": -3.8376999,
      "direccion": null,
      "codigo_postal": null,
      "telefono": null,
      "web": null,
      "instagram": null,
      "horario": null,
      "terraza": false,
      "musica": null,
      "fuente": "openstreetmap"
    },
    {
      "id": "osm_node_10922718612",
      "nombre": "Cerveceria La Paloma",
      "tipo": "bar",
      "lat": 40.297705,
      "lon": -3.8379272,
      "direccion": null,
      "codigo_postal": null,
      "telefono": null,
      "web": null,
      "instagram": null,
      "horario": null,
      "terraza": false,
      "musica": null,
      "fuente": "openstreetmap"
    },
    {
      "id": "osm_node_10922718618",
      "nombre": "Cafetería La Herradura de Oro",
      "tipo": "cafe",
      "lat": 40.2980708,
      "lon": -3.8376513,
      "direccion": null,
      "codigo_postal": null,
      "telefono": null,
      "web": null,
      "instagram": null,
      "horario": null,
      "terraza": false,
      "musica": null,
      "fuente": "openstreetmap"
    },
    {
      "id": "osm_node_10922718624",
      "nombre": "Taberna El Chigre",
      "tipo": "bar",
      "lat": 40.2980617,
      "lon": -3.8364794,
      "direccion": null,
      "codigo_postal": null,
      "telefono": null,
      "web": null,
      "instagram": null,
      "horario": null,
      "terraza": false,
      "musica": null,
      "fuente": "openstreetmap"
    },
    {
      "id": "osm_node_10925891167",
      "nombre": "Cervería Yoli",
      "tipo": "bar",
      "lat": 40.3137135,
      "lon": -3.8374344,
      "direccion": null,
      "codigo_postal": null,
      "telefono": null,
      "web": null,
      "instagram": null,
      "horario": null,
      "terraza": false,
      "musica": null,
      "fuente": "openstreetmap"
    },
    {
      "id": "osm_node_10925893157",
      "nombre": "El Colmao",
      "tipo": "bar",
      "lat": 40.3137918,
      "lon": -3.837367,
      "direccion": null,
      "codigo_postal": null,
      "telefono": null,
      "web": null,
      "instagram": null,
      "horario": null,
      "terraza": false,
      "musica": null,
      "fuente": "openstreetmap"
    },
    {
      "id": "osm_node_10925893408",
      "nombre": "El Paso Bar Bodega",
      "tipo": "bar",
      "lat": 40.3141256,
      "lon": -3.8371263,
      "direccion": null,
      "codigo_postal": null,
      "telefono": null,
      "web": null,
      "instagram": null,
      "horario": null,
      "terraza": false,
      "musica": null,
      "fuente": "openstreetmap"
    },
    {
      "id": "osm_node_11010064634",
      "nombre": "Saray",
      "tipo": "bar",
      "lat": 40.3000592,
      "lon": -3.8098095,
      "direccion": "Calle de Galicia",
      "codigo_postal": "28942",
      "telefono": null,
      "web": null,
      "instagram": null,
      "horario": null,
      "terraza": true,
      "musica": null,
      "fuente": "openstreetmap"
    },
    {
      "id": "osm_node_11011179722",
      "nombre": "El Salón de Versalles",
      "tipo": "bar",
      "lat": 40.2936556,
      "lon": -3.8319795,
      "direccion": null,
      "codigo_postal": null,
      "telefono": null,
      "web": null,
      "instagram": null,
      "horario": null,
      "terraza": false,
      "musica": null,
      "fuente": "openstreetmap"
    },
    {
      "id": "osm_node_11211949905",
      "nombre": "Tarta Sweet (Pastel & Café)",
      "tipo": "cafe",
      "lat": 40.2882726,
      "lon": -3.792374,
      "direccion": "Calle Málaga 2",
      "codigo_postal": "28945",
      "telefono": "+34 648255699",
      "web": "https://www.tartasweet.com/",
      "instagram": null,
      "horario": "Tu-Su 08:30-14:30,17:00-22:30",
      "terraza": true,
      "musica": null,
      "fuente": "openstreetmap"
    },
    {
      "id": "osm_node_11999465970",
      "nombre": "Chev Club",
      "tipo": "pub",
      "lat": 40.2846193,
      "lon": -3.7900666,
      "direccion": "Calle de Castillejos 22",
      "codigo_postal": null,
      "telefono": null,
      "web": null,
      "instagram": null,
      "horario": null,
      "terraza": false,
      "musica": null,
      "fuente": "openstreetmap"
    },
    {
      "id": "osm_node_12021341969",
      "nombre": "Magos",
      "tipo": "pub",
      "lat": 40.2900024,
      "lon": -3.8047684,
      "direccion": "Avenida de Europa 2",
      "codigo_postal": null,
      "telefono": null,
      "web": null,
      "instagram": null,
      "horario": "Mo-Su 22:00-06:00",
      "terraza": false,
      "musica": null,
      "fuente": "openstreetmap"
    },
    {
      "id": "osm_node_12021341970",
      "nombre": "Mesón Arriero",
      "tipo": "bar",
      "lat": 40.2843587,
      "lon": -3.8057574,
      "direccion": null,
      "codigo_postal": null,
      "telefono": null,
      "web": null,
      "instagram": null,
      "horario": "Su-Th 07:30-00:00; Fr-Sa 08:00-01:00",
      "terraza": false,
      "musica": null,
      "fuente": "openstreetmap"
    },
    {
      "id": "osm_node_12021342069",
      "nombre": "Pub Agualuna",
      "tipo": "pub",
      "lat": 40.2861271,
      "lon": -3.8009011,
      "direccion": "8",
      "codigo_postal": null,
      "telefono": null,
      "web": null,
      "instagram": null,
      "horario": null,
      "terraza": false,
      "musica": null,
      "fuente": "openstreetmap"
    },
    {
      "id": "osm_node_12023278370",
      "nombre": "Pub Manhattan Lounge",
      "tipo": "pub",
      "lat": 40.2806644,
      "lon": -3.7986229,
      "direccion": null,
      "codigo_postal": null,
      "telefono": null,
      "web": null,
      "instagram": null,
      "horario": "Mo-Th 16:00-02:00; Fr-Su 16:00-04:00",
      "terraza": false,
      "musica": null,
      "fuente": "openstreetmap"
    },
    {
      "id": "osm_node_12023691372",
      "nombre": "Disco pub Pompeya",
      "tipo": "pub",
      "lat": 40.2840571,
      "lon": -3.7900699,
      "direccion": null,
      "codigo_postal": null,
      "telefono": null,
      "web": null,
      "instagram": null,
      "horario": "Mo-Su 18:00-06:00",
      "terraza": false,
      "musica": null,
      "fuente": "openstreetmap"
    },
    {
      "id": "osm_node_12025562370",
      "nombre": "ChevClub",
      "tipo": "pub",
      "lat": 40.2844829,
      "lon": -3.7900865,
      "direccion": null,
      "codigo_postal": null,
      "telefono": null,
      "web": null,
      "instagram": null,
      "horario": "Th-Sa 11:00-05:30",
      "terraza": false,
      "musica": null,
      "fuente": "openstreetmap"
    },
    {
      "id": "osm_node_12025578569",
      "nombre": "Akua",
      "tipo": "pub",
      "lat": 40.2828725,
      "lon": -3.7915298,
      "direccion": null,
      "codigo_postal": null,
      "telefono": null,
      "web": null,
      "instagram": null,
      "horario": "Su, We-Th 18:00-02:00; Fr-Sa 18:00-03:30",
      "terraza": false,
      "musica": null,
      "fuente": "openstreetmap"
    },
    {
      "id": "osm_node_12026573069",
      "nombre": "El Bar",
      "tipo": "bar",
      "lat": 40.2827798,
      "lon": -3.8095954,
      "direccion": null,
      "codigo_postal": null,
      "telefono": null,
      "web": null,
      "instagram": null,
      "horario": null,
      "terraza": false,
      "musica": null,
      "fuente": "openstreetmap"
    },
    {
      "id": "osm_node_12026573169",
      "nombre": "La Tusa coissover",
      "tipo": "pub",
      "lat": 40.2881434,
      "lon": -3.8080443,
      "direccion": "Avenida de Europa 10",
      "codigo_postal": null,
      "telefono": null,
      "web": null,
      "instagram": null,
      "horario": null,
      "terraza": false,
      "musica": null,
      "fuente": "openstreetmap"
    },
    {
      "id": "osm_node_12026588069",
      "nombre": "Cafeteria Hungría",
      "tipo": "bar",
      "lat": 40.2839573,
      "lon": -3.8003925,
      "direccion": null,
      "codigo_postal": null,
      "telefono": null,
      "web": null,
      "instagram": null,
      "horario": "Mo-Fr 09:00-18:00; Sa 08:30-00:00; Su 07:30-18:00",
      "terraza": false,
      "musica": null,
      "fuente": "openstreetmap"
    },
    {
      "id": "osm_node_12026590769",
      "nombre": "Taberna Ibérica",
      "tipo": "bar",
      "lat": 40.2839981,
      "lon": -3.8005938,
      "direccion": null,
      "codigo_postal": null,
      "telefono": null,
      "web": null,
      "instagram": null,
      "horario": "Mo-Fr 06:30-23:30",
      "terraza": false,
      "musica": null,
      "fuente": "openstreetmap"
    },
    {
      "id": "osm_node_12031744869",
      "nombre": "La Plaza",
      "tipo": "bar",
      "lat": 40.2824205,
      "lon": -3.7923881,
      "direccion": null,
      "codigo_postal": null,
      "telefono": null,
      "web": null,
      "instagram": null,
      "horario": null,
      "terraza": false,
      "musica": null,
      "fuente": "openstreetmap"
    },
    {
      "id": "osm_node_12031744969",
      "nombre": "La Calabrava",
      "tipo": "bar",
      "lat": 40.2826678,
      "lon": -3.7928994,
      "direccion": null,
      "codigo_postal": null,
      "telefono": null,
      "web": null,
      "instagram": null,
      "horario": null,
      "terraza": false,
      "musica": null,
      "fuente": "openstreetmap"
    },
    {
      "id": "osm_node_12036052469",
      "nombre": "Daytona",
      "tipo": "bar",
      "lat": 40.2840007,
      "lon": -3.7842381,
      "direccion": "Calle de Brasil 7",
      "codigo_postal": null,
      "telefono": null,
      "web": null,
      "instagram": null,
      "horario": null,
      "terraza": false,
      "musica": null,
      "fuente": "openstreetmap"
    },
    {
      "id": "osm_node_12037738570",
      "nombre": "Pub El Galeon",
      "tipo": "pub",
      "lat": 40.2838459,
      "lon": -3.7920896,
      "direccion": null,
      "codigo_postal": null,
      "telefono": null,
      "web": null,
      "instagram": null,
      "horario": null,
      "terraza": false,
      "musica": null,
      "fuente": "openstreetmap"
    },
    {
      "id": "osm_node_12037738571",
      "nombre": "Pub Sublime",
      "tipo": "pub",
      "lat": 40.2836999,
      "lon": -3.7926152,
      "direccion": null,
      "codigo_postal": null,
      "telefono": null,
      "web": null,
      "instagram": null,
      "horario": "Sa-Su 00:00-06:00",
      "terraza": false,
      "musica": null,
      "fuente": "openstreetmap"
    },
    {
      "id": "osm_node_12037738573",
      "nombre": "Bar La Pausa",
      "tipo": "bar",
      "lat": 40.281498,
      "lon": -3.7941955,
      "direccion": null,
      "codigo_postal": null,
      "telefono": null,
      "web": null,
      "instagram": null,
      "horario": null,
      "terraza": false,
      "musica": null,
      "fuente": "openstreetmap"
    },
    {
      "id": "osm_node_12037738669",
      "nombre": "Pub Capítulo IV",
      "tipo": "pub",
      "lat": 40.2837044,
      "lon": -3.7924874,
      "direccion": null,
      "codigo_postal": null,
      "telefono": null,
      "web": null,
      "instagram": null,
      "horario": null,
      "terraza": false,
      "musica": null,
      "fuente": "openstreetmap"
    },
    {
      "id": "osm_node_12037738671",
      "nombre": "Pub Twin Peaks",
      "tipo": "pub",
      "lat": 40.2799472,
      "lon": -3.7915808,
      "direccion": null,
      "codigo_postal": null,
      "telefono": null,
      "web": null,
      "instagram": null,
      "horario": null,
      "terraza": false,
      "musica": null,
      "fuente": "openstreetmap"
    },
    {
      "id": "osm_node_12037738673",
      "nombre": "Cafeteria La Martin",
      "tipo": "bar",
      "lat": 40.2811899,
      "lon": -3.8082603,
      "direccion": "Calle de Portugal 30",
      "codigo_postal": null,
      "telefono": null,
      "web": null,
      "instagram": null,
      "horario": null,
      "terraza": false,
      "musica": null,
      "fuente": "openstreetmap"
    },
    {
      "id": "osm_node_12037738769",
      "nombre": "Pub Saloon",
      "tipo": "pub",
      "lat": 40.2840483,
      "lon": -3.7914397,
      "direccion": "Calle de Miguel de Unamuno 18",
      "codigo_postal": null,
      "telefono": null,
      "web": null,
      "instagram": null,
      "horario": null,
      "terraza": false,
      "musica": null,
      "fuente": "openstreetmap"
    },
    {
      "id": "osm_node_12037738771",
      "nombre": "El Clavel",
      "tipo": "bar",
      "lat": 40.284533,
      "lon": -3.8092056,
      "direccion": "Calle de Portugal 44",
      "codigo_postal": null,
      "telefono": null,
      "web": null,
      "instagram": null,
      "horario": null,
      "terraza": false,
      "musica": null,
      "fuente": "openstreetmap"
    },
    {
      "id": "osm_node_12037738869",
      "nombre": "Lume",
      "tipo": "bar",
      "lat": 40.2831519,
      "lon": -3.7919295,
      "direccion": null,
      "codigo_postal": null,
      "telefono": null,
      "web": null,
      "instagram": null,
      "horario": null,
      "terraza": false,
      "musica": null,
      "fuente": "openstreetmap"
    },
    {
      "id": "osm_node_12037738871",
      "nombre": "Conde Pedro",
      "tipo": "bar",
      "lat": 40.2804813,
      "lon": -3.7935312,
      "direccion": null,
      "codigo_postal": null,
      "telefono": null,
      "web": null,
      "instagram": null,
      "horario": null,
      "terraza": false,
      "musica": null,
      "fuente": "openstreetmap"
    },
    {
      "id": "osm_node_12037752569",
      "nombre": "Café Villacastin",
      "tipo": "bar",
      "lat": 40.2848051,
      "lon": -3.8068718,
      "direccion": null,
      "codigo_postal": null,
      "telefono": null,
      "web": null,
      "instagram": null,
      "horario": null,
      "terraza": false,
      "musica": null,
      "fuente": "openstreetmap"
    },
    {
      "id": "osm_node_12037755269",
      "nombre": "Mesón Triana",
      "tipo": "bar",
      "lat": 40.2843659,
      "lon": -3.8075094,
      "direccion": null,
      "codigo_postal": null,
      "telefono": null,
      "web": null,
      "instagram": null,
      "horario": null,
      "terraza": false,
      "musica": null,
      "fuente": "openstreetmap"
    },
    {
      "id": "osm_node_12037883169",
      "nombre": "Bar Hao Sin",
      "tipo": "bar",
      "lat": 40.2849903,
      "lon": -3.8099051,
      "direccion": "Calle de Francia 8",
      "codigo_postal": null,
      "telefono": null,
      "web": null,
      "instagram": null,
      "horario": null,
      "terraza": false,
      "musica": null,
      "fuente": "openstreetmap"
    },
    {
      "id": "osm_node_12050688969",
      "nombre": "Malafama burguer pub",
      "tipo": "pub",
      "lat": 40.2846797,
      "lon": -3.8063137,
      "direccion": null,
      "codigo_postal": null,
      "telefono": null,
      "web": null,
      "instagram": null,
      "horario": null,
      "terraza": false,
      "musica": null,
      "fuente": "openstreetmap"
    },
    {
      "id": "osm_node_12050689070",
      "nombre": "Cervecería el Canguro",
      "tipo": "bar",
      "lat": 40.2880731,
      "lon": -3.8025601,
      "direccion": null,
      "codigo_postal": null,
      "telefono": null,
      "web": null,
      "instagram": null,
      "horario": null,
      "terraza": false,
      "musica": null,
      "fuente": "openstreetmap"
    },
    {
      "id": "osm_node_12050689169",
      "nombre": "Cafeteria Montaña",
      "tipo": "bar",
      "lat": 40.2874268,
      "lon": -3.8030077,
      "direccion": null,
      "codigo_postal": null,
      "telefono": null,
      "web": null,
      "instagram": null,
      "horario": null,
      "terraza": false,
      "musica": null,
      "fuente": "openstreetmap"
    },
    {
      "id": "osm_node_12050689170",
      "nombre": "Cafetería Nemesio",
      "tipo": "bar",
      "lat": 40.2879214,
      "lon": -3.8036003,
      "direccion": null,
      "codigo_postal": null,
      "telefono": null,
      "web": null,
      "instagram": null,
      "horario": null,
      "terraza": false,
      "musica": null,
      "fuente": "openstreetmap"
    },
    {
      "id": "osm_node_12050689270",
      "nombre": "Bar restaurante Europa",
      "tipo": "bar",
      "lat": 40.2880244,
      "lon": -3.8027071,
      "direccion": null,
      "codigo_postal": null,
      "telefono": null,
      "web": null,
      "instagram": null,
      "horario": null,
      "terraza": false,
      "musica": null,
      "fuente": "openstreetmap"
    },
    {
      "id": "osm_node_12050689369",
      "nombre": "Cafeteria Peñafiel",
      "tipo": "bar",
      "lat": 40.2875384,
      "lon": -3.8003344,
      "direccion": "Avenida de las Naciones 14",
      "codigo_postal": null,
      "telefono": null,
      "web": null,
      "instagram": null,
      "horario": null,
      "terraza": false,
      "musica": null,
      "fuente": "openstreetmap"
    },
    {
      "id": "osm_node_12138717497",
      "nombre": "Café Dublín",
      "tipo": "cafe",
      "lat": 40.2824713,
      "lon": -3.8044642,
      "direccion": null,
      "codigo_postal": null,
      "telefono": null,
      "web": null,
      "instagram": null,
      "horario": null,
      "terraza": false,
      "musica": null,
      "fuente": "openstreetmap"
    },
    {
      "id": "osm_node_12496322303",
      "nombre": "Café El Molino",
      "tipo": "pub",
      "lat": 40.2847524,
      "lon": -3.8011873,
      "direccion": null,
      "codigo_postal": null,
      "telefono": null,
      "web": null,
      "instagram": null,
      "horario": null,
      "terraza": false,
      "musica": null,
      "fuente": "openstreetmap"
    },
    {
      "id": "osm_node_12496322402",
      "nombre": "Cafetería Cantabria",
      "tipo": "bar",
      "lat": 40.2882626,
      "lon": -3.7988491,
      "direccion": null,
      "codigo_postal": null,
      "telefono": null,
      "web": null,
      "instagram": null,
      "horario": null,
      "terraza": false,
      "musica": null,
      "fuente": "openstreetmap"
    },
    {
      "id": "osm_node_12496322409",
      "nombre": "Bar Restaurante Europa",
      "tipo": "bar",
      "lat": 40.288239,
      "lon": -3.8033529,
      "direccion": null,
      "codigo_postal": null,
      "telefono": null,
      "web": null,
      "instagram": null,
      "horario": null,
      "terraza": false,
      "musica": null,
      "fuente": "openstreetmap"
    },
    {
      "id": "osm_node_12496322410",
      "nombre": "Serie 076",
      "tipo": "bar",
      "lat": 40.2884029,
      "lon": -3.8027017,
      "direccion": null,
      "codigo_postal": null,
      "telefono": null,
      "web": null,
      "instagram": null,
      "horario": null,
      "terraza": false,
      "musica": null,
      "fuente": "openstreetmap"
    },
    {
      "id": "osm_node_12496322411",
      "nombre": "El rincón del portu",
      "tipo": "bar",
      "lat": 40.2883674,
      "lon": -3.8028824,
      "direccion": null,
      "codigo_postal": null,
      "telefono": null,
      "web": null,
      "instagram": null,
      "horario": null,
      "terraza": false,
      "musica": null,
      "fuente": "openstreetmap"
    },
    {
      "id": "osm_node_12496322412",
      "nombre": "El Minutejo",
      "tipo": "bar",
      "lat": 40.2882666,
      "lon": -3.8031835,
      "direccion": null,
      "codigo_postal": null,
      "telefono": null,
      "web": null,
      "instagram": null,
      "horario": null,
      "terraza": false,
      "musica": null,
      "fuente": "openstreetmap"
    },
    {
      "id": "osm_node_12496322502",
      "nombre": "Bar Nueva Era 2.3",
      "tipo": "bar",
      "lat": 40.2859366,
      "lon": -3.7982513,
      "direccion": null,
      "codigo_postal": null,
      "telefono": null,
      "web": null,
      "instagram": null,
      "horario": null,
      "terraza": false,
      "musica": null,
      "fuente": "openstreetmap"
    },
    {
      "id": "osm_node_12496322503",
      "nombre": "Bar Hermanos Chacon",
      "tipo": "pub",
      "lat": 40.285002,
      "lon": -3.7997537,
      "direccion": null,
      "codigo_postal": null,
      "telefono": null,
      "web": null,
      "instagram": null,
      "horario": null,
      "terraza": false,
      "musica": null,
      "fuente": "openstreetmap"
    },
    {
      "id": "osm_node_12496322505",
      "nombre": "Montaditos y Tapas co",
      "tipo": "bar",
      "lat": 40.2876932,
      "lon": -3.808005,
      "direccion": null,
      "codigo_postal": null,
      "telefono": null,
      "web": null,
      "instagram": null,
      "horario": null,
      "terraza": false,
      "musica": null,
      "fuente": "openstreetmap"
    },
    {
      "id": "osm_node_12496322507",
      "nombre": "Animal Hookah",
      "tipo": "bar",
      "lat": 40.2859551,
      "lon": -3.7980538,
      "direccion": null,
      "codigo_postal": null,
      "telefono": null,
      "web": null,
      "instagram": null,
      "horario": null,
      "terraza": false,
      "musica": null,
      "fuente": "openstreetmap"
    },
    {
      "id": "osm_node_12496398601",
      "nombre": "Sala Hora Rock",
      "tipo": "pub",
      "lat": 40.2882251,
      "lon": -3.8096385,
      "direccion": null,
      "codigo_postal": null,
      "telefono": null,
      "web": null,
      "instagram": null,
      "horario": null,
      "terraza": false,
      "musica": null,
      "fuente": "openstreetmap"
    },
    {
      "id": "osm_node_12620812104",
      "nombre": "Bar Bamboo Green",
      "tipo": "bar",
      "lat": 40.2970702,
      "lon": -3.8021624,
      "direccion": "Avenida de las Provincias 29",
      "codigo_postal": null,
      "telefono": null,
      "web": null,
      "instagram": null,
      "horario": "Tu-Th 09:00-23:00; Fr-Su 09:00-00:00",
      "terraza": true,
      "musica": null,
      "fuente": "openstreetmap"
    },
    {
      "id": "osm_node_12620812105",
      "nombre": "Café pub Bettore",
      "tipo": "pub",
      "lat": 40.2857475,
      "lon": -3.7997351,
      "direccion": null,
      "codigo_postal": null,
      "telefono": null,
      "web": null,
      "instagram": null,
      "horario": "Mo-Su 19:30-03:00",
      "terraza": false,
      "musica": null,
      "fuente": "openstreetmap"
    },
    {
      "id": "osm_node_12620813002",
      "nombre": "Cafetería Peña Restaurante",
      "tipo": "bar",
      "lat": 40.2971308,
      "lon": -3.8019334,
      "direccion": "Calle de Zamora 27",
      "codigo_postal": null,
      "telefono": null,
      "web": null,
      "instagram": null,
      "horario": "Mo-Fr 05:30-00:00; Sa 05:30-01:30; Su 07:30-00:00",
      "terraza": true,
      "musica": null,
      "fuente": "openstreetmap"
    },
    {
      "id": "osm_node_12620813003",
      "nombre": "Scorpions",
      "tipo": "pub",
      "lat": 40.2820609,
      "lon": -3.7921619,
      "direccion": null,
      "codigo_postal": null,
      "telefono": null,
      "web": null,
      "instagram": null,
      "horario": null,
      "terraza": false,
      "musica": null,
      "fuente": "openstreetmap"
    },
    {
      "id": "osm_node_12637394807",
      "nombre": "El templo del jamon",
      "tipo": "bar",
      "lat": 40.281476,
      "lon": -3.809479,
      "direccion": null,
      "codigo_postal": null,
      "telefono": null,
      "web": null,
      "instagram": null,
      "horario": null,
      "terraza": false,
      "musica": null,
      "fuente": "openstreetmap"
    },
    {
      "id": "osm_node_12877233501",
      "nombre": "A’ Capricho",
      "tipo": "cafe",
      "lat": 40.2854946,
      "lon": -3.793523,
      "direccion": "Calle de San Andrés 2",
      "codigo_postal": "28945",
      "telefono": null,
      "web": null,
      "instagram": "acapricho_crepes",
      "horario": "Mo-Tu, Th 09:00-14:00, 17:00-22:00; Fr-Sa 09:00-14:00, 17:30-23:00; Su 09:00-14:00, 17:30-23:00",
      "terraza": true,
      "musica": null,
      "fuente": "openstreetmap"
    },
    {
      "id": "osm_node_12997996403",
      "nombre": "Esnago's Cafe",
      "tipo": "bar",
      "lat": 40.2833063,
      "lon": -3.7983181,
      "direccion": "Paseo de la Estación 8",
      "codigo_postal": null,
      "telefono": null,
      "web": null,
      "instagram": null,
      "horario": "Mo-Fr 06:00-00:15; Sa-Su 08:00-00:15",
      "terraza": false,
      "musica": null,
      "fuente": "openstreetmap"
    },
    {
      "id": "osm_node_12997997302",
      "nombre": "Pub Sasha",
      "tipo": "pub",
      "lat": 40.294178,
      "lon": -3.7914522,
      "direccion": "Calle de Gerona 2",
      "codigo_postal": null,
      "telefono": null,
      "web": null,
      "instagram": null,
      "horario": null,
      "terraza": false,
      "musica": null,
      "fuente": "openstreetmap"
    },
    {
      "id": "osm_node_13033419190",
      "nombre": "La churre",
      "tipo": "cafe",
      "lat": 40.2843667,
      "lon": -3.7830868,
      "direccion": null,
      "codigo_postal": null,
      "telefono": null,
      "web": null,
      "instagram": null,
      "horario": null,
      "terraza": false,
      "musica": null,
      "fuente": "openstreetmap"
    },
    {
      "id": "osm_node_13138112322",
      "nombre": "Pub Sauce llorón",
      "tipo": "bar",
      "lat": 40.2854319,
      "lon": -3.8023786,
      "direccion": null,
      "codigo_postal": null,
      "telefono": null,
      "web": null,
      "instagram": null,
      "horario": "Su, Tu-Th 20:00-03:00, 20:00-03:00; Fr-Sa 21:00-03:30",
      "terraza": false,
      "musica": null,
      "fuente": "openstreetmap"
    },
    {
      "id": "osm_node_13138112329",
      "nombre": "Orenes",
      "tipo": "pub",
      "lat": 40.2940287,
      "lon": -3.7914506,
      "direccion": null,
      "codigo_postal": null,
      "telefono": null,
      "web": null,
      "instagram": null,
      "horario": null,
      "terraza": false,
      "musica": null,
      "fuente": "openstreetmap"
    },
    {
      "id": "osm_node_13305561902",
      "nombre": "Atlantis & Shisha",
      "tipo": "bar",
      "lat": 40.2932062,
      "lon": -3.8093154,
      "direccion": "Calle de Móstoles 78",
      "codigo_postal": null,
      "telefono": null,
      "web": null,
      "instagram": null,
      "horario": null,
      "terraza": false,
      "musica": null,
      "fuente": "openstreetmap"
    },
    {
      "id": "osm_node_13305562101",
      "nombre": "Pub Vegas",
      "tipo": "pub",
      "lat": 40.2949034,
      "lon": -3.7930186,
      "direccion": "Calle de Lérida 10",
      "codigo_postal": null,
      "telefono": null,
      "web": null,
      "instagram": null,
      "horario": null,
      "terraza": false,
      "musica": null,
      "fuente": "openstreetmap"
    },
    {
      "id": "osm_node_13305562401",
      "nombre": "Shine Shine",
      "tipo": "pub",
      "lat": 40.289889,
      "lon": -3.8052815,
      "direccion": "Avenida de Europa 2",
      "codigo_postal": null,
      "telefono": null,
      "web": null,
      "instagram": null,
      "horario": null,
      "terraza": false,
      "musica": null,
      "fuente": "openstreetmap"
    },
    {
      "id": "osm_node_13685614803",
      "nombre": "Cafetería Forus",
      "tipo": "cafe",
      "lat": 40.2920329,
      "lon": -3.8276421,
      "direccion": null,
      "codigo_postal": null,
      "telefono": null,
      "web": null,
      "instagram": null,
      "horario": null,
      "terraza": false,
      "musica": null,
      "fuente": "openstreetmap"
    },
    {
      "id": "osm_node_13743217802",
      "nombre": "Times rock",
      "tipo": "bar",
      "lat": 40.2810375,
      "lon": -3.7846383,
      "direccion": null,
      "codigo_postal": null,
      "telefono": null,
      "web": null,
      "instagram": null,
      "horario": null,
      "terraza": false,
      "musica": null,
      "fuente": "openstreetmap"
    },
    {
      "id": "osm_way_180257743",
      "nombre": "Bar Gregorio",
      "tipo": "bar",
      "lat": 40.282274,
      "lon": -3.796264,
      "direccion": "Calle de la Arena 38",
      "codigo_postal": null,
      "telefono": null,
      "web": null,
      "instagram": null,
      "horario": null,
      "terraza": false,
      "musica": null,
      "fuente": "openstreetmap"
    }
  ]
}