{
  "ciudad": "Girona",
  "total": 1053,
  "locales": [
    {
      "id": "osm_node_278695142",
      "nombre": "el centre",
      "tipo": "cafe",
      "lat": 42.1439352,
      "lon": 2.5703042,
      "direccion": null,
      "codigo_postal": null,
      "telefono": null,
      "web": null,
      "instagram": null,
      "horario": null,
      "terraza": false
    },
    {
      "id": "osm_node_356010269",
      "nombre": "Casino Girona",
      "tipo": "bar",
      "lat": 41.9858548,
      "lon": 2.8227549,
      "direccion": null,
      "codigo_postal": null,
      "telefono": null,
      "web": null,
      "instagram": null,
      "horario": null,
      "terraza": false
    },
    {
      "id": "osm_node_503522261",
      "nombre": "Sansibar",
      "tipo": "bar",
      "lat": 41.8574561,
      "lon": 3.1429532,
      "direccion": null,
      "codigo_postal": null,
      "telefono": null,
      "web": null,
      "instagram": null,
      "horario": null,
      "terraza": false
    },
    {
      "id": "osm_node_627788472",
      "nombre": "Bar La Societat",
      "tipo": "cafe",
      "lat": 42.3906865,
      "lon": 3.0007662,
      "direccion": null,
      "codigo_postal": null,
      "telefono": null,
      "web": null,
      "instagram": null,
      "horario": null,
      "terraza": false
    },
    {
      "id": "osm_node_664093701",
      "nombre": "Xiringuito Colera",
      "tipo": "bar",
      "lat": 42.4056079,
      "lon": 3.1551572,
      "direccion": null,
      "codigo_postal": null,
      "telefono": null,
      "web": null,
      "instagram": null,
      "horario": null,
      "terraza": true
    },
    {
      "id": "osm_node_664106841",
      "nombre": "BdeGust",
      "tipo": "cafe",
      "lat": 41.9775184,
      "lon": 2.8253985,
      "direccion": null,
      "codigo_postal": null,
      "telefono": null,
      "web": null,
      "instagram": null,
      "horario": null,
      "terraza": false
    },
    {
      "id": "osm_node_670696138",
      "nombre": "Ocre Bar",
      "tipo": "bar",
      "lat": 41.9779603,
      "lon": 2.8189683,
      "direccion": null,
      "codigo_postal": null,
      "telefono": null,
      "web": null,
      "instagram": null,
      "horario": null,
      "terraza": false
    },
    {
      "id": "osm_node_670696155",
      "nombre": "Bus Stop",
      "tipo": "bar",
      "lat": 41.9791605,
      "lon": 2.8182039,
      "direccion": null,
      "codigo_postal": null,
      "telefono": null,
      "web": null,
      "instagram": null,
      "horario": null,
      "terraza": false
    },
    {
      "id": "osm_node_670696158",
      "nombre": "Trafic",
      "tipo": "cafe",
      "lat": 41.9793678,
      "lon": 2.8182877,
      "direccion": null,
      "codigo_postal": null,
      "telefono": null,
      "web": null,
      "instagram": null,
      "horario": null,
      "terraza": false
    },
    {
      "id": "osm_node_670696172",
      "nombre": "El Crostó de Pá",
      "tipo": "bar",
      "lat": 41.9808669,
      "lon": 2.818931,
      "direccion": null,
      "codigo_postal": null,
      "telefono": null,
      "web": null,
      "instagram": null,
      "horario": null,
      "terraza": false
    },
    {
      "id": "osm_node_766696663",
      "nombre": "Cafe Internet",
      "tipo": "cafe",
      "lat": 42.2406391,
      "lon": 3.1236563,
      "direccion": null,
      "codigo_postal": "17487",
      "telefono": "+34972456668",
      "web": null,
      "instagram": null,
      "horario": "Mo-Su 08:00-01:00",
      "terraza": false
    },
    {
      "id": "osm_node_773674642",
      "nombre": "El Corte Ibérico",
      "tipo": "pub",
      "lat": 41.9776613,
      "lon": 2.8212434,
      "direccion": "Carrer del Migdia 6",
      "codigo_postal": "17002",
      "telefono": null,
      "web": null,
      "instagram": null,
      "horario": null,
      "terraza": false
    },
    {
      "id": "osm_node_774555304",
      "nombre": "El Cafe",
      "tipo": "cafe",
      "lat": 41.9834147,
      "lon": 2.8248351,
      "direccion": null,
      "codigo_postal": null,
      "telefono": null,
      "web": null,
      "instagram": null,
      "horario": null,
      "terraza": false
    },
    {
      "id": "osm_node_774770162",
      "nombre": "Txots Girona",
      "tipo": "cafe",
      "lat": 41.9861528,
      "lon": 2.8237947,
      "direccion": "Plaça Independencia 12",
      "codigo_postal": "17001",
      "telefono": null,
      "web": null,
      "instagram": null,
      "horario": null,
      "terraza": true
    },
    {
      "id": "osm_node_774783931",
      "nombre": "Lola Cafe",
      "tipo": "cafe",
      "lat": 41.9851311,
      "lon": 2.8254445,
      "direccion": null,
      "codigo_postal": null,
      "telefono": null,
      "web": null,
      "instagram": null,
      "horario": null,
      "terraza": false
    },
    {
      "id": "osm_node_781486477",
      "nombre": "Croak's",
      "tipo": "pub",
      "lat": 41.9855501,
      "lon": 2.8223406,
      "direccion": null,
      "codigo_postal": null,
      "telefono": null,
      "web": null,
      "instagram": null,
      "horario": null,
      "terraza": true
    },
    {
      "id": "osm_node_795677517",
      "nombre": "L'hort",
      "tipo": "cafe",
      "lat": 41.9760529,
      "lon": 2.8251862,
      "direccion": null,
      "codigo_postal": null,
      "telefono": null,
      "web": null,
      "instagram": null,
      "horario": null,
      "terraza": false
    },
    {
      "id": "osm_node_795677518",
      "nombre": "l'Olivera",
      "tipo": "cafe",
      "lat": 41.9760329,
      "lon": 2.8259855,
      "direccion": null,
      "codigo_postal": null,
      "telefono": null,
      "web": null,
      "instagram": null,
      "horario": null,
      "terraza": false
    },
    {
      "id": "osm_node_797739609",
      "nombre": "Bar Can Maimir",
      "tipo": "pub",
      "lat": 41.9686906,
      "lon": 3.1485627,
      "direccion": "Carrer de l'Enginyer Algarra 47",
      "codigo_postal": "17256",
      "telefono": "+34 972 63 61 85",
      "web": null,
      "instagram": null,
      "horario": null,
      "terraza": false
    },
    {
      "id": "osm_node_801898034",
      "nombre": "L'Arc",
      "tipo": "cafe",
      "lat": 41.9871887,
      "lon": 2.8251439,
      "direccion": "Plaça de la Catedral 9",
      "codigo_postal": "17004",
      "telefono": null,
      "web": null,
      "instagram": null,
      "horario": null,
      "terraza": false
    },
    {
      "id": "osm_node_805202264",
      "nombre": "La Pinta",
      "tipo": "biergarten",
      "lat": 41.9889674,
      "lon": 2.8245867,
      "direccion": null,
      "codigo_postal": null,
      "telefono": null,
      "web": null,
      "instagram": null,
      "horario": null,
      "terraza": false
    },
    {
      "id": "osm_node_805202295",
      "nombre": "Cafè Royal",
      "tipo": "cafe",
      "lat": 41.9854238,
      "lon": 2.82336,
      "direccion": "Plaça de la Independència",
      "codigo_postal": null,
      "telefono": null,
      "web": null,
      "instagram": null,
      "horario": null,
      "terraza": false
    },
    {
      "id": "osm_node_807791955",
      "nombre": "La Barretina",
      "tipo": "bar",
      "lat": 42.2657945,
      "lon": 2.9589088,
      "direccion": null,
      "codigo_postal": null,
      "telefono": "+34 972 676 412",
      "web": "https://hostallabarretina.com/el-restaurante/",
      "instagram": null,
      "horario": null,
      "terraza": false
    },
    {
      "id": "osm_node_811410764",
      "nombre": "El Petit Racó",
      "tipo": "cafe",
      "lat": 41.9743109,
      "lon": 2.7824426,
      "direccion": null,
      "codigo_postal": null,
      "telefono": null,
      "web": null,
      "instagram": null,
      "horario": null,
      "terraza": false
    },
    {
      "id": "osm_node_821609276",
      "nombre": "La Taverna",
      "tipo": "cafe",
      "lat": 41.9840263,
      "lon": 2.8218615,
      "direccion": null,
      "codigo_postal": null,
      "telefono": null,
      "web": null,
      "instagram": null,
      "horario": null,
      "terraza": false
    },
    {
      "id": "osm_node_821609286",
      "nombre": "Hostal Coll",
      "tipo": "bar",
      "lat": 41.9841807,
      "lon": 2.8220964,
      "direccion": null,
      "codigo_postal": null,
      "telefono": null,
      "web": null,
      "instagram": null,
      "horario": null,
      "terraza": false
    },
    {
      "id": "osm_node_821852040",
      "nombre": "Bar Can Pauet",
      "tipo": "bar",
      "lat": 42.1453841,
      "lon": 2.5700238,
      "direccion": null,
      "codigo_postal": null,
      "telefono": null,
      "web": null,
      "instagram": null,
      "horario": null,
      "terraza": false
    },
    {
      "id": "osm_node_837915850",
      "nombre": "Cafeteria BomBó",
      "tipo": "cafe",
      "lat": 41.971181,
      "lon": 2.817817,
      "direccion": null,
      "codigo_postal": null,
      "telefono": null,
      "web": null,
      "instagram": null,
      "horario": null,
      "terraza": false
    },
    {
      "id": "osm_node_849383295",
      "nombre": "B",
      "tipo": "bar",
      "lat": 42.1453255,
      "lon": 3.11634,
      "direccion": null,
      "codigo_postal": null,
      "telefono": null,
      "web": null,
      "instagram": null,
      "horario": null,
      "terraza": false
    },
    {
      "id": "osm_node_863356381",
      "nombre": "Arcada",
      "tipo": "cafe",
      "lat": 42.1809414,
      "lon": 2.4855727,
      "direccion": null,
      "codigo_postal": null,
      "telefono": null,
      "web": null,
      "instagram": null,
      "horario": null,
      "terraza": false
    },
    {
      "id": "osm_node_911794253",
      "nombre": "Cafè del Mar",
      "tipo": "cafe",
      "lat": 42.12616,
      "lon": 3.1337616,
      "direccion": null,
      "codigo_postal": null,
      "telefono": null,
      "web": null,
      "instagram": null,
      "horario": null,
      "terraza": false
    },
    {
      "id": "osm_node_911794256",
      "nombre": "La Punxa",
      "tipo": "cafe",
      "lat": 42.1262001,
      "lon": 3.1339187,
      "direccion": null,
      "codigo_postal": null,
      "telefono": null,
      "web": null,
      "instagram": null,
      "horario": null,
      "terraza": false
    },
    {
      "id": "osm_node_965997868",
      "nombre": "Guillem's Bar",
      "tipo": "bar",
      "lat": 42.0097643,
      "lon": 2.6029743,
      "direccion": null,
      "codigo_postal": null,
      "telefono": null,
      "web": null,
      "instagram": null,
      "horario": null,
      "terraza": false
    },
    {
      "id": "osm_node_965997915",
      "nombre": "Bar Infinit",
      "tipo": "bar",
      "lat": 42.008999,
      "lon": 2.6031353,
      "direccion": null,
      "codigo_postal": null,
      "telefono": null,
      "web": null,
      "instagram": null,
      "horario": null,
      "terraza": false
    },
    {
      "id": "osm_node_966112984",
      "nombre": "Cafè Comerç (Ca l'Anita)",
      "tipo": "cafe",
      "lat": 42.0090423,
      "lon": 2.6027225,
      "direccion": null,
      "codigo_postal": null,
      "telefono": null,
      "web": null,
      "instagram": null,
      "horario": null,
      "terraza": false
    },
    {
      "id": "osm_node_993401612",
      "nombre": "Bar Restaurant l'Escola",
      "tipo": "cafe",
      "lat": 42.2260889,
      "lon": 3.0416521,
      "direccion": null,
      "codigo_postal": null,
      "telefono": null,
      "web": null,
      "instagram": null,
      "horario": "Tu-Su 08:30-16:30",
      "terraza": false
    },
    {
      "id": "osm_node_1027288328",
      "nombre": "Bar Josep",
      "tipo": "bar",
      "lat": 41.7173471,
      "lon": 2.9319484,
      "direccion": "Carrer Estolt 5",
      "codigo_postal": null,
      "telefono": null,
      "web": null,
      "instagram": null,
      "horario": null,
      "terraza": false
    },
    {
      "id": "osm_node_1206224137",
      "nombre": "Bar La Plaça",
      "tipo": "cafe",
      "lat": 42.0246615,
      "lon": 2.8787696,
      "direccion": null,
      "codigo_postal": null,
      "telefono": null,
      "web": null,
      "instagram": null,
      "horario": null,
      "terraza": false
    },
    {
      "id": "osm_node_1207185816",
      "nombre": "Butron Berria",
      "tipo": "bar",
      "lat": 41.7923446,
      "lon": 3.0254554,
      "direccion": null,
      "codigo_postal": null,
      "telefono": null,
      "web": null,
      "instagram": null,
      "horario": null,
      "terraza": false
    },
    {
      "id": "osm_node_1207185823",
      "nombre": "PK2",
      "tipo": "pub",
      "lat": 41.7924507,
      "lon": 3.0256645,
      "direccion": null,
      "codigo_postal": null,
      "telefono": null,
      "web": null,
      "instagram": null,
      "horario": null,
      "terraza": false
    },
    {
      "id": "osm_node_1277233351",
      "nombre": "El racó dels amics",
      "tipo": "pub",
      "lat": 41.9690637,
      "lon": 2.6699314,
      "direccion": "Carrer Sant Ramon",
      "codigo_postal": null,
      "telefono": null,
      "web": null,
      "instagram": null,
      "horario": null,
      "terraza": false
    },
    {
      "id": "osm_node_1282622529",
      "nombre": "El Centre",
      "tipo": "bar",
      "lat": 42.0630214,
      "lon": 3.0452795,
      "direccion": null,
      "codigo_postal": null,
      "telefono": null,
      "web": null,
      "instagram": null,
      "horario": null,
      "terraza": false
    },
    {
      "id": "osm_node_1291798715",
      "nombre": "La Piadina",
      "tipo": "cafe",
      "lat": 41.9773615,
      "lon": 2.8208519,
      "direccion": null,
      "codigo_postal": null,
      "telefono": null,
      "web": null,
      "instagram": null,
      "horario": null,
      "terraza": true
    },
    {
      "id": "osm_node_1291857975",
      "nombre": "Antiga",
      "tipo": "cafe",
      "lat": 41.9830213,
      "lon": 2.8244305,
      "direccion": "Plaça del Vi 8",
      "codigo_postal": null,
      "telefono": "+34972216681",
      "web": null,
      "instagram": null,
      "horario": null,
      "terraza": false
    },
    {
      "id": "osm_node_1305074672",
      "nombre": "Termic",
      "tipo": "pub",
      "lat": 41.8388046,
      "lon": 2.8094909,
      "direccion": null,
      "codigo_postal": null,
      "telefono": null,
      "web": null,
      "instagram": null,
      "horario": null,
      "terraza": false
    },
    {
      "id": "osm_node_1347557812",
      "nombre": "Cafe Pia&Co",
      "tipo": "cafe",
      "lat": 42.1823903,
      "lon": 2.490746,
      "direccion": null,
      "codigo_postal": null,
      "telefono": null,
      "web": null,
      "instagram": null,
      "horario": null,
      "terraza": true
    },
    {
      "id": "osm_node_1361485277",
      "nombre": "Chaplin",
      "tipo": "pub",
      "lat": 41.7183925,
      "lon": 2.9306296,
      "direccion": null,
      "codigo_postal": null,
      "telefono": null,
      "web": null,
      "instagram": null,
      "horario": "21:30-03:00",
      "terraza": false
    },
    {
      "id": "osm_node_1371286026",
      "nombre": "El Pessic",
      "tipo": "cafe",
      "lat": 41.981944,
      "lon": 2.823804,
      "direccion": null,
      "codigo_postal": null,
      "telefono": null,
      "web": null,
      "instagram": null,
      "horario": "Mo, Tu, Th-Su 08:00-20:00",
      "terraza": true
    },
    {
      "id": "osm_node_1384322368",
      "nombre": "Salata",
      "tipo": "cafe",
      "lat": 42.2653995,
      "lon": 3.1566861,
      "direccion": null,
      "codigo_postal": null,
      "telefono": null,
      "web": null,
      "instagram": null,
      "horario": null,
      "terraza": false
    },
    {
      "id": "osm_node_1389879213",
      "nombre": "Caravel·la",
      "tipo": "cafe",
      "lat": 42.1261464,
      "lon": 3.1336434,
      "direccion": null,
      "codigo_postal": null,
      "telefono": null,
      "web": null,
      "instagram": null,
      "horario": null,
      "terraza": false
    },
    {
      "id": "osm_node_1392924788",
      "nombre": "Can Dani",
      "tipo": "pub",
      "lat": 42.015,
      "lon": 2.81738,
      "direccion": null,
      "codigo_postal": null,
      "telefono": null,
      "web": null,
      "instagram": null,
      "horario": null,
      "terraza": false
    },
    {
      "id": "osm_node_1399587469",
      "nombre": "Bocafe",
      "tipo": "cafe",
      "lat": 41.976932,
      "lon": 2.824365,
      "direccion": null,
      "codigo_postal": null,
      "telefono": null,
      "web": null,
      "instagram": null,
      "horario": null,
      "terraza": false
    },
    {
      "id": "osm_node_1401129247",
      "nombre": "La Bodeguita",
      "tipo": "bar",
      "lat": 42.2634319,
      "lon": 3.1552955,
      "direccion": "Avinguda de la Gola de l'Estany 48",
      "codigo_postal": null,
      "telefono": "+34 658 11 47 87",
      "web": "https://labodeguita-barandgrill.negocio.site",
      "instagram": null,
      "horario": "Mo-Su 10:00-02:30",
      "terraza": false
    },
    {
      "id": "osm_node_1401129251",
      "nombre": "Monscafe",
      "tipo": "cafe",
      "lat": 42.2642197,
      "lon": 3.1554093,
      "direccion": null,
      "codigo_postal": null,
      "telefono": null,
      "web": null,
      "instagram": null,
      "horario": null,
      "terraza": false
    },
    {
      "id": "osm_node_1404701106",
      "nombre": "Bau Nafent",
      "tipo": "cafe",
      "lat": 42.0413579,
      "lon": 3.1280495,
      "direccion": null,
      "codigo_postal": null,
      "telefono": null,
      "web": null,
      "instagram": null,
      "horario": null,
      "terraza": true
    },
    {
      "id": "osm_node_1430505252",
      "nombre": "Zeppelin Cafe",
      "tipo": "cafe",
      "lat": 42.2674964,
      "lon": 2.9592878,
      "direccion": null,
      "codigo_postal": null,
      "telefono": null,
      "web": null,
      "instagram": null,
      "horario": null,
      "terraza": false
    },
    {
      "id": "osm_node_1430505253",
      "nombre": "Divi Cafe Bar",
      "tipo": "cafe",
      "lat": 42.2683151,
      "lon": 2.9598984,
      "direccion": null,
      "codigo_postal": null,
      "telefono": null,
      "web": null,
      "instagram": null,
      "horario": null,
      "terraza": false
    },
    {
      "id": "osm_node_1430505257",
      "nombre": "Placa Burger Cafe",
      "tipo": "cafe",
      "lat": 42.2680618,
      "lon": 2.9600363,
      "direccion": "Plaça de Gala i Salvador Dalí 3",
      "codigo_postal": "17600",
      "telefono": null,
      "web": null,
      "instagram": null,
      "horario": null,
      "terraza": false
    },
    {
      "id": "osm_node_1430505264",
      "nombre": "Imperial 82 Salon Comedor",
      "tipo": "pub",
      "lat": 42.2682243,
      "lon": 2.9600915,
      "direccion": null,
      "codigo_postal": null,
      "telefono": null,
      "web": null,
      "instagram": null,
      "horario": null,
      "terraza": false
    },
    {
      "id": "osm_node_1437261787",
      "nombre": "Bar La Presó",
      "tipo": "bar",
      "lat": 41.9693245,
      "lon": 2.6231933,
      "direccion": "Passeig de l'Estació 16",
      "codigo_postal": "17165",
      "telefono": "+34 972423758",
      "web": null,
      "instagram": null,
      "horario": null,
      "terraza": true
    },
    {
      "id": "osm_node_1446229316",
      "nombre": "Harry's Bar",
      "tipo": "bar",
      "lat": 42.259938,
      "lon": 3.1808619,
      "direccion": null,
      "codigo_postal": null,
      "telefono": null,
      "web": null,
      "instagram": null,
      "horario": null,
      "terraza": false
    },
    {
      "id": "osm_node_1448643567",
      "nombre": "Bar Salvà",
      "tipo": "pub",
      "lat": 41.969386,
      "lon": 2.62166,
      "direccion": "Passeig de l'estació 3",
      "codigo_postal": "17165",
      "telefono": null,
      "web": null,
      "instagram": null,
      "horario": "Tu-Th 07:30-20:00; Fr 07:30-23:00; Sa 08:00-23:00; Su 08:00-18:00",
      "terraza": true
    },
    {
      "id": "osm_node_1463001160",
      "nombre": "Cal Campaner",
      "tipo": "bar",
      "lat": 41.9825342,
      "lon": 2.8149071,
      "direccion": null,
      "codigo_postal": null,
      "telefono": null,
      "web": null,
      "instagram": null,
      "horario": null,
      "terraza": false
    },
    {
      "id": "osm_node_1484107135",
      "nombre": "Doll",
      "tipo": "bar",
      "lat": 41.987368,
      "lon": 2.824333,
      "direccion": null,
      "codigo_postal": null,
      "telefono": null,
      "web": null,
      "instagram": null,
      "horario": null,
      "terraza": false
    },
    {
      "id": "osm_node_1486939722",
      "nombre": "Canigo",
      "tipo": "pub",
      "lat": 41.9774162,
      "lon": 2.8192434,
      "direccion": null,
      "codigo_postal": null,
      "telefono": null,
      "web": null,
      "instagram": null,
      "horario": null,
      "terraza": false
    },
    {
      "id": "osm_node_1625003370",
      "nombre": "Saratoga",
      "tipo": "cafe",
      "lat": 41.9772358,
      "lon": 2.8214668,
      "direccion": null,
      "codigo_postal": "17002",
      "telefono": null,
      "web": null,
      "instagram": null,
      "horario": null,
      "terraza": true
    },
    {
      "id": "osm_node_1625003386",
      "nombre": "Espit Chupitos",
      "tipo": "bar",
      "lat": 41.9768415,
      "lon": 2.8219823,
      "direccion": null,
      "codigo_postal": null,
      "telefono": null,
      "web": null,
      "instagram": null,
      "horario": null,
      "terraza": false
    },
    {
      "id": "osm_node_1625003387",
      "nombre": "Olivé Xurreria",
      "tipo": "cafe",
      "lat": 41.9767572,
      "lon": 2.8210163,
      "direccion": "Carrer Bisbe Lorenzana",
      "codigo_postal": "17002",
      "telefono": null,
      "web": null,
      "instagram": null,
      "horario": null,
      "terraza": false
    },
    {
      "id": "osm_node_1637718227",
      "nombre": "Bar Es Castell",
      "tipo": "cafe",
      "lat": 41.9545058,
      "lon": 3.2077729,
      "direccion": "Plaça de la Vila 4",
      "codigo_postal": "17255",
      "telefono": null,
      "web": "https://www.hotelclassicbegur.com/",
      "instagram": null,
      "horario": null,
      "terraza": false
    },
    {
      "id": "osm_node_1643514451",
      "nombre": "Sa Xarxa",
      "tipo": "bar",
      "lat": 41.7006932,
      "lon": 2.8516081,
      "direccion": null,
      "codigo_postal": null,
      "telefono": null,
      "web": null,
      "instagram": null,
      "horario": null,
      "terraza": false
    },
    {
      "id": "osm_node_1705452781",
      "nombre": "Sant Pau",
      "tipo": "cafe",
      "lat": 42.2662144,
      "lon": 3.1762914,
      "direccion": null,
      "codigo_postal": null,
      "telefono": null,
      "web": null,
      "instagram": null,
      "horario": null,
      "terraza": false
    },
    {
      "id": "osm_node_1706159704",
      "nombre": "La Bahía",
      "tipo": "bar",
      "lat": 42.2664905,
      "lon": 3.1750389,
      "direccion": null,
      "codigo_postal": null,
      "telefono": null,
      "web": null,
      "instagram": null,
      "horario": null,
      "terraza": false
    },
    {
      "id": "osm_node_1707218073",
      "nombre": "Cafe dels Tints",
      "tipo": "cafe",
      "lat": 42.2680362,
      "lon": 2.9612154,
      "direccion": null,
      "codigo_postal": null,
      "telefono": null,
      "web": null,
      "instagram": null,
      "horario": "Mo-Sa 08:30-20:30",
      "terraza": false
    },
    {
      "id": "osm_node_1709843857",
      "nombre": "Fighting Cock's Bar",
      "tipo": "pub",
      "lat": 42.051561,
      "lon": 3.1930809,
      "direccion": "Avinguda de Grecia 58",
      "codigo_postal": "17258",
      "telefono": null,
      "web": null,
      "instagram": null,
      "horario": null,
      "terraza": false
    },
    {
      "id": "osm_node_1765360511",
      "nombre": "Cafetería Manix",
      "tipo": "cafe",
      "lat": 41.984617,
      "lon": 2.8218753,
      "direccion": null,
      "codigo_postal": null,
      "telefono": null,
      "web": null,
      "instagram": null,
      "horario": null,
      "terraza": false
    },
    {
      "id": "osm_node_1765360513",
      "nombre": "El Niu",
      "tipo": "cafe",
      "lat": 41.9826838,
      "lon": 2.8201591,
      "direccion": null,
      "codigo_postal": null,
      "telefono": null,
      "web": null,
      "instagram": null,
      "horario": null,
      "terraza": false
    },
    {
      "id": "osm_node_1765360516",
      "nombre": "Nim's",
      "tipo": "bar",
      "lat": 41.9835162,
      "lon": 2.8215397,
      "direccion": null,
      "codigo_postal": null,
      "telefono": null,
      "web": null,
      "instagram": null,
      "horario": null,
      "terraza": false
    },
    {
      "id": "osm_node_1791248330",
      "nombre": "Moana",
      "tipo": "pub",
      "lat": 41.8199703,
      "lon": 3.0688486,
      "direccion": null,
      "codigo_postal": null,
      "telefono": null,
      "web": null,
      "instagram": null,
      "horario": null,
      "terraza": false
    },
    {
      "id": "osm_node_1793159688",
      "nombre": "El Fraternal",
      "tipo": "cafe",
      "lat": 41.9164796,
      "lon": 3.1649052,
      "direccion": null,
      "codigo_postal": null,
      "telefono": null,
      "web": null,
      "instagram": null,
      "horario": null,
      "terraza": false
    },
    {
      "id": "osm_node_1800850474",
      "nombre": "Beachbar",
      "tipo": "bar",
      "lat": 41.8318704,
      "lon": 3.0870931,
      "direccion": null,
      "codigo_postal": null,
      "telefono": null,
      "web": null,
      "instagram": null,
      "horario": null,
      "terraza": false
    },
    {
      "id": "osm_node_1805301325",
      "nombre": "Yeah!",
      "tipo": "bar",
      "lat": 41.9861176,
      "lon": 2.8218196,
      "direccion": null,
      "codigo_postal": null,
      "telefono": null,
      "web": null,
      "instagram": null,
      "horario": null,
      "terraza": false
    },
    {
      "id": "osm_node_1819195474",
      "nombre": "El Tiburon",
      "tipo": "bar",
      "lat": 41.8433442,
      "lon": 3.0979291,
      "direccion": null,
      "codigo_postal": null,
      "telefono": null,
      "web": null,
      "instagram": null,
      "horario": null,
      "terraza": false
    },
    {
      "id": "osm_node_1869278230",
      "nombre": "Riquissimo Veramar",
      "tipo": "pub",
      "lat": 41.72071,
      "lon": 2.9338338,
      "direccion": null,
      "codigo_postal": null,
      "telefono": null,
      "web": null,
      "instagram": null,
      "horario": null,
      "terraza": false
    },
    {
      "id": "osm_node_1869278235",
      "nombre": "Solarium",
      "tipo": "bar",
      "lat": 41.7218114,
      "lon": 2.9334464,
      "direccion": null,
      "codigo_postal": null,
      "telefono": null,
      "web": null,
      "instagram": null,
      "horario": null,
      "terraza": false
    },
    {
      "id": "osm_node_1875612502",
      "nombre": "La Ferrada",
      "tipo": "cafe",
      "lat": 42.2660982,
      "lon": 3.1765196,
      "direccion": null,
      "codigo_postal": null,
      "telefono": null,
      "web": null,
      "instagram": null,
      "horario": null,
      "terraza": false
    },
    {
      "id": "osm_node_1875638009",
      "nombre": "Bar Lido",
      "tipo": "bar",
      "lat": 42.1879854,
      "lon": 3.0830356,
      "direccion": "Carrer del Mar 19",
      "codigo_postal": null,
      "telefono": null,
      "web": null,
      "instagram": null,
      "horario": null,
      "terraza": false
    },
    {
      "id": "osm_node_1875927395",
      "nombre": "Guingueta el campaner",
      "tipo": "cafe",
      "lat": 42.4272384,
      "lon": 3.1603785,
      "direccion": null,
      "codigo_postal": null,
      "telefono": null,
      "web": null,
      "instagram": null,
      "horario": "Mo-Su,PH 08:00-21:00",
      "terraza": true
    },
    {
      "id": "osm_node_1901120814",
      "nombre": "Chakra",
      "tipo": "bar",
      "lat": 42.2685387,
      "lon": 2.9609093,
      "direccion": null,
      "codigo_postal": null,
      "telefono": null,
      "web": null,
      "instagram": null,
      "horario": null,
      "terraza": false
    },
    {
      "id": "osm_node_1913012082",
      "nombre": "Aquí te espero",
      "tipo": "bar",
      "lat": 42.2713844,
      "lon": 2.9589544,
      "direccion": null,
      "codigo_postal": null,
      "telefono": null,
      "web": null,
      "instagram": null,
      "horario": null,
      "terraza": false
    },
    {
      "id": "osm_node_1913235470",
      "nombre": "Venecia",
      "tipo": "bar",
      "lat": 42.2679907,
      "lon": 2.9617781,
      "direccion": null,
      "codigo_postal": null,
      "telefono": null,
      "web": null,
      "instagram": null,
      "horario": null,
      "terraza": false
    },
    {
      "id": "osm_node_1913235485",
      "nombre": "Estació Toses",
      "tipo": "pub",
      "lat": 42.3208898,
      "lon": 2.0152276,
      "direccion": null,
      "codigo_postal": null,
      "telefono": null,
      "web": null,
      "instagram": null,
      "horario": "Th-Tu 08:00-17:00",
      "terraza": false
    },
    {
      "id": "osm_node_1913237649",
      "nombre": "Lizard",
      "tipo": "bar",
      "lat": 42.2682315,
      "lon": 2.961504,
      "direccion": null,
      "codigo_postal": null,
      "telefono": null,
      "web": null,
      "instagram": null,
      "horario": "Mo 18:30-24:00; Tu-Sa 00:00-02:00,18:30-24:00; Su 00:00-02:00",
      "terraza": false
    },
    {
      "id": "osm_node_1915263553",
      "nombre": "Granier",
      "tipo": "cafe",
      "lat": 42.2667916,
      "lon": 2.9598963,
      "direccion": null,
      "codigo_postal": null,
      "telefono": null,
      "web": null,
      "instagram": null,
      "horario": null,
      "terraza": false
    },
    {
      "id": "osm_node_1915433640",
      "nombre": "5 Sentidos",
      "tipo": "pub",
      "lat": 42.2462103,
      "lon": 3.1255444,
      "direccion": "Pl. de l'Església 18",
      "codigo_postal": "17487",
      "telefono": null,
      "web": null,
      "instagram": null,
      "horario": null,
      "terraza": false
    },
    {
      "id": "osm_node_1915433655",
      "nombre": "Bar Canal",
      "tipo": "bar",
      "lat": 42.2462161,
      "lon": 3.1249327,
      "direccion": "Avinguda del Canal 1",
      "codigo_postal": "17487",
      "telefono": null,
      "web": null,
      "instagram": null,
      "horario": null,
      "terraza": true
    },
    {
      "id": "osm_node_1920401166",
      "nombre": "Passeig",
      "tipo": "bar",
      "lat": 42.1166709,
      "lon": 2.7637805,
      "direccion": null,
      "codigo_postal": null,
      "telefono": null,
      "web": null,
      "instagram": null,
      "horario": null,
      "terraza": false
    },
    {
      "id": "osm_node_1920401172",
      "nombre": "Can Pons",
      "tipo": "bar",
      "lat": 42.1182453,
      "lon": 2.7655132,
      "direccion": null,
      "codigo_postal": null,
      "telefono": null,
      "web": null,
      "instagram": null,
      "horario": "Tu-Th 08:00-22:30; Fr-Su 08:00-23:00",
      "terraza": true
    },
    {
      "id": "osm_node_1920401179",
      "nombre": "Ateneu",
      "tipo": "bar",
      "lat": 42.118213,
      "lon": 2.7650061,
      "direccion": null,
      "codigo_postal": null,
      "telefono": null,
      "web": null,
      "instagram": null,
      "horario": null,
      "terraza": false
    },
    {
      "id": "osm_node_1920401202",
      "nombre": "el Voltes",
      "tipo": "bar",
      "lat": 42.1177922,
      "lon": 2.7630445,
      "direccion": null,
      "codigo_postal": null,
      "telefono": null,
      "web": null,
      "instagram": null,
      "horario": null,
      "terraza": false
    },
    {
      "id": "osm_node_1920401210",
      "nombre": "Rec Major",
      "tipo": "bar",
      "lat": 42.1182438,
      "lon": 2.7650594,
      "direccion": null,
      "codigo_postal": null,
      "telefono": null,
      "web": null,
      "instagram": null,
      "horario": null,
      "terraza": false
    },
    {
      "id": "osm_node_1920822554",
      "nombre": "Abri Breton",
      "tipo": "bar",
      "lat": 42.2458298,
      "lon": 3.1265959,
      "direccion": "Avinguda de Carles Fages de Climent 4",
      "codigo_postal": "17487",
      "telefono": null,
      "web": null,
      "instagram": null,
      "horario": null,
      "terraza": false
    },
    {
      "id": "osm_node_1920822559",
      "nombre": "Cuba Cafè",
      "tipo": "bar",
      "lat": 42.2454917,
      "lon": 3.1262771,
      "direccion": "Avinguda de Carles Fages de Climent 5",
      "codigo_postal": "17487",
      "telefono": null,
      "web": null,
      "instagram": null,
      "horario": null,
      "terraza": false
    },
    {
      "id": "osm_node_1920876996",
      "nombre": "Bar 800",
      "tipo": "pub",
      "lat": 42.1196329,
      "lon": 2.7635906,
      "direccion": null,
      "codigo_postal": null,
      "telefono": null,
      "web": null,
      "instagram": null,
      "horario": null,
      "terraza": false
    },
    {
      "id": "osm_node_1920877013",
      "nombre": "Hop Hop",
      "tipo": "bar",
      "lat": 42.1231463,
      "lon": 2.7613268,
      "direccion": null,
      "codigo_postal": null,
      "telefono": null,
      "web": null,
      "instagram": null,
      "horario": null,
      "terraza": false
    },
    {
      "id": "osm_node_1920877018",
      "nombre": "Vas a Vas",
      "tipo": "bar",
      "lat": 42.1236237,
      "lon": 2.762684,
      "direccion": null,
      "codigo_postal": null,
      "telefono": null,
      "web": null,
      "instagram": null,
      "horario": null,
      "terraza": false
    },
    {
      "id": "osm_node_1920877020",
      "nombre": "Bar 1929",
      "tipo": "bar",
      "lat": 42.1170226,
      "lon": 2.7661548,
      "direccion": null,
      "codigo_postal": null,
      "telefono": null,
      "web": null,
      "instagram": null,
      "horario": null,
      "terraza": false
    },
    {
      "id": "osm_node_1930483317",
      "nombre": "Catalunya Amor Meu",
      "tipo": "bar",
      "lat": 42.2675426,
      "lon": 2.9596014,
      "direccion": null,
      "codigo_postal": null,
      "telefono": null,
      "web": null,
      "instagram": null,
      "horario": null,
      "terraza": false
    },
    {
      "id": "osm_node_1930483318",
      "nombre": "Dalicatessen Café",
      "tipo": "cafe",
      "lat": 42.2674516,
      "lon": 2.9599947,
      "direccion": "Carrer de Sant Pere 19",
      "codigo_postal": "17600",
      "telefono": "+34 972 511193",
      "web": null,
      "instagram": null,
      "horario": null,
      "terraza": true
    },
    {
      "id": "osm_node_1932470985",
      "nombre": "Cafe Dali",
      "tipo": "cafe",
      "lat": 41.846818,
      "lon": 3.0989629,
      "direccion": null,
      "codigo_postal": null,
      "telefono": null,
      "web": null,
      "instagram": null,
      "horario": null,
      "terraza": false
    },
    {
      "id": "osm_node_1950934799",
      "nombre": "Bar Modoni",
      "tipo": "bar",
      "lat": 41.9384004,
      "lon": 2.841382,
      "direccion": null,
      "codigo_postal": null,
      "telefono": null,
      "web": null,
      "instagram": null,
      "horario": null,
      "terraza": false
    },
    {
      "id": "osm_node_1950936820",
      "nombre": "Bar Gi-Gi",
      "tipo": "bar",
      "lat": 41.9384163,
      "lon": 2.8411245,
      "direccion": null,
      "codigo_postal": null,
      "telefono": null,
      "web": null,
      "instagram": null,
      "horario": null,
      "terraza": false
    },
    {
      "id": "osm_node_1956581436",
      "nombre": "El Fornet de Sant Feliu",
      "tipo": "cafe",
      "lat": 41.7818469,
      "lon": 3.0288923,
      "direccion": null,
      "codigo_postal": null,
      "telefono": null,
      "web": null,
      "instagram": null,
      "horario": null,
      "terraza": false
    },
    {
      "id": "osm_node_1968766329",
      "nombre": "El Bodegon 3",
      "tipo": "bar",
      "lat": 42.2702651,
      "lon": 3.145628,
      "direccion": null,
      "codigo_postal": null,
      "telefono": null,
      "web": null,
      "instagram": null,
      "horario": null,
      "terraza": false
    },
    {
      "id": "osm_node_1998891017",
      "nombre": "Bar El Racó de la mar",
      "tipo": "pub",
      "lat": 42.4254034,
      "lon": 3.1600424,
      "direccion": null,
      "codigo_postal": null,
      "telefono": "+34 872212359",
      "web": null,
      "instagram": null,
      "horario": "Tu-Sa 11:00-16:00,18:00-23:00; Su 11:00-16:00",
      "terraza": false
    },
    {
      "id": "osm_node_1998891018",
      "nombre": "Bar Tiburcio",
      "tipo": "pub",
      "lat": 42.4256803,
      "lon": 3.1599312,
      "direccion": null,
      "codigo_postal": null,
      "telefono": null,
      "web": null,
      "instagram": null,
      "horario": null,
      "terraza": false
    },
    {
      "id": "osm_node_1999457393",
      "nombre": "Casino",
      "tipo": "bar",
      "lat": 42.288603,
      "lon": 3.2776128,
      "direccion": null,
      "codigo_postal": null,
      "telefono": null,
      "web": null,
      "instagram": null,
      "horario": null,
      "terraza": false
    },
    {
      "id": "osm_node_1999484849",
      "nombre": "Boia",
      "tipo": "bar",
      "lat": 42.2886686,
      "lon": 3.2780641,
      "direccion": null,
      "codigo_postal": null,
      "telefono": null,
      "web": null,
      "instagram": null,
      "horario": null,
      "terraza": true
    },
    {
      "id": "osm_node_1999484852",
      "nombre": "Cafe d'Es Canto",
      "tipo": "cafe",
      "lat": 42.2890757,
      "lon": 3.2774405,
      "direccion": null,
      "codigo_postal": null,
      "telefono": null,
      "web": null,
      "instagram": null,
      "horario": null,
      "terraza": true
    },
    {
      "id": "osm_node_1999484865",
      "nombre": "La Catalana",
      "tipo": "bar",
      "lat": 42.2891684,
      "lon": 3.2788841,
      "direccion": null,
      "codigo_postal": null,
      "telefono": null,
      "web": null,
      "instagram": null,
      "horario": null,
      "terraza": false
    },
    {
      "id": "osm_node_1999484872",
      "nombre": "Maritim Bar",
      "tipo": "bar",
      "lat": 42.2887864,
      "lon": 3.2784858,
      "direccion": null,
      "codigo_postal": null,
      "telefono": null,
      "web": null,
      "instagram": null,
      "horario": null,
      "terraza": true
    },
    {
      "id": "osm_node_1999484873",
      "nombre": "Meliton Bar",
      "tipo": "bar",
      "lat": 42.2890789,
      "lon": 3.2789831,
      "direccion": null,
      "codigo_postal": null,
      "telefono": null,
      "web": null,
      "instagram": null,
      "horario": null,
      "terraza": true
    },
    {
      "id": "osm_node_2000722752",
      "nombre": "Sa Freu",
      "tipo": "bar",
      "lat": 42.318795,
      "lon": 3.3157512,
      "direccion": null,
      "codigo_postal": null,
      "telefono": null,
      "web": null,
      "instagram": null,
      "horario": null,
      "terraza": false
    },
    {
      "id": "osm_node_2003642625",
      "nombre": "Cafe de la Habana",
      "tipo": "cafe",
      "lat": 42.2858982,
      "lon": 3.2762938,
      "direccion": null,
      "codigo_postal": null,
      "telefono": null,
      "web": "http://www.cafedelahabana.com/",
      "instagram": null,
      "horario": "Mo-Su 21:30-03:00",
      "terraza": false
    },
    {
      "id": "osm_node_2003642637",
      "nombre": "Es Petit Bistro",
      "tipo": "bar",
      "lat": 42.2895833,
      "lon": 3.277962,
      "direccion": null,
      "codigo_postal": null,
      "telefono": null,
      "web": null,
      "instagram": null,
      "horario": null,
      "terraza": false
    },
    {
      "id": "osm_node_2045896888",
      "nombre": "Bar Córdoba",
      "tipo": "bar",
      "lat": 41.970156,
      "lon": 2.8419828,
      "direccion": null,
      "codigo_postal": null,
      "telefono": null,
      "web": null,
      "instagram": null,
      "horario": null,
      "terraza": false
    },
    {
      "id": "osm_node_2047728860",
      "nombre": "Granja Sant Feliu",
      "tipo": "bar",
      "lat": 41.7821361,
      "lon": 3.0285291,
      "direccion": null,
      "codigo_postal": null,
      "telefono": null,
      "web": null,
      "instagram": null,
      "horario": null,
      "terraza": false
    },
    {
      "id": "osm_node_2073316065",
      "nombre": "Lizarran",
      "tipo": "pub",
      "lat": 42.2667736,
      "lon": 2.9624,
      "direccion": "Carrer de Monturiol 3",
      "codigo_postal": null,
      "telefono": null,
      "web": null,
      "instagram": null,
      "horario": null,
      "terraza": false
    },
    {
      "id": "osm_node_2092564923",
      "nombre": "Codella",
      "tipo": "bar",
      "lat": 42.1647019,
      "lon": 2.4607256,
      "direccion": null,
      "codigo_postal": null,
      "telefono": null,
      "web": null,
      "instagram": null,
      "horario": null,
      "terraza": true
    },
    {
      "id": "osm_node_2100401160",
      "nombre": "Café La Sala",
      "tipo": "cafe",
      "lat": 42.2808568,
      "lon": 3.043106,
      "direccion": null,
      "codigo_postal": null,
      "telefono": null,
      "web": null,
      "instagram": null,
      "horario": null,
      "terraza": false
    },
    {
      "id": "osm_node_2106975166",
      "nombre": "Cactus",
      "tipo": "bar",
      "lat": 41.8194525,
      "lon": 3.0677781,
      "direccion": null,
      "codigo_postal": null,
      "telefono": null,
      "web": null,
      "instagram": null,
      "horario": null,
      "terraza": false
    },
    {
      "id": "osm_node_2111105296",
      "nombre": "Cafeteria Estanc Bellcaire",
      "tipo": "cafe",
      "lat": 42.0792307,
      "lon": 3.0959181,
      "direccion": "Carrer del Molí 41",
      "codigo_postal": "17141",
      "telefono": "+34 972 765 847",
      "web": null,
      "instagram": null,
      "horario": "7:00-21:00",
      "terraza": false
    },
    {
      "id": "osm_node_2116054419",
      "nombre": "Platja",
      "tipo": "bar",
      "lat": 42.3369522,
      "lon": 3.2039869,
      "direccion": null,
      "codigo_postal": null,
      "telefono": null,
      "web": null,
      "instagram": null,
      "horario": null,
      "terraza": true
    },
    {
      "id": "osm_node_2116054442",
      "nombre": "El Pescador",
      "tipo": "bar",
      "lat": 42.338122,
      "lon": 3.203716,
      "direccion": null,
      "codigo_postal": null,
      "telefono": null,
      "web": null,
      "instagram": null,
      "horario": "Tu-Su 08:00-18:00",
      "terraza": true
    },
    {
      "id": "osm_node_2122654309",
      "nombre": "Bar Gus",
      "tipo": "pub",
      "lat": 42.342356,
      "lon": 3.2026887,
      "direccion": "Carrer de la Lloia 1",
      "codigo_postal": null,
      "telefono": "+34972387423",
      "web": null,
      "instagram": null,
      "horario": null,
      "terraza": false
    },
    {
      "id": "osm_node_2154662102",
      "nombre": "La Llar",
      "tipo": "bar",
      "lat": 42.0891105,
      "lon": 2.8159734,
      "direccion": null,
      "codigo_postal": null,
      "telefono": null,
      "web": null,
      "instagram": null,
      "horario": null,
      "terraza": false
    },
    {
      "id": "osm_node_2208349002",
      "nombre": "La Marquesina",
      "tipo": "cafe",
      "lat": 41.7821742,
      "lon": 3.0311106,
      "direccion": null,
      "codigo_postal": null,
      "telefono": null,
      "web": null,
      "instagram": null,
      "horario": null,
      "terraza": false
    },
    {
      "id": "osm_node_2214542791",
      "nombre": "Casino La Constancia",
      "tipo": "bar",
      "lat": 41.7817211,
      "lon": 3.0320919,
      "direccion": null,
      "codigo_postal": null,
      "telefono": null,
      "web": null,
      "instagram": null,
      "horario": null,
      "terraza": false
    },
    {
      "id": "osm_node_2216229410",
      "nombre": "Cafetería Sant Ponç",
      "tipo": "cafe",
      "lat": 41.994352,
      "lon": 2.819703,
      "direccion": null,
      "codigo_postal": null,
      "telefono": null,
      "web": null,
      "instagram": null,
      "horario": null,
      "terraza": false
    },
    {
      "id": "osm_node_2240005543",
      "nombre": "Ca l'Amadeu",
      "tipo": "pub",
      "lat": 41.9688477,
      "lon": 2.6209365,
      "direccion": null,
      "codigo_postal": null,
      "telefono": null,
      "web": null,
      "instagram": null,
      "horario": "Mo-Fr 08:30-23:30; Sa 00:00-02:30,08:30-02:30",
      "terraza": true
    },
    {
      "id": "osm_node_2252954080",
      "nombre": "Salero",
      "tipo": "bar",
      "lat": 41.9844535,
      "lon": 2.8216481,
      "direccion": null,
      "codigo_postal": null,
      "telefono": null,
      "web": null,
      "instagram": null,
      "horario": null,
      "terraza": false
    },
    {
      "id": "osm_node_2272924052",
      "nombre": "Porcus",
      "tipo": "bar",
      "lat": 41.9818649,
      "lon": 2.8228267,
      "direccion": null,
      "codigo_postal": null,
      "telefono": null,
      "web": null,
      "instagram": null,
      "horario": null,
      "terraza": false
    },
    {
      "id": "osm_node_2274053713",
      "nombre": "Bar el forat",
      "tipo": "bar",
      "lat": 42.3865631,
      "lon": 2.7484703,
      "direccion": null,
      "codigo_postal": null,
      "telefono": null,
      "web": null,
      "instagram": null,
      "horario": null,
      "terraza": false
    },
    {
      "id": "osm_node_2278551975",
      "nombre": "Pacmad",
      "tipo": "bar",
      "lat": 41.9920406,
      "lon": 2.8258896,
      "direccion": null,
      "codigo_postal": null,
      "telefono": null,
      "web": null,
      "instagram": null,
      "horario": null,
      "terraza": false
    },
    {
      "id": "osm_node_2294583710",
      "nombre": "Bar de la piscina",
      "tipo": "bar",
      "lat": 42.246741,
      "lon": 2.8165526,
      "direccion": null,
      "codigo_postal": null,
      "telefono": null,
      "web": null,
      "instagram": null,
      "horario": null,
      "terraza": false
    },
    {
      "id": "osm_node_2305243859",
      "nombre": "Banys Vells",
      "tipo": "pub",
      "lat": 42.1210882,
      "lon": 2.7582177,
      "direccion": "Passeig de Lluís Marià Vidal 1",
      "codigo_postal": "17820",
      "telefono": "+34 683 30 37 31",
      "web": "http://www.banysvellsdebanyoles.com",
      "instagram": null,
      "horario": "Mo-We 10:00-02:00; Th-Sa 10:00-03:00",
      "terraza": false
    },
    {
      "id": "osm_node_2382134337",
      "nombre": "L'Aroma",
      "tipo": "cafe",
      "lat": 41.7804838,
      "lon": 3.0291485,
      "direccion": null,
      "codigo_postal": null,
      "telefono": null,
      "web": null,
      "instagram": null,
      "horario": null,
      "terraza": false
    },
    {
      "id": "osm_node_2382134436",
      "nombre": "Cafeteria Bar L'Estació",
      "tipo": "cafe",
      "lat": 41.7870745,
      "lon": 3.0315853,
      "direccion": null,
      "codigo_postal": null,
      "telefono": null,
      "web": null,
      "instagram": null,
      "horario": null,
      "terraza": false
    },
    {
      "id": "osm_node_2389386145",
      "nombre": "Granja Bar Núria",
      "tipo": "cafe",
      "lat": 41.7802144,
      "lon": 3.0287533,
      "direccion": null,
      "codigo_postal": null,
      "telefono": null,
      "web": null,
      "instagram": null,
      "horario": null,
      "terraza": false
    },
    {
      "id": "osm_node_2389386148",
      "nombre": "Nou Xaica",
      "tipo": "bar",
      "lat": 41.7816942,
      "lon": 3.034544,
      "direccion": null,
      "codigo_postal": null,
      "telefono": null,
      "web": null,
      "instagram": null,
      "horario": null,
      "terraza": false
    },
    {
      "id": "osm_node_2389513722",
      "nombre": "El Corsari",
      "tipo": "bar",
      "lat": 41.7811839,
      "lon": 3.0348592,
      "direccion": "Colom 1",
      "codigo_postal": null,
      "telefono": "+34 972 32 10 71",
      "web": null,
      "instagram": null,
      "horario": null,
      "terraza": true
    },
    {
      "id": "osm_node_2389536458",
      "nombre": "El Cafè Nou",
      "tipo": "cafe",
      "lat": 41.7845919,
      "lon": 3.0332567,
      "direccion": null,
      "codigo_postal": null,
      "telefono": null,
      "web": null,
      "instagram": null,
      "horario": null,
      "terraza": false
    },
    {
      "id": "osm_node_2389536459",
      "nombre": "El Cafetó",
      "tipo": "cafe",
      "lat": 41.7850947,
      "lon": 3.0332828,
      "direccion": null,
      "codigo_postal": null,
      "telefono": null,
      "web": null,
      "instagram": null,
      "horario": null,
      "terraza": false
    },
    {
      "id": "osm_node_2392492466",
      "nombre": "Bar del Lago",
      "tipo": "bar",
      "lat": 42.4370089,
      "lon": 1.9278007,
      "direccion": null,
      "codigo_postal": null,
      "telefono": null,
      "web": "http://www.bdl.cat",
      "instagram": null,
      "horario": null,
      "terraza": false
    },
    {
      "id": "osm_node_2392501856",
      "nombre": "Avenida",
      "tipo": "bar",
      "lat": 41.7927813,
      "lon": 3.021514,
      "direccion": null,
      "codigo_postal": null,
      "telefono": null,
      "web": null,
      "instagram": null,
      "horario": null,
      "terraza": false
    },
    {
      "id": "osm_node_2392501876",
      "nombre": "4 Vents",
      "tipo": "cafe",
      "lat": 41.793704,
      "lon": 3.0228526,
      "direccion": null,
      "codigo_postal": null,
      "telefono": null,
      "web": null,
      "instagram": null,
      "horario": null,
      "terraza": false
    },
    {
      "id": "osm_node_2392501881",
      "nombre": "Costa Brava 2",
      "tipo": "bar",
      "lat": 41.7913926,
      "lon": 3.0229512,
      "direccion": null,
      "codigo_postal": null,
      "telefono": null,
      "web": null,
      "instagram": null,
      "horario": null,
      "terraza": false
    },
    {
      "id": "osm_node_2392501885",
      "nombre": "Nins",
      "tipo": "cafe",
      "lat": 41.7915454,
      "lon": 3.0229979,
      "direccion": null,
      "codigo_postal": null,
      "telefono": null,
      "web": null,
      "instagram": null,
      "horario": null,
      "terraza": false
    },
    {
      "id": "osm_node_2392501895",
      "nombre": "Addera",
      "tipo": "bar",
      "lat": 41.7930328,
      "lon": 3.0239033,
      "direccion": null,
      "codigo_postal": null,
      "telefono": null,
      "web": null,
      "instagram": null,
      "horario": null,
      "terraza": false
    },
    {
      "id": "osm_node_2392501899",
      "nombre": "Cal Nano",
      "tipo": "bar",
      "lat": 41.7933771,
      "lon": 3.0243885,
      "direccion": null,
      "codigo_postal": null,
      "telefono": null,
      "web": null,
      "instagram": null,
      "horario": null,
      "terraza": false
    },
    {
      "id": "osm_node_2392619434",
      "nombre": "L'Hora del Cafè",
      "tipo": "cafe",
      "lat": 41.7908572,
      "lon": 3.0230874,
      "direccion": null,
      "codigo_postal": null,
      "telefono": null,
      "web": null,
      "instagram": null,
      "horario": null,
      "terraza": false
    },
    {
      "id": "osm_node_2392619457",
      "nombre": "Ancla",
      "tipo": "bar",
      "lat": 41.7908011,
      "lon": 3.0262005,
      "direccion": null,
      "codigo_postal": null,
      "telefono": null,
      "web": null,
      "instagram": null,
      "horario": null,
      "terraza": false
    },
    {
      "id": "osm_node_2392619461",
      "nombre": "Centre",
      "tipo": "bar",
      "lat": 41.7874098,
      "lon": 3.0288883,
      "direccion": null,
      "codigo_postal": null,
      "telefono": null,
      "web": null,
      "instagram": null,
      "horario": null,
      "terraza": false
    },
    {
      "id": "osm_node_2392619466",
      "nombre": "Cabanyes",
      "tipo": "bar",
      "lat": 41.7889092,
      "lon": 3.0299522,
      "direccion": null,
      "codigo_postal": null,
      "telefono": null,
      "web": null,
      "instagram": null,
      "horario": null,
      "terraza": false
    },
    {
      "id": "osm_node_2392619469",
      "nombre": "Koala",
      "tipo": "bar",
      "lat": 41.786517,
      "lon": 3.0291553,
      "direccion": null,
      "codigo_postal": null,
      "telefono": null,
      "web": null,
      "instagram": null,
      "horario": null,
      "terraza": false
    },
    {
      "id": "osm_node_2392803630",
      "nombre": "El Tirol",
      "tipo": "cafe",
      "lat": 41.7818886,
      "lon": 3.0263738,
      "direccion": null,
      "codigo_postal": null,
      "telefono": null,
      "web": null,
      "instagram": null,
      "horario": null,
      "terraza": false
    },
    {
      "id": "osm_node_2392803638",
      "nombre": "L'Avet",
      "tipo": "bar",
      "lat": 41.7827002,
      "lon": 3.0272199,
      "direccion": null,
      "codigo_postal": null,
      "telefono": null,
      "web": null,
      "instagram": null,
      "horario": null,
      "terraza": false
    },
    {
      "id": "osm_node_2392803645",
      "nombre": "Cuarenta y pico",
      "tipo": "bar",
      "lat": 41.7836521,
      "lon": 3.0265919,
      "direccion": null,
      "codigo_postal": null,
      "telefono": null,
      "web": null,
      "instagram": null,
      "horario": null,
      "terraza": false
    },
    {
      "id": "osm_node_2392803649",
      "nombre": "Sarpa",
      "tipo": "bar",
      "lat": 41.7841162,
      "lon": 3.0262993,
      "direccion": null,
      "codigo_postal": null,
      "telefono": null,
      "web": null,
      "instagram": null,
      "horario": null,
      "terraza": false
    },
    {
      "id": "osm_node_2392803655",
      "nombre": "El Cañón",
      "tipo": "bar",
      "lat": 41.7893159,
      "lon": 3.0230492,
      "direccion": null,
      "codigo_postal": null,
      "telefono": null,
      "web": null,
      "instagram": null,
      "horario": null,
      "terraza": false
    },
    {
      "id": "osm_node_2392803660",
      "nombre": "La Cantonada",
      "tipo": "bar",
      "lat": 41.7896345,
      "lon": 3.0228504,
      "direccion": null,
      "codigo_postal": null,
      "telefono": null,
      "web": null,
      "instagram": null,
      "horario": null,
      "terraza": false
    },
    {
      "id": "osm_node_2392835762",
      "nombre": "Tucan Beach",
      "tipo": "bar",
      "lat": 41.7899633,
      "lon": 3.0470313,
      "direccion": null,
      "codigo_postal": null,
      "telefono": null,
      "web": null,
      "instagram": null,
      "horario": null,
      "terraza": false
    },
    {
      "id": "osm_node_2397223940",
      "nombre": "Hot Dog \"Can Salsitxa\"",
      "tipo": "bar",
      "lat": 41.7823356,
      "lon": 3.0302596,
      "direccion": null,
      "codigo_postal": null,
      "telefono": null,
      "web": null,
      "instagram": null,
      "horario": null,
      "terraza": false
    },
    {
      "id": "osm_node_2411175305",
      "nombre": "Hotel Paris",
      "tipo": "cafe",
      "lat": 42.2665746,
      "lon": 2.9604548,
      "direccion": "La Rambla 10",
      "codigo_postal": "17600",
      "telefono": null,
      "web": null,
      "instagram": null,
      "horario": null,
      "terraza": false
    },
    {
      "id": "osm_node_2412957098",
      "nombre": "Cuccina del mare",
      "tipo": "cafe",
      "lat": 41.668706,
      "lon": 2.7872116,
      "direccion": null,
      "codigo_postal": null,
      "telefono": null,
      "web": null,
      "instagram": null,
      "horario": null,
      "terraza": false
    },
    {
      "id": "osm_node_2425118634",
      "nombre": "Portbou Café",
      "tipo": "pub",
      "lat": 42.4250982,
      "lon": 3.1597672,
      "direccion": null,
      "codigo_postal": null,
      "telefono": null,
      "web": null,
      "instagram": null,
      "horario": null,
      "terraza": false
    },
    {
      "id": "osm_node_2431847586",
      "nombre": "Bar Informal",
      "tipo": "bar",
      "lat": 42.2391345,
      "lon": 3.121321,
      "direccion": null,
      "codigo_postal": null,
      "telefono": null,
      "web": null,
      "instagram": null,
      "horario": null,
      "terraza": false
    },
    {
      "id": "osm_node_2459450224",
      "nombre": "Bar Xix",
      "tipo": "cafe",
      "lat": 42.3494199,
      "lon": 2.16321,
      "direccion": null,
      "codigo_postal": null,
      "telefono": null,
      "web": null,
      "instagram": null,
      "horario": null,
      "terraza": false
    },
    {
      "id": "osm_node_2461434353",
      "nombre": "Barri",
      "tipo": "cafe",
      "lat": 41.969919,
      "lon": 2.8238491,
      "direccion": null,
      "codigo_postal": null,
      "telefono": null,
      "web": null,
      "instagram": null,
      "horario": null,
      "terraza": true
    },
    {
      "id": "osm_node_2463045177",
      "nombre": "Can Poncelas",
      "tipo": "bar",
      "lat": 42.2236194,
      "lon": 2.8619627,
      "direccion": null,
      "codigo_postal": null,
      "telefono": null,
      "web": null,
      "instagram": null,
      "horario": null,
      "terraza": false
    },
    {
      "id": "osm_node_2467359827",
      "nombre": "Frankfurt Acapulco",
      "tipo": "bar",
      "lat": 41.9797741,
      "lon": 2.8131654,
      "direccion": null,
      "codigo_postal": null,
      "telefono": null,
      "web": null,
      "instagram": null,
      "horario": null,
      "terraza": false
    },
    {
      "id": "osm_node_2477150581",
      "nombre": "Bar de la Piscina",
      "tipo": "bar",
      "lat": 42.2239889,
      "lon": 2.8649566,
      "direccion": null,
      "codigo_postal": null,
      "telefono": null,
      "web": null,
      "instagram": null,
      "horario": null,
      "terraza": false
    },
    {
      "id": "osm_node_2500496943",
      "nombre": "Bar",
      "tipo": "cafe",
      "lat": 41.9748326,
      "lon": 2.783577,
      "direccion": "Carrer Llarg 38",
      "codigo_postal": "17190",
      "telefono": null,
      "web": null,
      "instagram": null,
      "horario": "Di-Mi 12:00-17:00,Do 12:00-24:00,Fr-So 08:00-24:00",
      "terraza": false
    },
    {
      "id": "osm_node_2513921509",
      "nombre": "Càlid Cafe",
      "tipo": "cafe",
      "lat": 42.2668614,
      "lon": 2.9588197,
      "direccion": null,
      "codigo_postal": null,
      "telefono": null,
      "web": null,
      "instagram": null,
      "horario": null,
      "terraza": false
    },
    {
      "id": "osm_node_2557803396",
      "nombre": "Joker",
      "tipo": "bar",
      "lat": 41.8362913,
      "lon": 2.808073,
      "direccion": null,
      "codigo_postal": null,
      "telefono": null,
      "web": null,
      "instagram": null,
      "horario": null,
      "terraza": false
    },
    {
      "id": "osm_node_2557803397",
      "nombre": "Cal Nap",
      "tipo": "bar",
      "lat": 41.836707,
      "lon": 2.808537,
      "direccion": null,
      "codigo_postal": null,
      "telefono": null,
      "web": null,
      "instagram": null,
      "horario": null,
      "terraza": false
    },
    {
      "id": "osm_node_2557803398",
      "nombre": "Cala Manela",
      "tipo": "bar",
      "lat": 41.8367229,
      "lon": 2.8082983,
      "direccion": null,
      "codigo_postal": null,
      "telefono": null,
      "web": null,
      "instagram": null,
      "horario": null,
      "terraza": false
    },
    {
      "id": "osm_node_2558249075",
      "nombre": "Marlin Bar",
      "tipo": "bar",
      "lat": 42.1740034,
      "lon": 3.1102482,
      "direccion": null,
      "codigo_postal": null,
      "telefono": null,
      "web": null,
      "instagram": null,
      "horario": null,
      "terraza": false
    },
    {
      "id": "osm_node_2591284445",
      "nombre": "Bar Cambridge",
      "tipo": "cafe",
      "lat": 41.9685708,
      "lon": 2.8206649,
      "direccion": null,
      "codigo_postal": null,
      "telefono": null,
      "web": null,
      "instagram": null,
      "horario": null,
      "terraza": false
    },
    {
      "id": "osm_node_2591306760",
      "nombre": "Que Tal?",
      "tipo": "bar",
      "lat": 41.9812085,
      "lon": 2.8143855,
      "direccion": null,
      "codigo_postal": null,
      "telefono": null,
      "web": null,
      "instagram": null,
      "horario": null,
      "terraza": false
    },
    {
      "id": "osm_node_2592591786",
      "nombre": "Bar Central",
      "tipo": "pub",
      "lat": 42.4328635,
      "lon": 1.926372,
      "direccion": null,
      "codigo_postal": null,
      "telefono": null,
      "web": null,
      "instagram": null,
      "horario": "PH,Mo-Su 08:30-24:00+",
      "terraza": false
    },
    {
      "id": "osm_node_2626075135",
      "nombre": "Un Sol Món",
      "tipo": "cafe",
      "lat": 41.9820969,
      "lon": 2.8140875,
      "direccion": "Plaça de Miquel de Palol 5",
      "codigo_postal": "17001",
      "telefono": "+34 972 41 36 87",
      "web": null,
      "instagram": null,
      "horario": null,
      "terraza": false
    },
    {
      "id": "osm_node_2626658676",
      "nombre": "Bar Queta",
      "tipo": "bar",
      "lat": 42.247318,
      "lon": 2.8137589,
      "direccion": null,
      "codigo_postal": "17745",
      "telefono": null,
      "web": null,
      "instagram": null,
      "horario": null,
      "terraza": false
    },
    {
      "id": "osm_node_2627344395",
      "nombre": "Cafeteria Restaurant La Punxa",
      "tipo": "cafe",
      "lat": 41.9803917,
      "lon": 2.8145006,
      "direccion": null,
      "codigo_postal": null,
      "telefono": null,
      "web": null,
      "instagram": null,
      "horario": null,
      "terraza": false
    },
    {
      "id": "osm_node_2668675984",
      "nombre": "Bar Peret",
      "tipo": "cafe",
      "lat": 42.2376056,
      "lon": 2.2848638,
      "direccion": "Plaça Estació 7",
      "codigo_postal": "17860",
      "telefono": "+34 972 721 001",
      "web": null,
      "instagram": null,
      "horario": null,
      "terraza": false
    },
    {
      "id": "osm_node_2771342838",
      "nombre": "Llausàs",
      "tipo": "cafe",
      "lat": 42.0095262,
      "lon": 2.8145167,
      "direccion": null,
      "codigo_postal": null,
      "telefono": null,
      "web": null,
      "instagram": null,
      "horario": null,
      "terraza": false
    },
    {
      "id": "osm_node_2771342844",
      "nombre": "Els socs",
      "tipo": "cafe",
      "lat": 42.0094623,
      "lon": 2.8151119,
      "direccion": null,
      "codigo_postal": null,
      "telefono": "+34 972174570",
      "web": null,
      "instagram": null,
      "horario": null,
      "terraza": false
    },
    {
      "id": "osm_node_2772032176",
      "nombre": "El Cafetó",
      "tipo": "cafe",
      "lat": 42.267424,
      "lon": 2.9604411,
      "direccion": "Pujada de l'Església 4",
      "codigo_postal": null,
      "telefono": null,
      "web": null,
      "instagram": null,
      "horario": null,
      "terraza": true
    },
    {
      "id": "osm_node_2777489472",
      "nombre": "Bar la Rodona",
      "tipo": "cafe",
      "lat": 42.2343061,
      "lon": 2.2888434,
      "direccion": null,
      "codigo_postal": null,
      "telefono": null,
      "web": null,
      "instagram": null,
      "horario": null,
      "terraza": false
    },
    {
      "id": "osm_node_2777846754",
      "nombre": "Dynàmic",
      "tipo": "pub",
      "lat": 42.2667083,
      "lon": 2.9626368,
      "direccion": "Carrer de Monturiol 2",
      "codigo_postal": null,
      "telefono": null,
      "web": null,
      "instagram": null,
      "horario": null,
      "terraza": false
    },
    {
      "id": "osm_node_2793289797",
      "nombre": "Xurreria El Remei",
      "tipo": "bar",
      "lat": 41.9783085,
      "lon": 2.8110907,
      "direccion": null,
      "codigo_postal": null,
      "telefono": null,
      "web": null,
      "instagram": null,
      "horario": null,
      "terraza": false
    },
    {
      "id": "osm_node_2797620612",
      "nombre": "Vadebrassa",
      "tipo": "bar",
      "lat": 41.972572,
      "lon": 2.8160175,
      "direccion": "Carrer de Pau Vila i Dinarès 2",
      "codigo_postal": null,
      "telefono": "+34972411332",
      "web": null,
      "instagram": null,
      "horario": "Mo-Su 10:00-02:00",
      "terraza": false
    },
    {
      "id": "osm_node_2799102415",
      "nombre": "Fogons",
      "tipo": "bar",
      "lat": 41.9788049,
      "lon": 2.8140372,
      "direccion": null,
      "codigo_postal": null,
      "telefono": null,
      "web": null,
      "instagram": null,
      "horario": "Mo-Su,PH 07:30-02:00+",
      "terraza": false
    },
    {
      "id": "osm_node_2800566757",
      "nombre": "Habana",
      "tipo": "bar",
      "lat": 41.9785135,
      "lon": 2.8139551,
      "direccion": null,
      "codigo_postal": null,
      "telefono": null,
      "web": null,
      "instagram": null,
      "horario": null,
      "terraza": false
    },
    {
      "id": "osm_node_2801537745",
      "nombre": "Bar Kafé amb K",
      "tipo": "bar",
      "lat": 42.0167788,
      "lon": 2.8249765,
      "direccion": null,
      "codigo_postal": null,
      "telefono": null,
      "web": null,
      "instagram": null,
      "horario": null,
      "terraza": false
    },
    {
      "id": "osm_node_2802302904",
      "nombre": "Can si us plau",
      "tipo": "bar",
      "lat": 41.9796766,
      "lon": 2.8118212,
      "direccion": null,
      "codigo_postal": null,
      "telefono": null,
      "web": null,
      "instagram": null,
      "horario": null,
      "terraza": false
    },
    {
      "id": "osm_node_2805499277",
      "nombre": "La Pedrera",
      "tipo": "bar",
      "lat": 41.9801463,
      "lon": 2.8118519,
      "direccion": null,
      "codigo_postal": null,
      "telefono": null,
      "web": null,
      "instagram": null,
      "horario": null,
      "terraza": false
    },
    {
      "id": "osm_node_2805499278",
      "nombre": "La Tirolina",
      "tipo": "bar",
      "lat": 41.9817976,
      "lon": 2.8143342,
      "direccion": null,
      "codigo_postal": null,
      "telefono": null,
      "web": null,
      "instagram": null,
      "horario": null,
      "terraza": false
    },
    {
      "id": "osm_node_2806943965",
      "nombre": "Ca la Iaia",
      "tipo": "bar",
      "lat": 41.9829345,
      "lon": 2.813506,
      "direccion": null,
      "codigo_postal": null,
      "telefono": null,
      "web": null,
      "instagram": null,
      "horario": "Mo-Sa 06:00-02:30",
      "terraza": false
    },
    {
      "id": "osm_node_2806943995",
      "nombre": "El Raconet de Girona",
      "tipo": "bar",
      "lat": 41.9830598,
      "lon": 2.8131123,
      "direccion": null,
      "codigo_postal": null,
      "telefono": null,
      "web": null,
      "instagram": null,
      "horario": null,
      "terraza": false
    },
    {
      "id": "osm_node_2823007312",
      "nombre": "Bar",
      "tipo": "cafe",
      "lat": 42.3250278,
      "lon": 3.0921181,
      "direccion": null,
      "codigo_postal": null,
      "telefono": null,
      "web": null,
      "instagram": null,
      "horario": null,
      "terraza": false
    },
    {
      "id": "osm_node_2833973456",
      "nombre": "La Torratxa",
      "tipo": "cafe",
      "lat": 41.9819671,
      "lon": 2.8155861,
      "direccion": null,
      "codigo_postal": null,
      "telefono": null,
      "web": null,
      "instagram": null,
      "horario": null,
      "terraza": false
    },
    {
      "id": "osm_node_2835365799",
      "nombre": "La Buxeda",
      "tipo": "cafe",
      "lat": 41.983249,
      "lon": 2.8180303,
      "direccion": null,
      "codigo_postal": null,
      "telefono": null,
      "web": null,
      "instagram": null,
      "horario": null,
      "terraza": false
    },
    {
      "id": "osm_node_2853462668",
      "nombre": "Kick off Luxury",
      "tipo": "bar",
      "lat": 41.9838354,
      "lon": 2.8108177,
      "direccion": null,
      "codigo_postal": null,
      "telefono": null,
      "web": null,
      "instagram": null,
      "horario": null,
      "terraza": false
    },
    {
      "id": "osm_node_2902316726",
      "nombre": "Bar Tal i qual",
      "tipo": "cafe",
      "lat": 42.3247828,
      "lon": 3.0898886,
      "direccion": null,
      "codigo_postal": null,
      "telefono": null,
      "web": null,
      "instagram": null,
      "horario": null,
      "terraza": false
    },
    {
      "id": "osm_node_2906005416",
      "nombre": "Pub Old Ambient",
      "tipo": "pub",
      "lat": 42.0514384,
      "lon": 3.1927626,
      "direccion": "Avinguda de Grecia 49",
      "codigo_postal": "17258",
      "telefono": null,
      "web": null,
      "instagram": null,
      "horario": null,
      "terraza": false
    },
    {
      "id": "osm_node_2906050964",
      "nombre": "Bar El Molinet",
      "tipo": "pub",
      "lat": 42.0547246,
      "lon": 3.1986447,
      "direccion": "Carrer de l' Esglesia 17",
      "codigo_postal": "17258",
      "telefono": null,
      "web": null,
      "instagram": null,
      "horario": null,
      "terraza": false
    },
    {
      "id": "osm_node_2953251799",
      "nombre": "Minigolf Greens",
      "tipo": "bar",
      "lat": 42.265104,
      "lon": 3.1686542,
      "direccion": null,
      "codigo_postal": null,
      "telefono": null,
      "web": null,
      "instagram": null,
      "horario": null,
      "terraza": false
    },
    {
      "id": "osm_node_2953251803",
      "nombre": "Platja",
      "tipo": "bar",
      "lat": 42.2649147,
      "lon": 3.1701097,
      "direccion": null,
      "codigo_postal": null,
      "telefono": null,
      "web": null,
      "instagram": null,
      "horario": null,
      "terraza": false
    },
    {
      "id": "osm_node_2962397130",
      "nombre": "Angel",
      "tipo": "bar",
      "lat": 42.2625316,
      "lon": 3.1780575,
      "direccion": null,
      "codigo_postal": null,
      "telefono": null,
      "web": null,
      "instagram": null,
      "horario": null,
      "terraza": false
    },
    {
      "id": "osm_node_2962397739",
      "nombre": "La Croqueta",
      "tipo": "bar",
      "lat": 42.2628557,
      "lon": 3.1781145,
      "direccion": null,
      "codigo_postal": null,
      "telefono": null,
      "web": null,
      "instagram": null,
      "horario": null,
      "terraza": false
    },
    {
      "id": "osm_node_2962397740",
      "nombre": "Lolo",
      "tipo": "bar",
      "lat": 42.2629917,
      "lon": 3.1783489,
      "direccion": null,
      "codigo_postal": null,
      "telefono": null,
      "web": null,
      "instagram": null,
      "horario": null,
      "terraza": false
    },
    {
      "id": "osm_node_2962397743",
      "nombre": "Rambla",
      "tipo": "cafe",
      "lat": 42.2639618,
      "lon": 3.1800714,
      "direccion": null,
      "codigo_postal": null,
      "telefono": null,
      "web": null,
      "instagram": null,
      "horario": null,
      "terraza": false
    },
    {
      "id": "osm_node_2997200763",
      "nombre": "Kiu",
      "tipo": "cafe",
      "lat": 41.9841859,
      "lon": 2.8130713,
      "direccion": null,
      "codigo_postal": null,
      "telefono": null,
      "web": null,
      "instagram": null,
      "horario": null,
      "terraza": false
    },
    {
      "id": "osm_node_2999383339",
      "nombre": "Cafeteria L'embolic",
      "tipo": "cafe",
      "lat": 41.9841384,
      "lon": 2.8157702,
      "direccion": null,
      "codigo_postal": null,
      "telefono": null,
      "web": null,
      "instagram": null,
      "horario": null,
      "terraza": true
    },
    {
      "id": "osm_node_2999383341",
      "nombre": "Kroxan",
      "tipo": "cafe",
      "lat": 41.984532,
      "lon": 2.8165152,
      "direccion": null,
      "codigo_postal": null,
      "telefono": "+34 972 22 72 11",
      "web": null,
      "instagram": null,
      "horario": null,
      "terraza": false
    },
    {
      "id": "osm_node_3008189296",
      "nombre": "Cafe Solo",
      "tipo": "cafe",
      "lat": 42.051787,
      "lon": 3.1937862,
      "direccion": "Carrer Eivissa",
      "codigo_postal": "17258",
      "telefono": null,
      "web": null,
      "instagram": null,
      "horario": null,
      "terraza": false
    },
    {
      "id": "osm_node_3010239808",
      "nombre": "Bar Transit",
      "tipo": "bar",
      "lat": 41.9782462,
      "lon": 2.8093737,
      "direccion": null,
      "codigo_postal": null,
      "telefono": null,
      "web": null,
      "instagram": null,
      "horario": null,
      "terraza": false
    },
    {
      "id": "osm_node_3012616803",
      "nombre": "Marzen",
      "tipo": "bar",
      "lat": 41.9775942,
      "lon": 2.8100575,
      "direccion": null,
      "codigo_postal": null,
      "telefono": null,
      "web": null,
      "instagram": null,
      "horario": null,
      "terraza": false
    },
    {
      "id": "osm_node_3015033635",
      "nombre": "El Gra",
      "tipo": "cafe",
      "lat": 42.2659806,
      "lon": 2.965598,
      "direccion": null,
      "codigo_postal": null,
      "telefono": null,
      "web": null,
      "instagram": null,
      "horario": "Mo-Sa 06:30-22:30; Su 08:00-15:30",
      "terraza": false
    },
    {
      "id": "osm_node_3015033637",
      "nombre": "La Plaça",
      "tipo": "cafe",
      "lat": 42.2664258,
      "lon": 2.9651535,
      "direccion": null,
      "codigo_postal": null,
      "telefono": null,
      "web": null,
      "instagram": null,
      "horario": null,
      "terraza": false
    },
    {
      "id": "osm_node_3015046701",
      "nombre": "La Flor de Lis",
      "tipo": "cafe",
      "lat": 42.2649083,
      "lon": 2.9659647,
      "direccion": null,
      "codigo_postal": null,
      "telefono": null,
      "web": null,
      "instagram": null,
      "horario": "Mo-Fr 07:00-21:00; Sa 08:00-21:00; Su 09:00-14:00",
      "terraza": true
    },
    {
      "id": "osm_node_3015081678",
      "nombre": "Blanc i NEgre",
      "tipo": "bar",
      "lat": 42.266511,
      "lon": 2.9702363,
      "direccion": null,
      "codigo_postal": null,
      "telefono": null,
      "web": null,
      "instagram": null,
      "horario": null,
      "terraza": false
    },
    {
      "id": "osm_node_3015081679",
      "nombre": "Deportivo",
      "tipo": "bar",
      "lat": 42.266511,
      "lon": 2.9705153,
      "direccion": null,
      "codigo_postal": null,
      "telefono": null,
      "web": null,
      "instagram": null,
      "horario": null,
      "terraza": false
    },
    {
      "id": "osm_node_3029445997",
      "nombre": "la croissanteria de calella",
      "tipo": "cafe",
      "lat": 41.8891862,
      "lon": 3.1844688,
      "direccion": "Carrer de Chopitea 3-5",
      "codigo_postal": null,
      "telefono": null,
      "web": "http://lacroissanteriadecalella.com",
      "instagram": null,
      "horario": null,
      "terraza": false
    },
    {
      "id": "osm_node_3034767611",
      "nombre": "El pedreguet",
      "tipo": "bar",
      "lat": 41.9759637,
      "lon": 2.8058825,
      "direccion": null,
      "codigo_postal": null,
      "telefono": null,
      "web": null,
      "instagram": null,
      "horario": null,
      "terraza": false
    },
    {
      "id": "osm_node_3052352875",
      "nombre": "Alhambra",
      "tipo": "bar",
      "lat": 41.9758438,
      "lon": 2.8049105,
      "direccion": null,
      "codigo_postal": null,
      "telefono": null,
      "web": null,
      "instagram": null,
      "horario": null,
      "terraza": false
    },
    {
      "id": "osm_node_3064870413",
      "nombre": "El Sabor",
      "tipo": "cafe",
      "lat": 41.9758453,
      "lon": 2.8003412,
      "direccion": null,
      "codigo_postal": null,
      "telefono": null,
      "web": null,
      "instagram": null,
      "horario": null,
      "terraza": false
    },
    {
      "id": "osm_node_3064870414",
      "nombre": "Limit",
      "tipo": "bar",
      "lat": 41.9751179,
      "lon": 2.8006125,
      "direccion": null,
      "codigo_postal": null,
      "telefono": null,
      "web": null,
      "instagram": null,
      "horario": null,
      "terraza": false
    },
    {
      "id": "osm_node_3064870571",
      "nombre": "Yong",
      "tipo": "cafe",
      "lat": 41.9745423,
      "lon": 2.8010245,
      "direccion": null,
      "codigo_postal": null,
      "telefono": null,
      "web": null,
      "instagram": null,
      "horario": null,
      "terraza": false
    },
    {
      "id": "osm_node_3065737294",
      "nombre": "La Pau",
      "tipo": "bar",
      "lat": 42.3858443,
      "lon": 2.7479654,
      "direccion": null,
      "codigo_postal": null,
      "telefono": null,
      "web": null,
      "instagram": null,
      "horario": null,
      "terraza": false
    },
    {
      "id": "osm_node_3076859301",
      "nombre": "CasaMoner",
      "tipo": "cafe",
      "lat": 41.9955106,
      "lon": 2.8333037,
      "direccion": null,
      "codigo_postal": null,
      "telefono": null,
      "web": null,
      "instagram": null,
      "horario": null,
      "terraza": false
    },
    {
      "id": "osm_node_3098993347",
      "nombre": "Pastisseria Costa",
      "tipo": "cafe",
      "lat": 42.2004071,
      "lon": 2.1903764,
      "direccion": null,
      "codigo_postal": null,
      "telefono": null,
      "web": null,
      "instagram": null,
      "horario": null,
      "terraza": false
    },
    {
      "id": "osm_node_3099046562",
      "nombre": "Farmacia Prujà",
      "tipo": "bar",
      "lat": 42.1991513,
      "lon": 2.1907088,
      "direccion": null,
      "codigo_postal": null,
      "telefono": null,
      "web": null,
      "instagram": null,
      "horario": null,
      "terraza": false
    },
    {
      "id": "osm_node_3099078393",
      "nombre": "Pastisseria Junyent",
      "tipo": "cafe",
      "lat": 42.1912513,
      "lon": 2.19381,
      "direccion": null,
      "codigo_postal": null,
      "telefono": null,
      "web": null,
      "instagram": null,
      "horario": null,
      "terraza": false
    },
    {
      "id": "osm_node_3099597526",
      "nombre": "Bar Dinàmic",
      "tipo": "bar",
      "lat": 42.1977514,
      "lon": 2.1939862,
      "direccion": null,
      "codigo_postal": null,
      "telefono": null,
      "web": null,
      "instagram": null,
      "horario": null,
      "terraza": false
    },
    {
      "id": "osm_node_3099627531",
      "nombre": "Bar L'Alesia",
      "tipo": "bar",
      "lat": 42.2007003,
      "lon": 2.18995,
      "direccion": null,
      "codigo_postal": null,
      "telefono": null,
      "web": null,
      "instagram": null,
      "horario": null,
      "terraza": false
    },
    {
      "id": "osm_node_3101846533",
      "nombre": "La Taverneta",
      "tipo": "bar",
      "lat": 42.1991248,
      "lon": 2.1907869,
      "direccion": null,
      "codigo_postal": null,
      "telefono": null,
      "web": null,
      "instagram": null,
      "horario": null,
      "terraza": false
    },
    {
      "id": "osm_node_3102080763",
      "nombre": "L' Estrop",
      "tipo": "cafe",
      "lat": 42.26159,
      "lon": 3.1756497,
      "direccion": null,
      "codigo_postal": null,
      "telefono": null,
      "web": null,
      "instagram": null,
      "horario": null,
      "terraza": false
    },
    {
      "id": "osm_node_3110188221",
      "nombre": "La rutlla",
      "tipo": "cafe",
      "lat": 41.9552205,
      "lon": 2.6377692,
      "direccion": "Plaça de la Rutlla 11",
      "codigo_postal": "17160",
      "telefono": null,
      "web": "https://www.larutlla.cat/",
      "instagram": null,
      "horario": null,
      "terraza": false
    },
    {
      "id": "osm_node_3198071228",
      "nombre": "Bar Apres Ski-Hut",
      "tipo": "bar",
      "lat": 42.0521331,
      "lon": 3.1951616,
      "direccion": "Carrer Eivissa",
      "codigo_postal": "17258",
      "telefono": null,
      "web": null,
      "instagram": null,
      "horario": null,
      "terraza": false
    },
    {
      "id": "osm_node_3198071845",
      "nombre": "Bar La Vela",
      "tipo": "bar",
      "lat": 42.0521012,
      "lon": 3.1952595,
      "direccion": "Passatge Vela",
      "codigo_postal": "17258",
      "telefono": null,
      "web": null,
      "instagram": null,
      "horario": null,
      "terraza": false
    },
    {
      "id": "osm_node_3198072941",
      "nombre": "Bar Absolut Salsa",
      "tipo": "bar",
      "lat": 42.0520026,
      "lon": 3.1948317,
      "direccion": "Carrer Eivissa",
      "codigo_postal": "17258",
      "telefono": null,
      "web": null,
      "instagram": null,
      "horario": null,
      "terraza": false
    },
    {
      "id": "osm_node_3198073237",
      "nombre": "Pub Rockefeller's",
      "tipo": "pub",
      "lat": 42.0520903,
      "lon": 3.1950597,
      "direccion": "Carrer Eivissa",
      "codigo_postal": "17258",
      "telefono": null,
      "web": null,
      "instagram": null,
      "horario": null,
      "terraza": false
    },
    {
      "id": "osm_node_3198073775",
      "nombre": "Bar YC's",
      "tipo": "pub",
      "lat": 42.0518503,
      "lon": 3.1944736,
      "direccion": "Carrer del Coral",
      "codigo_postal": "17258",
      "telefono": null,
      "web": null,
      "instagram": null,
      "horario": null,
      "terraza": false
    },
    {
      "id": "osm_node_3198074650",
      "nombre": "Bar New Ambient",
      "tipo": "bar",
      "lat": 42.051686,
      "lon": 3.1948813,
      "direccion": "Carrer del Coral",
      "codigo_postal": "17258",
      "telefono": null,
      "web": null,
      "instagram": null,
      "horario": null,
      "terraza": false
    },
    {
      "id": "osm_node_3198074955",
      "nombre": "Bar Splash",
      "tipo": "bar",
      "lat": 42.0517776,
      "lon": 3.1946211,
      "direccion": "Carrer del Coral",
      "codigo_postal": "17258",
      "telefono": null,
      "web": null,
      "instagram": null,
      "horario": null,
      "terraza": false
    },
    {
      "id": "osm_node_3198094618",
      "nombre": "Bar Jerico",
      "tipo": "bar",
      "lat": 42.0520288,
      "lon": 3.195457,
      "direccion": "Passatge Vela",
      "codigo_postal": "17258",
      "telefono": null,
      "web": null,
      "instagram": null,
      "horario": null,
      "terraza": false
    },
    {
      "id": "osm_node_3200039557",
      "nombre": "Bar Xurreria Amanecer",
      "tipo": "cafe",
      "lat": 42.0522318,
      "lon": 3.1970734,
      "direccion": "Avinguda de Roma",
      "codigo_postal": "17258",
      "telefono": null,
      "web": null,
      "instagram": null,
      "horario": null,
      "terraza": false
    },
    {
      "id": "osm_node_3200049606",
      "nombre": "Cafè La vie en pink",
      "tipo": "cafe",
      "lat": 42.0521158,
      "lon": 3.1972738,
      "direccion": "Carrer Guillem de Montgri",
      "codigo_postal": "17258",
      "telefono": null,
      "web": null,
      "instagram": null,
      "horario": null,
      "terraza": false
    },
    {
      "id": "osm_node_3201837095",
      "nombre": "Café Puccini",
      "tipo": "cafe",
      "lat": 42.0509673,
      "lon": 3.195213,
      "direccion": "Avinguda de Roma",
      "codigo_postal": "17258",
      "telefono": null,
      "web": null,
      "instagram": null,
      "horario": null,
      "terraza": false
    },
    {
      "id": "osm_node_3226212949",
      "nombre": "Bar Cantonada",
      "tipo": "pub",
      "lat": 42.0550083,
      "lon": 3.1994866,
      "direccion": "Carrer de Victor Concas 22",
      "codigo_postal": "17258",
      "telefono": null,
      "web": null,
      "instagram": null,
      "horario": null,
      "terraza": false
    },
    {
      "id": "osm_node_3256151305",
      "nombre": "Bar N'gruna",
      "tipo": "bar",
      "lat": 42.0546908,
      "lon": 3.2049776,
      "direccion": "Passeig Marítim",
      "codigo_postal": "17258",
      "telefono": null,
      "web": null,
      "instagram": null,
      "horario": null,
      "terraza": true
    },
    {
      "id": "osm_node_3281939662",
      "nombre": "L'Iguana",
      "tipo": "cafe",
      "lat": 41.6995876,
      "lon": 2.8455804,
      "direccion": null,
      "codigo_postal": null,
      "telefono": null,
      "web": null,
      "instagram": null,
      "horario": null,
      "terraza": false
    },
    {
      "id": "osm_node_3301034657",
      "nombre": "La Formentera",
      "tipo": "cafe",
      "lat": 41.8217985,
      "lon": 3.0699777,
      "direccion": "Avinguda del Cavall Bernat 129",
      "codigo_postal": "17250",
      "telefono": "+34 972 826 317",
      "web": null,
      "instagram": null,
      "horario": "Mo-Su 07:30-20:00",
      "terraza": true
    },
    {
      "id": "osm_node_3304691012",
      "nombre": "Aplecafe",
      "tipo": "cafe",
      "lat": 41.9746097,
      "lon": 2.8059023,
      "direccion": null,
      "codigo_postal": null,
      "telefono": null,
      "web": null,
      "instagram": null,
      "horario": null,
      "terraza": false
    },
    {
      "id": "osm_node_3304691014",
      "nombre": "Forum",
      "tipo": "bar",
      "lat": 41.9738569,
      "lon": 2.8059281,
      "direccion": null,
      "codigo_postal": null,
      "telefono": null,
      "web": null,
      "instagram": null,
      "horario": null,
      "terraza": false
    },
    {
      "id": "osm_node_3304691018",
      "nombre": "La Granja",
      "tipo": "cafe",
      "lat": 41.9738306,
      "lon": 2.8054321,
      "direccion": null,
      "codigo_postal": null,
      "telefono": null,
      "web": null,
      "instagram": null,
      "horario": null,
      "terraza": false
    },
    {
      "id": "osm_node_3307457552",
      "nombre": "Eucaliptus",
      "tipo": "cafe",
      "lat": 41.9788283,
      "lon": 2.8221438,
      "direccion": null,
      "codigo_postal": null,
      "telefono": null,
      "web": null,
      "instagram": null,
      "horario": null,
      "terraza": false
    },
    {
      "id": "osm_node_3308032598",
      "nombre": "Charlotte",
      "tipo": "cafe",
      "lat": 41.9846524,
      "lon": 2.8176917,
      "direccion": null,
      "codigo_postal": null,
      "telefono": null,
      "web": null,
      "instagram": null,
      "horario": null,
      "terraza": false
    },
    {
      "id": "osm_node_3308032601",
      "nombre": "Jim's",
      "tipo": "cafe",
      "lat": 41.9852208,
      "lon": 2.8187528,
      "direccion": null,
      "codigo_postal": null,
      "telefono": null,
      "web": null,
      "instagram": null,
      "horario": null,
      "terraza": false
    },
    {
      "id": "osm_node_3364245331",
      "nombre": "Bellini",
      "tipo": "bar",
      "lat": 41.9862843,
      "lon": 2.8214571,
      "direccion": null,
      "codigo_postal": null,
      "telefono": null,
      "web": null,
      "instagram": null,
      "horario": null,
      "terraza": false
    },
    {
      "id": "osm_node_3364245337",
      "nombre": "Celtic Girona",
      "tipo": "bar",
      "lat": 41.9860002,
      "lon": 2.8200839,
      "direccion": null,
      "codigo_postal": null,
      "telefono": null,
      "web": null,
      "instagram": null,
      "horario": null,
      "terraza": false
    },
    {
      "id": "osm_node_3364245345",
      "nombre": "Willy's",
      "tipo": "bar",
      "lat": 41.9836666,
      "lon": 2.8195417,
      "direccion": null,
      "codigo_postal": null,
      "telefono": null,
      "web": null,
      "instagram": null,
      "horario": null,
      "terraza": false
    },
    {
      "id": "osm_node_3364245347",
      "nombre": "Il Piccolo",
      "tipo": "cafe",
      "lat": 41.9865563,
      "lon": 2.8235597,
      "direccion": null,
      "codigo_postal": null,
      "telefono": null,
      "web": null,
      "instagram": null,
      "horario": null,
      "terraza": false
    },
    {
      "id": "osm_node_3364245350",
      "nombre": "La Boheme",
      "tipo": "cafe",
      "lat": 41.9873022,
      "lon": 2.8229305,
      "direccion": null,
      "codigo_postal": null,
      "telefono": null,
      "web": null,
      "instagram": null,
      "horario": null,
      "terraza": false
    },
    {
      "id": "osm_node_3364246765",
      "nombre": "Platea",
      "tipo": "cafe",
      "lat": 41.9868338,
      "lon": 2.823141,
      "direccion": null,
      "codigo_postal": null,
      "telefono": null,
      "web": null,
      "instagram": null,
      "horario": null,
      "terraza": false
    },
    {
      "id": "osm_node_3364246766",
      "nombre": "Revox",
      "tipo": "cafe",
      "lat": 41.9866619,
      "lon": 2.8235108,
      "direccion": null,
      "codigo_postal": null,
      "telefono": null,
      "web": null,
      "instagram": null,
      "horario": null,
      "terraza": false
    },
    {
      "id": "osm_node_3364246767",
      "nombre": "Rick's",
      "tipo": "cafe",
      "lat": 41.9852991,
      "lon": 2.8191893,
      "direccion": null,
      "codigo_postal": null,
      "telefono": null,
      "web": null,
      "instagram": null,
      "horario": null,
      "terraza": false
    },
    {
      "id": "osm_node_3364246769",
      "nombre": "Room 118",
      "tipo": "bar",
      "lat": 41.9853007,
      "lon": 2.8213695,
      "direccion": null,
      "codigo_postal": null,
      "telefono": null,
      "web": null,
      "instagram": null,
      "horario": null,
      "terraza": false
    },
    {
      "id": "osm_node_3378334059",
      "nombre": "Lotus",
      "tipo": "cafe",
      "lat": 41.9838751,
      "lon": 2.8190265,
      "direccion": null,
      "codigo_postal": null,
      "telefono": null,
      "web": null,
      "instagram": null,
      "horario": null,
      "terraza": false
    },
    {
      "id": "osm_node_3378352153",
      "nombre": "Rocacorba Cafè",
      "tipo": "cafe",
      "lat": 41.9848145,
      "lon": 2.82272,
      "direccion": null,
      "codigo_postal": null,
      "telefono": null,
      "web": null,
      "instagram": null,
      "horario": null,
      "terraza": false
    },
    {
      "id": "osm_node_3388071475",
      "nombre": "Mamma",
      "tipo": "cafe",
      "lat": 41.9827818,
      "lon": 2.820872,
      "direccion": null,
      "codigo_postal": null,
      "telefono": null,
      "web": null,
      "instagram": null,
      "horario": null,
      "terraza": false
    },
    {
      "id": "osm_node_3425099384",
      "nombre": "Tapas",
      "tipo": "bar",
      "lat": 41.9810432,
      "lon": 2.8186056,
      "direccion": null,
      "codigo_postal": null,
      "telefono": null,
      "web": null,
      "instagram": null,
      "horario": null,
      "terraza": false
    },
    {
      "id": "osm_node_3425129769",
      "nombre": "Plis-Plas",
      "tipo": "cafe",
      "lat": 41.9797568,
      "lon": 2.8173699,
      "direccion": null,
      "codigo_postal": null,
      "telefono": null,
      "web": null,
      "instagram": null,
      "horario": null,
      "terraza": false
    },
    {
      "id": "osm_node_3437136091",
      "nombre": "La plaça",
      "tipo": "cafe",
      "lat": 41.9818285,
      "lon": 2.8193046,
      "direccion": null,
      "codigo_postal": null,
      "telefono": null,
      "web": null,
      "instagram": null,
      "horario": null,
      "terraza": false
    },
    {
      "id": "osm_node_3439531839",
      "nombre": "Ca l'Ivan",
      "tipo": "cafe",
      "lat": 41.9814637,
      "lon": 2.8217611,
      "direccion": null,
      "codigo_postal": null,
      "telefono": null,
      "web": null,
      "instagram": null,
      "horario": null,
      "terraza": false
    },
    {
      "id": "osm_node_3439531855",
      "nombre": "Xurreria la family",
      "tipo": "cafe",
      "lat": 41.9821299,
      "lon": 2.8228032,
      "direccion": null,
      "codigo_postal": null,
      "telefono": null,
      "web": null,
      "instagram": null,
      "horario": null,
      "terraza": false
    },
    {
      "id": "osm_node_3439612490",
      "nombre": "Apple",
      "tipo": "cafe",
      "lat": 41.9823819,
      "lon": 2.8225184,
      "direccion": null,
      "codigo_postal": null,
      "telefono": null,
      "web": null,
      "instagram": null,
      "horario": null,
      "terraza": false
    },
    {
      "id": "osm_node_3439621595",
      "nombre": "Savoy",
      "tipo": "cafe",
      "lat": 41.9826515,
      "lon": 2.8225539,
      "direccion": "Carrer Nou 3",
      "codigo_postal": "17001",
      "telefono": "+34 972 20 38 00",
      "web": "https://www.savoygirona.com/",
      "instagram": null,
      "horario": null,
      "terraza": false
    },
    {
      "id": "osm_node_3439621634",
      "nombre": "Petit Berlin",
      "tipo": "cafe",
      "lat": 41.9826549,
      "lon": 2.8222314,
      "direccion": null,
      "codigo_postal": null,
      "telefono": null,
      "web": null,
      "instagram": null,
      "horario": null,
      "terraza": false
    },
    {
      "id": "osm_node_3439621635",
      "nombre": "Pilot",
      "tipo": "cafe",
      "lat": 41.9805886,
      "lon": 2.8230383,
      "direccion": null,
      "codigo_postal": null,
      "telefono": null,
      "web": null,
      "instagram": null,
      "horario": null,
      "terraza": false
    },
    {
      "id": "osm_node_3508263200",
      "nombre": "Alcantara",
      "tipo": "bar",
      "lat": 41.9750418,
      "lon": 2.8202217,
      "direccion": null,
      "codigo_postal": null,
      "telefono": null,
      "web": null,
      "instagram": null,
      "horario": null,
      "terraza": false
    },
    {
      "id": "osm_node_3508263201",
      "nombre": "Bones Estones",
      "tipo": "cafe",
      "lat": 41.9703327,
      "lon": 2.8111957,
      "direccion": null,
      "codigo_postal": null,
      "telefono": null,
      "web": null,
      "instagram": null,
      "horario": null,
      "terraza": false
    },
    {
      "id": "osm_node_3508263206",
      "nombre": "Dolma",
      "tipo": "bar",
      "lat": 41.9759024,
      "lon": 2.8194283,
      "direccion": null,
      "codigo_postal": null,
      "telefono": null,
      "web": null,
      "instagram": null,
      "horario": null,
      "terraza": false
    },
    {
      "id": "osm_node_3508263208",
      "nombre": "Expresate",
      "tipo": "cafe",
      "lat": 41.9757592,
      "lon": 2.8200639,
      "direccion": null,
      "codigo_postal": null,
      "telefono": null,
      "web": null,
      "instagram": null,
      "horario": null,
      "terraza": false
    },
    {
      "id": "osm_node_3508263215",
      "nombre": "Pandi",
      "tipo": "cafe",
      "lat": 41.9756952,
      "lon": 2.8184375,
      "direccion": null,
      "codigo_postal": null,
      "telefono": null,
      "web": null,
      "instagram": null,
      "horario": null,
      "terraza": false
    },
    {
      "id": "osm_node_3508266700",
      "nombre": "KRonos",
      "tipo": "bar",
      "lat": 41.9755815,
      "lon": 2.8213791,
      "direccion": null,
      "codigo_postal": null,
      "telefono": null,
      "web": null,
      "instagram": null,
      "horario": null,
      "terraza": false
    },
    {
      "id": "osm_node_3508288056",
      "nombre": "La Creu",
      "tipo": "cafe",
      "lat": 41.9752739,
      "lon": 2.822849,
      "direccion": null,
      "codigo_postal": null,
      "telefono": null,
      "web": null,
      "instagram": null,
      "horario": null,
      "terraza": false
    },
    {
      "id": "osm_node_3508288058",
      "nombre": "Veggana",
      "tipo": "cafe",
      "lat": 41.9749778,
      "lon": 2.8223173,
      "direccion": "Carrer de la Rutlla 108",
      "codigo_postal": null,
      "telefono": null,
      "web": null,
      "instagram": null,
      "horario": null,
      "terraza": false
    },
    {
      "id": "osm_node_3508288084",
      "nombre": "Sbarjo",
      "tipo": "bar",
      "lat": 41.9752358,
      "lon": 2.8230376,
      "direccion": null,
      "codigo_postal": null,
      "telefono": null,
      "web": null,
      "instagram": null,
      "horario": null,
      "terraza": false
    },
    {
      "id": "osm_node_3605933697",
      "nombre": "Bar El Jardí",
      "tipo": "cafe",
      "lat": 41.7186491,
      "lon": 2.9324922,
      "direccion": null,
      "codigo_postal": null,
      "telefono": null,
      "web": null,
      "instagram": null,
      "horario": null,
      "terraza": false
    },
    {
      "id": "osm_node_3634320553",
      "nombre": "Vitrall",
      "tipo": "bar",
      "lat": 41.9697617,
      "lon": 2.8112394,
      "direccion": null,
      "codigo_postal": null,
      "telefono": null,
      "web": null,
      "instagram": null,
      "horario": null,
      "terraza": false
    },
    {
      "id": "osm_node_3634973972",
      "nombre": "Empuries",
      "tipo": "cafe",
      "lat": 41.9705028,
      "lon": 2.8106214,
      "direccion": null,
      "codigo_postal": null,
      "telefono": null,
      "web": null,
      "instagram": null,
      "horario": null,
      "terraza": false
    },
    {
      "id": "osm_node_3635028352",
      "nombre": "Omega",
      "tipo": "bar",
      "lat": 41.969416,
      "lon": 2.810193,
      "direccion": null,
      "codigo_postal": null,
      "telefono": null,
      "web": null,
      "instagram": null,
      "horario": null,
      "terraza": false
    },
    {
      "id": "osm_node_3635028353",
      "nombre": "Paco",
      "tipo": "bar",
      "lat": 41.9688942,
      "lon": 2.8088286,
      "direccion": null,
      "codigo_postal": null,
      "telefono": null,
      "web": null,
      "instagram": null,
      "horario": null,
      "terraza": false
    },
    {
      "id": "osm_node_3643167104",
      "nombre": "Bar \"La sociedad\"",
      "tipo": "cafe",
      "lat": 42.4186622,
      "lon": 2.8727389,
      "direccion": null,
      "codigo_postal": null,
      "telefono": null,
      "web": null,
      "instagram": null,
      "horario": null,
      "terraza": false
    },
    {
      "id": "osm_node_3643167105",
      "nombre": "Bar la civadera",
      "tipo": "cafe",
      "lat": 42.4182199,
      "lon": 2.8730302,
      "direccion": null,
      "codigo_postal": null,
      "telefono": null,
      "web": null,
      "instagram": null,
      "horario": null,
      "terraza": false
    },
    {
      "id": "osm_node_3661120597",
      "nombre": "Santa Anna",
      "tipo": "bar",
      "lat": 41.9686124,
      "lon": 2.8110259,
      "direccion": null,
      "codigo_postal": null,
      "telefono": null,
      "web": null,
      "instagram": null,
      "horario": null,
      "terraza": false
    },