{
  "ciudad": "Granada",
  "total": 607,
  "locales": [
    {
      "id": "osm_node_476034320",
      "nombre": "Mummo Café",
      "tipo": "cafe",
      "lat": 37.1742179,
      "lon": -3.5998448,
      "direccion": "Calle Cerrajeros 1",
      "codigo_postal": "18001",
      "telefono": null,
      "web": null,
      "instagram": null,
      "horario": "Mo-Fr 08:00-18:00",
      "terraza": false,
      "musica": null,
      "fuente": "openstreetmap"
    },
    {
      "id": "osm_node_490639121",
      "nombre": "Chopp",
      "tipo": "pub",
      "lat": 37.1990196,
      "lon": -3.6070736,
      "direccion": null,
      "codigo_postal": null,
      "telefono": null,
      "web": null,
      "instagram": null,
      "horario": null,
      "terraza": false,
      "musica": null,
      "fuente": "openstreetmap"
    },
    {
      "id": "osm_node_544505493",
      "nombre": "Al galope",
      "tipo": "bar",
      "lat": 37.1901305,
      "lon": -3.6041118,
      "direccion": null,
      "codigo_postal": null,
      "telefono": null,
      "web": null,
      "instagram": null,
      "horario": null,
      "terraza": false,
      "musica": null,
      "fuente": "openstreetmap"
    },
    {
      "id": "osm_node_642093087",
      "nombre": "El Laurel",
      "tipo": "cafe",
      "lat": 37.1752636,
      "lon": -3.5994706,
      "direccion": "Plaza de Bib-Rambla 18",
      "codigo_postal": null,
      "telefono": "+34 958 22 24 24",
      "web": null,
      "instagram": null,
      "horario": null,
      "terraza": false,
      "musica": null,
      "fuente": "openstreetmap"
    },
    {
      "id": "osm_node_642093089",
      "nombre": "Los Manueles",
      "tipo": "cafe",
      "lat": 37.1765103,
      "lon": -3.6000774,
      "direccion": null,
      "codigo_postal": null,
      "telefono": null,
      "web": null,
      "instagram": null,
      "horario": null,
      "terraza": false,
      "musica": null,
      "fuente": "openstreetmap"
    },
    {
      "id": "osm_node_670805294",
      "nombre": "Café Bar Borsalino",
      "tipo": "pub",
      "lat": 37.1955819,
      "lon": -3.6100711,
      "direccion": null,
      "codigo_postal": null,
      "telefono": null,
      "web": null,
      "instagram": null,
      "horario": null,
      "terraza": false,
      "musica": null,
      "fuente": "openstreetmap"
    },
    {
      "id": "osm_node_670805298",
      "nombre": "Bar Valdecas",
      "tipo": "pub",
      "lat": 37.1953684,
      "lon": -3.611479,
      "direccion": null,
      "codigo_postal": null,
      "telefono": null,
      "web": null,
      "instagram": null,
      "horario": null,
      "terraza": false,
      "musica": null,
      "fuente": "openstreetmap"
    },
    {
      "id": "osm_node_938090313",
      "nombre": "Candelas",
      "tipo": "cafe",
      "lat": 37.1798857,
      "lon": -3.6027419,
      "direccion": null,
      "codigo_postal": null,
      "telefono": null,
      "web": null,
      "instagram": null,
      "horario": null,
      "terraza": true,
      "musica": null,
      "fuente": "openstreetmap"
    },
    {
      "id": "osm_node_940384670",
      "nombre": "Cafetería Dpan",
      "tipo": "cafe",
      "lat": 37.1861383,
      "lon": -3.6107324,
      "direccion": null,
      "codigo_postal": null,
      "telefono": null,
      "web": null,
      "instagram": null,
      "horario": "07:30-24:00",
      "terraza": false,
      "musica": null,
      "fuente": "openstreetmap"
    },
    {
      "id": "osm_node_940388055",
      "nombre": "Sintapujos",
      "tipo": "pub",
      "lat": 37.1852124,
      "lon": -3.6112915,
      "direccion": null,
      "codigo_postal": null,
      "telefono": null,
      "web": null,
      "instagram": null,
      "horario": null,
      "terraza": false,
      "musica": null,
      "fuente": "openstreetmap"
    },
    {
      "id": "osm_node_940392354",
      "nombre": "Bar Caribe",
      "tipo": "pub",
      "lat": 37.1858365,
      "lon": -3.6125536,
      "direccion": null,
      "codigo_postal": null,
      "telefono": null,
      "web": null,
      "instagram": null,
      "horario": "Mo-Sa 08:00-00:00",
      "terraza": false,
      "musica": null,
      "fuente": "openstreetmap"
    },
    {
      "id": "osm_node_940392918",
      "nombre": "Café Taberna Nido",
      "tipo": "pub",
      "lat": 37.1859758,
      "lon": -3.6121981,
      "direccion": null,
      "codigo_postal": null,
      "telefono": null,
      "web": null,
      "instagram": null,
      "horario": null,
      "terraza": false,
      "musica": null,
      "fuente": "openstreetmap"
    },
    {
      "id": "osm_node_940393077",
      "nombre": "El Vagón",
      "tipo": "pub",
      "lat": 37.1859631,
      "lon": -3.6107221,
      "direccion": "Calle Mirlo",
      "codigo_postal": null,
      "telefono": null,
      "web": null,
      "instagram": null,
      "horario": "08:00-15:00,17:00-24:00",
      "terraza": false,
      "musica": null,
      "fuente": "openstreetmap"
    },
    {
      "id": "osm_node_951571670",
      "nombre": "Donde Siempre",
      "tipo": "pub",
      "lat": 37.1618315,
      "lon": -3.592161,
      "direccion": null,
      "codigo_postal": null,
      "telefono": null,
      "web": null,
      "instagram": null,
      "horario": null,
      "terraza": false,
      "musica": null,
      "fuente": "openstreetmap"
    },
    {
      "id": "osm_node_1345327075",
      "nombre": "Bueno",
      "tipo": "bar",
      "lat": 37.1770423,
      "lon": -3.6002592,
      "direccion": null,
      "codigo_postal": null,
      "telefono": null,
      "web": null,
      "instagram": null,
      "horario": null,
      "terraza": false,
      "musica": null,
      "fuente": "openstreetmap"
    },
    {
      "id": "osm_node_1381702017",
      "nombre": "Liberia",
      "tipo": "pub",
      "lat": 37.1769651,
      "lon": -3.601883,
      "direccion": null,
      "codigo_postal": null,
      "telefono": null,
      "web": null,
      "instagram": null,
      "horario": null,
      "terraza": false,
      "musica": null,
      "fuente": "openstreetmap"
    },
    {
      "id": "osm_node_1421372963",
      "nombre": "Cafetería Robinson",
      "tipo": "cafe",
      "lat": 37.1590066,
      "lon": -3.5909334,
      "direccion": null,
      "codigo_postal": null,
      "telefono": null,
      "web": null,
      "instagram": null,
      "horario": null,
      "terraza": false,
      "musica": null,
      "fuente": "openstreetmap"
    },
    {
      "id": "osm_node_1509172880",
      "nombre": "Tragofino",
      "tipo": "bar",
      "lat": 37.175237,
      "lon": -3.5967279,
      "direccion": "Plaza de las Descalzas 3",
      "codigo_postal": "18009",
      "telefono": null,
      "web": null,
      "instagram": null,
      "horario": null,
      "terraza": false,
      "musica": null,
      "fuente": "openstreetmap"
    },
    {
      "id": "osm_node_1538006740",
      "nombre": "Cafetería Museo Caja Granada",
      "tipo": "cafe",
      "lat": 37.1623509,
      "lon": -3.6079902,
      "direccion": null,
      "codigo_postal": null,
      "telefono": null,
      "web": null,
      "instagram": null,
      "horario": null,
      "terraza": false,
      "musica": null,
      "fuente": "openstreetmap"
    },
    {
      "id": "osm_node_1543269354",
      "nombre": "Bar Manolo",
      "tipo": "pub",
      "lat": 37.1729356,
      "lon": -3.6041301,
      "direccion": "Plaza de Gracia",
      "codigo_postal": "18002",
      "telefono": null,
      "web": null,
      "instagram": null,
      "horario": null,
      "terraza": false,
      "musica": null,
      "fuente": "openstreetmap"
    },
    {
      "id": "osm_node_1782545067",
      "nombre": "Bar Bruselas",
      "tipo": "pub",
      "lat": 37.1608267,
      "lon": -3.5927395,
      "direccion": null,
      "codigo_postal": null,
      "telefono": null,
      "web": null,
      "instagram": null,
      "horario": null,
      "terraza": false,
      "musica": null,
      "fuente": "openstreetmap"
    },
    {
      "id": "osm_node_1782545075",
      "nombre": "Cafetería Rodri",
      "tipo": "cafe",
      "lat": 37.1617155,
      "lon": -3.5931555,
      "direccion": null,
      "codigo_postal": null,
      "telefono": null,
      "web": null,
      "instagram": null,
      "horario": null,
      "terraza": false,
      "musica": null,
      "fuente": "openstreetmap"
    },
    {
      "id": "osm_node_1782546205",
      "nombre": "Café Eloy",
      "tipo": "cafe",
      "lat": 37.1601033,
      "lon": -3.594685,
      "direccion": null,
      "codigo_postal": null,
      "telefono": null,
      "web": null,
      "instagram": null,
      "horario": null,
      "terraza": false,
      "musica": null,
      "fuente": "openstreetmap"
    },
    {
      "id": "osm_node_1887917964",
      "nombre": "Romero",
      "tipo": "bar",
      "lat": 37.1619547,
      "lon": -3.5927223,
      "direccion": null,
      "codigo_postal": null,
      "telefono": null,
      "web": null,
      "instagram": null,
      "horario": null,
      "terraza": false,
      "musica": null,
      "fuente": "openstreetmap"
    },
    {
      "id": "osm_node_2141462576",
      "nombre": "Bar Las Pesas",
      "tipo": "pub",
      "lat": 37.1825979,
      "lon": -3.5936982,
      "direccion": null,
      "codigo_postal": null,
      "telefono": null,
      "web": null,
      "instagram": null,
      "horario": null,
      "terraza": false,
      "musica": null,
      "fuente": "openstreetmap"
    },
    {
      "id": "osm_node_2141462589",
      "nombre": "Bar La Mancha Chica",
      "tipo": "pub",
      "lat": 37.1808897,
      "lon": -3.5949085,
      "direccion": null,
      "codigo_postal": null,
      "telefono": null,
      "web": null,
      "instagram": null,
      "horario": null,
      "terraza": false,
      "musica": null,
      "fuente": "openstreetmap"
    },
    {
      "id": "osm_node_2141462591",
      "nombre": "Bar Aixa",
      "tipo": "pub",
      "lat": 37.1827193,
      "lon": -3.5931544,
      "direccion": "Plaza Larga 5",
      "codigo_postal": null,
      "telefono": "+34 958 27 50 42",
      "web": null,
      "instagram": null,
      "horario": "We-Mo 06:30-24:00; Tu 06:30-14:00",
      "terraza": true,
      "musica": null,
      "fuente": "openstreetmap"
    },
    {
      "id": "osm_node_2141462594",
      "nombre": "Casa Pasteles Albayzín",
      "tipo": "cafe",
      "lat": 37.1826719,
      "lon": -3.5935419,
      "direccion": null,
      "codigo_postal": null,
      "telefono": null,
      "web": null,
      "instagram": null,
      "horario": null,
      "terraza": false,
      "musica": null,
      "fuente": "openstreetmap"
    },
    {
      "id": "osm_node_2141464300",
      "nombre": "La Tata",
      "tipo": "pub",
      "lat": 37.1806971,
      "lon": -3.5969781,
      "direccion": null,
      "codigo_postal": null,
      "telefono": null,
      "web": null,
      "instagram": null,
      "horario": null,
      "terraza": false,
      "musica": null,
      "fuente": "openstreetmap"
    },
    {
      "id": "osm_node_2188907349",
      "nombre": "Cafetería de la Facultad de Ciencias",
      "tipo": "cafe",
      "lat": 37.1796242,
      "lon": -3.6097456,
      "direccion": null,
      "codigo_postal": null,
      "telefono": null,
      "web": null,
      "instagram": null,
      "horario": "Mo-Fr 08:00-21:00",
      "terraza": true,
      "musica": null,
      "fuente": "openstreetmap"
    },
    {
      "id": "osm_node_2255165171",
      "nombre": "Grifos y tapas",
      "tipo": "pub",
      "lat": 37.1792243,
      "lon": -3.6107517,
      "direccion": "Calle Almenillas",
      "codigo_postal": null,
      "telefono": null,
      "web": null,
      "instagram": null,
      "horario": null,
      "terraza": true,
      "musica": null,
      "fuente": "openstreetmap"
    },
    {
      "id": "osm_node_2255171480",
      "nombre": "Bar do pulpo",
      "tipo": "pub",
      "lat": 37.1791794,
      "lon": -3.6108738,
      "direccion": null,
      "codigo_postal": null,
      "telefono": null,
      "web": null,
      "instagram": null,
      "horario": null,
      "terraza": false,
      "musica": null,
      "fuente": "openstreetmap"
    },
    {
      "id": "osm_node_2255175412",
      "nombre": "La parra",
      "tipo": "pub",
      "lat": 37.1793686,
      "lon": -3.6107987,
      "direccion": null,
      "codigo_postal": null,
      "telefono": null,
      "web": null,
      "instagram": null,
      "horario": null,
      "terraza": false,
      "musica": null,
      "fuente": "openstreetmap"
    },
    {
      "id": "osm_node_2255177988",
      "nombre": "Biggie's",
      "tipo": "pub",
      "lat": 37.1794188,
      "lon": -3.6106457,
      "direccion": null,
      "codigo_postal": null,
      "telefono": null,
      "web": null,
      "instagram": null,
      "horario": null,
      "terraza": true,
      "musica": null,
      "fuente": "openstreetmap"
    },
    {
      "id": "osm_node_2276054856",
      "nombre": "El Establo",
      "tipo": "pub",
      "lat": 37.1773662,
      "lon": -3.6049582,
      "direccion": "Calle Almona Vieja",
      "codigo_postal": "18002",
      "telefono": null,
      "web": null,
      "instagram": null,
      "horario": null,
      "terraza": true,
      "musica": null,
      "fuente": "openstreetmap"
    },
    {
      "id": "osm_node_2276061074",
      "nombre": "Rialto Nuevo",
      "tipo": "pub",
      "lat": 37.1728673,
      "lon": -3.6039737,
      "direccion": "Calle Moral de la Magdalena",
      "codigo_postal": "18002",
      "telefono": null,
      "web": null,
      "instagram": null,
      "horario": null,
      "terraza": true,
      "musica": null,
      "fuente": "openstreetmap"
    },
    {
      "id": "osm_node_2279576308",
      "nombre": "Cafetería Duran",
      "tipo": "cafe",
      "lat": 37.190335,
      "lon": -3.6083421,
      "direccion": null,
      "codigo_postal": null,
      "telefono": null,
      "web": null,
      "instagram": null,
      "horario": "Mo-Su 08:30-20:00",
      "terraza": false,
      "musica": null,
      "fuente": "openstreetmap"
    },
    {
      "id": "osm_node_2318461702",
      "nombre": "Taberna El Camborio",
      "tipo": "cafe",
      "lat": 37.1810662,
      "lon": -3.5863372,
      "direccion": null,
      "codigo_postal": null,
      "telefono": null,
      "web": null,
      "instagram": null,
      "horario": null,
      "terraza": false,
      "musica": null,
      "fuente": "openstreetmap"
    },
    {
      "id": "osm_node_2641998293",
      "nombre": "Bar Los Diamantes",
      "tipo": "pub",
      "lat": 37.1563931,
      "lon": -3.5920517,
      "direccion": "Calle Torre de Peralada",
      "codigo_postal": "18008",
      "telefono": "+34 858 12 01 90",
      "web": "http://www.barlosdiamantes.com",
      "instagram": null,
      "horario": null,
      "terraza": false,
      "musica": null,
      "fuente": "openstreetmap"
    },
    {
      "id": "osm_node_2646389668",
      "nombre": "Cosa Nostra",
      "tipo": "bar",
      "lat": 37.1777389,
      "lon": -3.608961,
      "direccion": "Calle Martínez de la Rosa",
      "codigo_postal": "18002",
      "telefono": null,
      "web": null,
      "instagram": null,
      "horario": null,
      "terraza": false,
      "musica": null,
      "fuente": "openstreetmap"
    },
    {
      "id": "osm_node_2835411098",
      "nombre": "Polinario",
      "tipo": "cafe",
      "lat": 37.1744233,
      "lon": -3.5843495,
      "direccion": null,
      "codigo_postal": null,
      "telefono": null,
      "web": null,
      "instagram": null,
      "horario": null,
      "terraza": false,
      "musica": null,
      "fuente": "openstreetmap"
    },
    {
      "id": "osm_node_2888095276",
      "nombre": "Mitico Bar",
      "tipo": "bar",
      "lat": 37.1789014,
      "lon": -3.6011952,
      "direccion": null,
      "codigo_postal": null,
      "telefono": null,
      "web": null,
      "instagram": null,
      "horario": null,
      "terraza": true,
      "musica": null,
      "fuente": "openstreetmap"
    },
    {
      "id": "osm_node_3017332261",
      "nombre": "Bar \"La Doña\"",
      "tipo": "pub",
      "lat": 37.1582611,
      "lon": -3.5975008,
      "direccion": null,
      "codigo_postal": null,
      "telefono": null,
      "web": null,
      "instagram": null,
      "horario": null,
      "terraza": false,
      "musica": null,
      "fuente": "openstreetmap"
    },
    {
      "id": "osm_node_3070292475",
      "nombre": "A Cá el Edu",
      "tipo": "pub",
      "lat": 37.1876935,
      "lon": -3.6153792,
      "direccion": null,
      "codigo_postal": null,
      "telefono": null,
      "web": null,
      "instagram": null,
      "horario": null,
      "terraza": true,
      "musica": null,
      "fuente": "openstreetmap"
    },
    {
      "id": "osm_node_3084650009",
      "nombre": "Bar Teruel",
      "tipo": "pub",
      "lat": 37.1879644,
      "lon": -3.618946,
      "direccion": "Calle Salmón 4",
      "codigo_postal": "18015",
      "telefono": "+34 958 20 68 69",
      "web": null,
      "instagram": null,
      "horario": null,
      "terraza": false,
      "musica": null,
      "fuente": "openstreetmap"
    },
    {
      "id": "osm_node_3340411811",
      "nombre": "Gran Kiki Tapas",
      "tipo": "pub",
      "lat": 37.1597978,
      "lon": -3.5949764,
      "direccion": null,
      "codigo_postal": null,
      "telefono": "+34 958 99 24 21",
      "web": null,
      "instagram": null,
      "horario": null,
      "terraza": false,
      "musica": null,
      "fuente": "openstreetmap"
    },
    {
      "id": "osm_node_3364853748",
      "nombre": "Café 4 Gatos",
      "tipo": "cafe",
      "lat": 37.1791079,
      "lon": -3.5949658,
      "direccion": "Placeta Cruz Verde 6",
      "codigo_postal": "18010",
      "telefono": "+34 958 22 48 57",
      "web": "https://www.cafe4gatos.com",
      "instagram": null,
      "horario": "Mo-Su 08:30-16:00",
      "terraza": false,
      "musica": null,
      "fuente": "openstreetmap"
    },
    {
      "id": "osm_node_3475002575",
      "nombre": "Hannigan & Sons",
      "tipo": "pub",
      "lat": 37.1772162,
      "lon": -3.5978563,
      "direccion": "Calle Cetti Meriem 1",
      "codigo_postal": null,
      "telefono": "+34 958 224826",
      "web": null,
      "instagram": null,
      "horario": null,
      "terraza": false,
      "musica": null,
      "fuente": "openstreetmap"
    },
    {
      "id": "osm_node_3500778377",
      "nombre": "El Yantar de los Montes",
      "tipo": "pub",
      "lat": 37.1945698,
      "lon": -3.6114415,
      "direccion": null,
      "codigo_postal": null,
      "telefono": null,
      "web": null,
      "instagram": "https://www.instagram.com/elyantarmontes",
      "horario": null,
      "terraza": false,
      "musica": null,
      "fuente": "openstreetmap"
    },
    {
      "id": "osm_node_3500778379",
      "nombre": "Bar Alabriga",
      "tipo": "pub",
      "lat": 37.1954534,
      "lon": -3.6112854,
      "direccion": null,
      "codigo_postal": null,
      "telefono": null,
      "web": null,
      "instagram": null,
      "horario": null,
      "terraza": false,
      "musica": null,
      "fuente": "openstreetmap"
    },
    {
      "id": "osm_node_3523825776",
      "nombre": "Mume",
      "tipo": "cafe",
      "lat": 37.1703171,
      "lon": -3.6068761,
      "direccion": null,
      "codigo_postal": null,
      "telefono": null,
      "web": null,
      "instagram": null,
      "horario": null,
      "terraza": false,
      "musica": null,
      "fuente": "openstreetmap"
    },
    {
      "id": "osm_node_3523825777",
      "nombre": "Cafetería Parque García Lorca",
      "tipo": "cafe",
      "lat": 37.1707219,
      "lon": -3.6076191,
      "direccion": null,
      "codigo_postal": null,
      "telefono": null,
      "web": null,
      "instagram": null,
      "horario": null,
      "terraza": false,
      "musica": null,
      "fuente": "openstreetmap"
    },
    {
      "id": "osm_node_3523923621",
      "nombre": "Cafetería Moreno",
      "tipo": "cafe",
      "lat": 37.167586,
      "lon": -3.6056929,
      "direccion": null,
      "codigo_postal": null,
      "telefono": null,
      "web": null,
      "instagram": null,
      "horario": null,
      "terraza": false,
      "musica": null,
      "fuente": "openstreetmap"
    },
    {
      "id": "osm_node_3564243369",
      "nombre": "Tetería Assirat",
      "tipo": "cafe",
      "lat": 37.1778334,
      "lon": -3.5972763,
      "direccion": null,
      "codigo_postal": null,
      "telefono": null,
      "web": null,
      "instagram": null,
      "horario": null,
      "terraza": false,
      "musica": null,
      "fuente": "openstreetmap"
    },
    {
      "id": "osm_node_3579594926",
      "nombre": "El Bar de Eric",
      "tipo": "pub",
      "lat": 37.1779085,
      "lon": -3.601706,
      "direccion": "Calle Escuelas",
      "codigo_postal": null,
      "telefono": null,
      "web": null,
      "instagram": null,
      "horario": null,
      "terraza": true,
      "musica": null,
      "fuente": "openstreetmap"
    },
    {
      "id": "osm_node_3579594928",
      "nombre": "Café Bar Lucky",
      "tipo": "pub",
      "lat": 37.1763345,
      "lon": -3.6020859,
      "direccion": null,
      "codigo_postal": null,
      "telefono": null,
      "web": null,
      "instagram": null,
      "horario": null,
      "terraza": false,
      "musica": null,
      "fuente": "openstreetmap"
    },
    {
      "id": "osm_node_3579594929",
      "nombre": "Horno de Paquito",
      "tipo": "cafe",
      "lat": 37.1829122,
      "lon": -3.5911524,
      "direccion": null,
      "codigo_postal": null,
      "telefono": null,
      "web": null,
      "instagram": null,
      "horario": null,
      "terraza": true,
      "musica": null,
      "fuente": "openstreetmap"
    },
    {
      "id": "osm_node_3579594930",
      "nombre": "Kiki",
      "tipo": "pub",
      "lat": 37.181495,
      "lon": -3.5926561,
      "direccion": null,
      "codigo_postal": null,
      "telefono": null,
      "web": null,
      "instagram": null,
      "horario": null,
      "terraza": true,
      "musica": null,
      "fuente": "openstreetmap"
    },
    {
      "id": "osm_node_3579594931",
      "nombre": "Trinidad Plaza",
      "tipo": "pub",
      "lat": 37.1763795,
      "lon": -3.601898,
      "direccion": null,
      "codigo_postal": null,
      "telefono": null,
      "web": null,
      "instagram": null,
      "horario": null,
      "terraza": true,
      "musica": null,
      "fuente": "openstreetmap"
    },
    {
      "id": "osm_node_3579594932",
      "nombre": "Nueva Estación",
      "tipo": "cafe",
      "lat": 37.1709451,
      "lon": -3.6002099,
      "direccion": null,
      "codigo_postal": null,
      "telefono": null,
      "web": null,
      "instagram": null,
      "horario": null,
      "terraza": false,
      "musica": null,
      "fuente": "openstreetmap"
    },
    {
      "id": "osm_node_3622855374",
      "nombre": "El Rincón de los Reyes",
      "tipo": "cafe",
      "lat": 37.1789637,
      "lon": -3.6069865,
      "direccion": null,
      "codigo_postal": null,
      "telefono": null,
      "web": null,
      "instagram": null,
      "horario": null,
      "terraza": false,
      "musica": null,
      "fuente": "openstreetmap"
    },
    {
      "id": "osm_node_3693151427",
      "nombre": "Kiosko El Parke",
      "tipo": "pub",
      "lat": 37.1948307,
      "lon": -3.6253854,
      "direccion": null,
      "codigo_postal": null,
      "telefono": null,
      "web": null,
      "instagram": null,
      "horario": null,
      "terraza": false,
      "musica": null,
      "fuente": "openstreetmap"
    },
    {
      "id": "osm_node_3725190731",
      "nombre": "Taberna Malvasía",
      "tipo": "pub",
      "lat": 37.1727459,
      "lon": -3.5962939,
      "direccion": "Calle Virgen del Rosario 10",
      "codigo_postal": "18009",
      "telefono": null,
      "web": null,
      "instagram": null,
      "horario": null,
      "terraza": false,
      "musica": null,
      "fuente": "openstreetmap"
    },
    {
      "id": "osm_node_3734151525",
      "nombre": "Cebolla Palas",
      "tipo": "pub",
      "lat": 37.182656,
      "lon": -3.599229,
      "direccion": "Plaza de la Merced 9",
      "codigo_postal": "18010",
      "telefono": null,
      "web": null,
      "instagram": null,
      "horario": null,
      "terraza": true,
      "musica": null,
      "fuente": "openstreetmap"
    },
    {
      "id": "osm_node_3741085688",
      "nombre": "Atypica",
      "tipo": "cafe",
      "lat": 37.1816578,
      "lon": -3.6023941,
      "direccion": "Calle San Juan de Dios 48",
      "codigo_postal": "18001",
      "telefono": null,
      "web": "https://atypica.es",
      "instagram": null,
      "horario": "Mo-Sa 08:30-14:00, 17:00-21:30",
      "terraza": false,
      "musica": null,
      "fuente": "openstreetmap"
    },
    {
      "id": "osm_node_3754789226",
      "nombre": "El Cisne",
      "tipo": "pub",
      "lat": 37.1855637,
      "lon": -3.6105133,
      "direccion": "Calle Tórtola",
      "codigo_postal": null,
      "telefono": null,
      "web": null,
      "instagram": null,
      "horario": null,
      "terraza": false,
      "musica": null,
      "fuente": "openstreetmap"
    },
    {
      "id": "osm_node_3771831621",
      "nombre": "Terra Bar",
      "tipo": "cafe",
      "lat": 37.173318,
      "lon": -3.5938742,
      "direccion": null,
      "codigo_postal": null,
      "telefono": null,
      "web": null,
      "instagram": null,
      "horario": null,
      "terraza": false,
      "musica": null,
      "fuente": "openstreetmap"
    },
    {
      "id": "osm_node_3780638088",
      "nombre": "Contteo Pub",
      "tipo": "bar",
      "lat": 37.1755138,
      "lon": -3.6021055,
      "direccion": "Calle Buensuceso 5",
      "codigo_postal": "18002",
      "telefono": "+34 652 66 36 26;+34 683 57 20 30",
      "web": "https://contteo-pub.negocio.site",
      "instagram": null,
      "horario": "Th 18:00-03:00; Fr,Sa 17:00-04:00; Su 17:30-22:00",
      "terraza": false,
      "musica": null,
      "fuente": "openstreetmap"
    },
    {
      "id": "osm_node_3790107984",
      "nombre": "Taberna Andaluza",
      "tipo": "pub",
      "lat": 37.178029,
      "lon": -3.6082491,
      "direccion": "Calle Goya",
      "codigo_postal": "18002",
      "telefono": null,
      "web": null,
      "instagram": null,
      "horario": null,
      "terraza": true,
      "musica": null,
      "fuente": "openstreetmap"
    },
    {
      "id": "osm_node_3811371116",
      "nombre": "Café Goya",
      "tipo": "cafe",
      "lat": 37.1764379,
      "lon": -3.6016627,
      "direccion": null,
      "codigo_postal": null,
      "telefono": null,
      "web": null,
      "instagram": null,
      "horario": null,
      "terraza": false,
      "musica": null,
      "fuente": "openstreetmap"
    },
    {
      "id": "osm_node_3811371193",
      "nombre": "Casa de Todos",
      "tipo": "pub",
      "lat": 37.1768978,
      "lon": -3.5966525,
      "direccion": "Calle Pan 2",
      "codigo_postal": "18010",
      "telefono": "+34 958 25 80 62",
      "web": null,
      "instagram": null,
      "horario": null,
      "terraza": false,
      "musica": null,
      "fuente": "openstreetmap"
    },
    {
      "id": "osm_node_3811371659",
      "nombre": "Café La Cala",
      "tipo": "cafe",
      "lat": 37.1820376,
      "lon": -3.6023557,
      "direccion": null,
      "codigo_postal": null,
      "telefono": null,
      "web": null,
      "instagram": null,
      "horario": null,
      "terraza": false,
      "musica": null,
      "fuente": "openstreetmap"
    },
    {
      "id": "osm_node_3811372171",
      "nombre": "Gran Café Bib-Rambla",
      "tipo": "cafe",
      "lat": 37.174774,
      "lon": -3.5999033,
      "direccion": null,
      "codigo_postal": null,
      "telefono": null,
      "web": null,
      "instagram": null,
      "horario": "Nov-Feb: Mo-Su 08:00-22:00; Mar-Oct: Mo-Su 08:00-24:00",
      "terraza": true,
      "musica": null,
      "fuente": "openstreetmap"
    },
    {
      "id": "osm_node_3814376872",
      "nombre": "El Vecino de la Romanilla",
      "tipo": "bar",
      "lat": 37.1768592,
      "lon": -3.6005123,
      "direccion": "Plaza de la Romanilla",
      "codigo_postal": "18001",
      "telefono": null,
      "web": null,
      "instagram": null,
      "horario": null,
      "terraza": true,
      "musica": null,
      "fuente": "openstreetmap"
    },
    {
      "id": "osm_node_3887661607",
      "nombre": "Bar Los Diamantes",
      "tipo": "pub",
      "lat": 37.1737296,
      "lon": -3.5983333,
      "direccion": "Calle Navas 28",
      "codigo_postal": null,
      "telefono": "+34 958 227 070",
      "web": "http://www.barlosdiamantes.com",
      "instagram": null,
      "horario": null,
      "terraza": false,
      "musica": null,
      "fuente": "openstreetmap"
    },
    {
      "id": "osm_node_3915170618",
      "nombre": "Peshcador",
      "tipo": "pub",
      "lat": 37.174641,
      "lon": -3.5982232,
      "direccion": "Calle Lepanto 5",
      "codigo_postal": "18009",
      "telefono": null,
      "web": null,
      "instagram": null,
      "horario": "Tu-Sa 13:00-16:00, 20:00-00:00",
      "terraza": false,
      "musica": null,
      "fuente": "openstreetmap"
    },
    {
      "id": "osm_node_3919416660",
      "nombre": "Artesanos de Granada",
      "tipo": "cafe",
      "lat": 37.1765226,
      "lon": -3.5965416,
      "direccion": "Calle Reyes Católicos",
      "codigo_postal": null,
      "telefono": null,
      "web": null,
      "instagram": null,
      "horario": null,
      "terraza": false,
      "musica": null,
      "fuente": "openstreetmap"
    },
    {
      "id": "osm_node_3946090067",
      "nombre": "Cañakí",
      "tipo": "pub",
      "lat": 37.1579312,
      "lon": -3.6091326,
      "direccion": "Calle Mozárabe 1",
      "codigo_postal": "18006",
      "telefono": "+34 637 86 28 52",
      "web": "https://canaki-kiosko-bar.negocio.site",
      "instagram": null,
      "horario": "Fr 08:30-00:00; Sa 09:00-00:00; Su 08:30-17:00",
      "terraza": true,
      "musica": null,
      "fuente": "openstreetmap"
    },
    {
      "id": "osm_node_3946090068",
      "nombre": "El Buen Comer",
      "tipo": "bar",
      "lat": 37.1582587,
      "lon": -3.6080571,
      "direccion": null,
      "codigo_postal": null,
      "telefono": null,
      "web": null,
      "instagram": null,
      "horario": null,
      "terraza": false,
      "musica": null,
      "fuente": "openstreetmap"
    },
    {
      "id": "osm_node_3948827983",
      "nombre": "La Loca de Gandoca",
      "tipo": "pub",
      "lat": 37.1786653,
      "lon": -3.600336,
      "direccion": "Calle Santa Paula 19",
      "codigo_postal": null,
      "telefono": null,
      "web": null,
      "instagram": null,
      "horario": null,
      "terraza": false,
      "musica": null,
      "fuente": "openstreetmap"
    },
    {
      "id": "osm_node_4023787788",
      "nombre": "El Higo",
      "tipo": "pub",
      "lat": 37.1831007,
      "lon": -3.5926996,
      "direccion": "Calle Horno del Hoyo 17",
      "codigo_postal": "18010",
      "telefono": "+34 858 98 41 02",
      "web": null,
      "instagram": "https://www.instagram.com/elhigogranada",
      "horario": null,
      "terraza": false,
      "musica": null,
      "fuente": "openstreetmap"
    },
    {
      "id": "osm_node_4051787929",
      "nombre": "Churrería Los Martínez",
      "tipo": "cafe",
      "lat": 37.1891291,
      "lon": -3.6096144,
      "direccion": null,
      "codigo_postal": null,
      "telefono": null,
      "web": null,
      "instagram": null,
      "horario": null,
      "terraza": false,
      "musica": null,
      "fuente": "openstreetmap"
    },
    {
      "id": "osm_node_4051793792",
      "nombre": "Bar Lara 2",
      "tipo": "cafe",
      "lat": 37.1893171,
      "lon": -3.6101173,
      "direccion": null,
      "codigo_postal": null,
      "telefono": null,
      "web": null,
      "instagram": null,
      "horario": null,
      "terraza": false,
      "musica": null,
      "fuente": "openstreetmap"
    },
    {
      "id": "osm_node_4051802094",
      "nombre": "Cafe Bar La Penúltima",
      "tipo": "pub",
      "lat": 37.1907862,
      "lon": -3.6088901,
      "direccion": null,
      "codigo_postal": null,
      "telefono": null,
      "web": null,
      "instagram": null,
      "horario": null,
      "terraza": false,
      "musica": null,
      "fuente": "openstreetmap"
    },
    {
      "id": "osm_node_4051819356",
      "nombre": "Chaplin",
      "tipo": "cafe",
      "lat": 37.1896176,
      "lon": -3.6096238,
      "direccion": null,
      "codigo_postal": null,
      "telefono": null,
      "web": null,
      "instagram": null,
      "horario": null,
      "terraza": false,
      "musica": null,
      "fuente": "openstreetmap"
    },
    {
      "id": "osm_node_4051819357",
      "nombre": "Coliseo",
      "tipo": "cafe",
      "lat": 37.189548,
      "lon": -3.6096701,
      "direccion": "Calle Doctor Castroviejo",
      "codigo_postal": "18012",
      "telefono": null,
      "web": null,
      "instagram": null,
      "horario": "08:00-00:30",
      "terraza": false,
      "musica": null,
      "fuente": "openstreetmap"
    },
    {
      "id": "osm_node_4051820320",
      "nombre": "Bar Andalucía",
      "tipo": "pub",
      "lat": 37.190303,
      "lon": -3.6084999,
      "direccion": null,
      "codigo_postal": null,
      "telefono": null,
      "web": null,
      "instagram": null,
      "horario": null,
      "terraza": false,
      "musica": null,
      "fuente": "openstreetmap"
    },
    {
      "id": "osm_node_4051820323",
      "nombre": "Corazón Latino",
      "tipo": "bar",
      "lat": 37.1899066,
      "lon": -3.6089004,
      "direccion": null,
      "codigo_postal": null,
      "telefono": null,
      "web": null,
      "instagram": null,
      "horario": null,
      "terraza": false,
      "musica": null,
      "fuente": "openstreetmap"
    },
    {
      "id": "osm_node_4051820324",
      "nombre": "Bar Trastero",
      "tipo": "pub",
      "lat": 37.1899647,
      "lon": -3.6097974,
      "direccion": null,
      "codigo_postal": null,
      "telefono": null,
      "web": null,
      "instagram": null,
      "horario": null,
      "terraza": false,
      "musica": null,
      "fuente": "openstreetmap"
    },
    {
      "id": "osm_node_4051820326",
      "nombre": "Bar Bitácora",
      "tipo": "pub",
      "lat": 37.189961,
      "lon": -3.6090459,
      "direccion": null,
      "codigo_postal": null,
      "telefono": null,
      "web": null,
      "instagram": null,
      "horario": null,
      "terraza": false,
      "musica": null,
      "fuente": "openstreetmap"
    },
    {
      "id": "osm_node_4051829712",
      "nombre": "Bar Tapas D-Auto",
      "tipo": "pub",
      "lat": 37.1898124,
      "lon": -3.6097943,
      "direccion": null,
      "codigo_postal": null,
      "telefono": null,
      "web": null,
      "instagram": null,
      "horario": null,
      "terraza": false,
      "musica": null,
      "fuente": "openstreetmap"
    },
    {
      "id": "osm_node_4051829713",
      "nombre": "Churrería Cosmos",
      "tipo": "cafe",
      "lat": 37.1902561,
      "lon": -3.6104952,
      "direccion": null,
      "codigo_postal": null,
      "telefono": null,
      "web": null,
      "instagram": null,
      "horario": null,
      "terraza": false,
      "musica": null,
      "fuente": "openstreetmap"
    },
    {
      "id": "osm_node_4051829714",
      "nombre": "Churrería Saray",
      "tipo": "cafe",
      "lat": 37.1899388,
      "lon": -3.6106892,
      "direccion": null,
      "codigo_postal": null,
      "telefono": null,
      "web": null,
      "instagram": null,
      "horario": "PH,Mo-Su 07:30-12:30; Jan 01,Dec 25 off",
      "terraza": true,
      "musica": null,
      "fuente": "openstreetmap"
    },
    {
      "id": "osm_node_4051829715",
      "nombre": "El Nido del Búho",
      "tipo": "pub",
      "lat": 37.1898843,
      "lon": -3.609587,
      "direccion": null,
      "codigo_postal": null,
      "telefono": null,
      "web": null,
      "instagram": null,
      "horario": null,
      "terraza": true,
      "musica": null,
      "fuente": "openstreetmap"
    },
    {
      "id": "osm_node_4051829716",
      "nombre": "La Maestranza",
      "tipo": "pub",
      "lat": 37.1897773,
      "lon": -3.6085796,
      "direccion": "Calle Doctor Víctor Escribano 2",
      "codigo_postal": "18012",
      "telefono": null,
      "web": null,
      "instagram": null,
      "horario": null,
      "terraza": false,
      "musica": null,
      "fuente": "openstreetmap"
    },
    {
      "id": "osm_node_4051829717",
      "nombre": "Bar Los Pescadores",
      "tipo": "pub",
      "lat": 37.1899956,
      "lon": -3.6102665,
      "direccion": "Calle Doctor Pareja Yébenes 9",
      "codigo_postal": "18012",
      "telefono": null,
      "web": null,
      "instagram": null,
      "horario": null,
      "terraza": true,
      "musica": null,
      "fuente": "openstreetmap"
    },
    {
      "id": "osm_node_4061867695",
      "nombre": "Brasilia Plaza de Toros",
      "tipo": "cafe",
      "lat": 37.188962,
      "lon": -3.6086599,
      "direccion": "Calle Doctor Mesa Moles 2",
      "codigo_postal": "18012",
      "telefono": null,
      "web": "http://www.elbrasilia.com/",
      "instagram": null,
      "horario": null,
      "terraza": true,
      "musica": null,
      "fuente": "openstreetmap"
    },
    {
      "id": "osm_node_4068081062",
      "nombre": "Taberna La Tana",
      "tipo": "pub",
      "lat": 37.1727477,
      "lon": -3.5960907,
      "direccion": "Placeta del Agua 3",
      "codigo_postal": "18009",
      "telefono": null,
      "web": null,
      "instagram": null,
      "horario": null,
      "terraza": false,
      "musica": null,
      "fuente": "openstreetmap"
    },
    {
      "id": "osm_node_4102842089",
      "nombre": "Taberna El Vinillo",
      "tipo": "pub",
      "lat": 37.1764723,
      "lon": -3.6086946,
      "direccion": "Calle Pedro Antonio de Alarcón",
      "codigo_postal": "18002",
      "telefono": null,
      "web": null,
      "instagram": null,
      "horario": null,
      "terraza": true,
      "musica": null,
      "fuente": "openstreetmap"
    },
    {
      "id": "osm_node_4103191801",
      "nombre": "Bar Bambi",
      "tipo": "pub",
      "lat": 37.1798109,
      "lon": -3.6112506,
      "direccion": "Calle Pío Baroja 2",
      "codigo_postal": null,
      "telefono": null,
      "web": null,
      "instagram": null,
      "horario": null,
      "terraza": false,
      "musica": null,
      "fuente": "openstreetmap"
    },
    {
      "id": "osm_node_4103626700",
      "nombre": "La Chica de Ayer",
      "tipo": "pub",
      "lat": 37.170306,
      "lon": -3.6045589,
      "direccion": "Calle Pedro Antonio de Alarcón 18",
      "codigo_postal": null,
      "telefono": null,
      "web": null,
      "instagram": null,
      "horario": null,
      "terraza": false,
      "musica": null,
      "fuente": "openstreetmap"
    },
    {
      "id": "osm_node_4173241928",
      "nombre": "Continental Café Pub",
      "tipo": "cafe",
      "lat": 37.1743672,
      "lon": -3.605291,
      "direccion": "Calle Seminario 11",
      "codigo_postal": "18002",
      "telefono": null,
      "web": null,
      "instagram": "https://www.instagram.com/continentalgranada",
      "horario": "Mo-Su 16:00-02:00",
      "terraza": false,
      "musica": null,
      "fuente": "openstreetmap"
    },
    {
      "id": "osm_node_4184441089",
      "nombre": "Voolta",
      "tipo": "bar",
      "lat": 37.1741663,
      "lon": -3.6073488,
      "direccion": "Calle Pedro Antonio de Alarcón 59",
      "codigo_postal": "18002",
      "telefono": "+34 645 44 44 53",
      "web": null,
      "instagram": null,
      "horario": "Tu-Th 21:00-03:00; Fr,Su 16:00-03:00; Sa 16:00-04:00",
      "terraza": false,
      "musica": null,
      "fuente": "openstreetmap"
    },
    {
      "id": "osm_node_4225107389",
      "nombre": "Rompe Cabezas",
      "tipo": "pub",
      "lat": 37.1671708,
      "lon": -3.5995216,
      "direccion": null,
      "codigo_postal": null,
      "telefono": null,
      "web": null,
      "instagram": null,
      "horario": null,
      "terraza": false,
      "musica": null,
      "fuente": "openstreetmap"
    },
    {
      "id": "osm_node_4241266998",
      "nombre": "Con mucha miga",
      "tipo": "cafe",
      "lat": 37.1664248,
      "lon": -3.5948827,
      "direccion": "Calle Poeta Manuel de Góngora 9",
      "codigo_postal": null,
      "telefono": "+34 662 59 31 37",
      "web": "http://www.muchamiga.com",
      "instagram": "https://www.instagram.com/muchamiga_boulangerie",
      "horario": "Mo-Fr 07:30-14:00,16:00-20:30; PH,Sa,Su 09:00-14:00,16:00-20:30",
      "terraza": false,
      "musica": null,
      "fuente": "openstreetmap"
    },
    {
      "id": "osm_node_4241267012",
      "nombre": "Gioconda",
      "tipo": "cafe",
      "lat": 37.1649589,
      "lon": -3.5964433,
      "direccion": null,
      "codigo_postal": null,
      "telefono": null,
      "web": null,
      "instagram": null,
      "horario": null,
      "terraza": false,
      "musica": null,
      "fuente": "openstreetmap"
    },
    {
      "id": "osm_node_4251471093",
      "nombre": "Café Bar Lara",
      "tipo": "pub",
      "lat": 37.1806844,
      "lon": -3.5971355,
      "direccion": null,
      "codigo_postal": null,
      "telefono": null,
      "web": null,
      "instagram": null,
      "horario": null,
      "terraza": false,
      "musica": null,
      "fuente": "openstreetmap"
    },
    {
      "id": "osm_node_4269790496",
      "nombre": "El Tabernaculo",
      "tipo": "pub",
      "lat": 37.173689,
      "lon": -3.5984117,
      "direccion": null,
      "codigo_postal": null,
      "telefono": null,
      "web": null,
      "instagram": null,
      "horario": null,
      "terraza": false,
      "musica": null,
      "fuente": "openstreetmap"
    },
    {
      "id": "osm_node_4324773148",
      "nombre": "Bar Jaima",
      "tipo": "pub",
      "lat": 37.2083994,
      "lon": -3.6190279,
      "direccion": null,
      "codigo_postal": null,
      "telefono": null,
      "web": null,
      "instagram": null,
      "horario": null,
      "terraza": false,
      "musica": null,
      "fuente": "openstreetmap"
    },
    {
      "id": "osm_node_4361182189",
      "nombre": "Café Damasqueros",
      "tipo": "bar",
      "lat": 37.1737977,
      "lon": -3.5933418,
      "direccion": "Cuesta del Realejo 3",
      "codigo_postal": "18009",
      "telefono": null,
      "web": null,
      "instagram": null,
      "horario": null,
      "terraza": false,
      "musica": null,
      "fuente": "openstreetmap"
    },
    {
      "id": "osm_node_4377642695",
      "nombre": "La Finca Coffee",
      "tipo": "cafe",
      "lat": 37.1762068,
      "lon": -3.6001378,
      "direccion": "Calle Colegio Catalino 3",
      "codigo_postal": "18001",
      "telefono": null,
      "web": "https://lafincacoffee.webnode.es/",
      "instagram": null,
      "horario": "Mo-Su 09:00-19:00",
      "terraza": false,
      "musica": null,
      "fuente": "openstreetmap"
    },
    {
      "id": "osm_node_4382160789",
      "nombre": "Tetería Ábaco Té",
      "tipo": "cafe",
      "lat": 37.1785578,
      "lon": -3.5968356,
      "direccion": "Calle Álamo del Marqués 5",
      "codigo_postal": "18010",
      "telefono": "+34 958 99 57 88",
      "web": "https://abacote.com",
      "instagram": null,
      "horario": "We-Su 16:00-21:00",
      "terraza": false,
      "musica": null,
      "fuente": "openstreetmap"
    },
    {
      "id": "osm_node_4384815095",
      "nombre": "Ávila",
      "tipo": "pub",
      "lat": 37.1700208,
      "lon": -3.5990908,
      "direccion": "Calle Verónica de la Virgen 16",
      "codigo_postal": "18005",
      "telefono": null,
      "web": null,
      "instagram": null,
      "horario": null,
      "terraza": false,
      "musica": null,
      "fuente": "openstreetmap"
    },
    {
      "id": "osm_node_4414906319",
      "nombre": "Bernina 1930",
      "tipo": "cafe",
      "lat": 37.1766336,
      "lon": -3.5976478,
      "direccion": "Calle Almireceros 4",
      "codigo_postal": "18010",
      "telefono": null,
      "web": "https://www.bernina.es/",
      "instagram": null,
      "horario": "Su-Th 07:30-00:00; Fr-Sa 07:30-01:30",
      "terraza": true,
      "musica": null,
      "fuente": "openstreetmap"
    },
    {
      "id": "osm_node_4446619189",
      "nombre": "Cafetería Madrid",
      "tipo": "cafe",
      "lat": 37.184473,
      "lon": -3.6043483,
      "direccion": "Avenida de la Constitución 12",
      "codigo_postal": "18012",
      "telefono": "+34 958 27 57 03",
      "web": null,
      "instagram": null,
      "horario": "Mo-Fr 07:00-00:00; Sa-Su 08:00-00:00",
      "terraza": false,
      "musica": null,
      "fuente": "openstreetmap"
    },
    {
      "id": "osm_node_4446619190",
      "nombre": "Taberna Nico",
      "tipo": "bar",
      "lat": 37.1774209,
      "lon": -3.6086561,
      "direccion": "Calle Martínez de la Rosa 16",
      "codigo_postal": "18002",
      "telefono": null,
      "web": null,
      "instagram": null,
      "horario": "Mo-Su 12:00-02:00",
      "terraza": true,
      "musica": null,
      "fuente": "openstreetmap"
    },
    {
      "id": "osm_node_4458105590",
      "nombre": "Peña la Platería",
      "tipo": "pub",
      "lat": 37.1802139,
      "lon": -3.5903003,
      "direccion": "Placeta de Toqueros 7",
      "codigo_postal": "18010",
      "telefono": "+34 958 21 06 50",
      "web": "http://www.laplateria.org.es",
      "instagram": null,
      "horario": "We 13:00-16:00,20:00-24:00, Th-Su 13:00-24:00",
      "terraza": false,
      "musica": null,
      "fuente": "openstreetmap"
    },
    {
      "id": "osm_node_4464594990",
      "nombre": "La Genciana",
      "tipo": "cafe",
      "lat": 37.175031,
      "lon": -3.6048708,
      "direccion": null,
      "codigo_postal": null,
      "telefono": null,
      "web": null,
      "instagram": null,
      "horario": null,
      "terraza": false,
      "musica": null,
      "fuente": "openstreetmap"
    },
    {
      "id": "osm_node_4470287098",
      "nombre": "Pub Faragüi",
      "tipo": "bar",
      "lat": 37.1723236,
      "lon": -3.6143912,
      "direccion": null,
      "codigo_postal": null,
      "telefono": null,
      "web": null,
      "instagram": null,
      "horario": null,
      "terraza": false,
      "musica": null,
      "fuente": "openstreetmap"
    },
    {
      "id": "osm_node_4499968989",
      "nombre": "Rosario Varela",
      "tipo": "pub",
      "lat": 37.1728882,
      "lon": -3.5963634,
      "direccion": "Calle Varela 10",
      "codigo_postal": "18009",
      "telefono": "+34 958 21 52 75",
      "web": null,
      "instagram": null,
      "horario": "13:00-02:00",
      "terraza": false,
      "musica": null,
      "fuente": "openstreetmap"
    },
    {
      "id": "osm_node_4504548790",
      "nombre": "Mesón Rafa",
      "tipo": "pub",
      "lat": 37.1662769,
      "lon": -3.6020876,
      "direccion": "Calle Ribera del Genil",
      "codigo_postal": null,
      "telefono": null,
      "web": null,
      "instagram": null,
      "horario": null,
      "terraza": false,
      "musica": null,
      "fuente": "openstreetmap"
    },
    {
      "id": "osm_node_4505152364",
      "nombre": "La Taberna de Odín",
      "tipo": "pub",
      "lat": 37.1767597,
      "lon": -3.6081496,
      "direccion": "Calle Pintor López Mezquita",
      "codigo_postal": "18002",
      "telefono": null,
      "web": null,
      "instagram": null,
      "horario": null,
      "terraza": false,
      "musica": null,
      "fuente": "openstreetmap"
    },
    {
      "id": "osm_node_4561916640",
      "nombre": "Aro 21",
      "tipo": "pub",
      "lat": 37.159311,
      "lon": -3.60816,
      "direccion": null,
      "codigo_postal": null,
      "telefono": null,
      "web": null,
      "instagram": null,
      "horario": null,
      "terraza": false,
      "musica": null,
      "fuente": "openstreetmap"
    },
    {
      "id": "osm_node_4619375890",
      "nombre": "Six Colours",
      "tipo": "pub",
      "lat": 37.1783477,
      "lon": -3.6007535,
      "direccion": null,
      "codigo_postal": null,
      "telefono": "+34 958 20 39 95",
      "web": null,
      "instagram": null,
      "horario": null,
      "terraza": false,
      "musica": null,
      "fuente": "openstreetmap"
    },
    {
      "id": "osm_node_4690975390",
      "nombre": "Los Diamantes II",
      "tipo": "pub",
      "lat": 37.1726272,
      "lon": -3.596128,
      "direccion": "Calle Virgen del Rosario 2",
      "codigo_postal": "18009",
      "telefono": "+34 619 78 78 28",
      "web": "http://www.barlosdiamantes.com",
      "instagram": null,
      "horario": null,
      "terraza": false,
      "musica": null,
      "fuente": "openstreetmap"
    },
    {
      "id": "osm_node_4726721303",
      "nombre": "Patio Braserito",
      "tipo": "pub",
      "lat": 37.172977,
      "lon": -3.5965817,
      "direccion": "Calle Virgen del Rosario 7",
      "codigo_postal": "18009",
      "telefono": null,
      "web": null,
      "instagram": null,
      "horario": null,
      "terraza": false,
      "musica": null,
      "fuente": "openstreetmap"
    },
    {
      "id": "osm_node_4726722093",
      "nombre": "Café-Bar Nueva Central",
      "tipo": "pub",
      "lat": 37.17894,
      "lon": -3.6072329,
      "direccion": "Calle Profesor Motos Guirao 4",
      "codigo_postal": null,
      "telefono": "+34 958 07 97 34",
      "web": null,
      "instagram": null,
      "horario": null,
      "terraza": true,
      "musica": null,
      "fuente": "openstreetmap"
    },
    {
      "id": "osm_node_4789533123",
      "nombre": "Oteiza",
      "tipo": "cafe",
      "lat": 37.1782115,
      "lon": -3.5932264,
      "direccion": "Calle Carrera del Darro 25",
      "codigo_postal": "18010",
      "telefono": "+34 628 41 45 95",
      "web": null,
      "instagram": null,
      "horario": null,
      "terraza": false,
      "musica": null,
      "fuente": "openstreetmap"
    },
    {
      "id": "osm_node_4797098022",
      "nombre": "La Perla",
      "tipo": "cafe",
      "lat": 37.1764722,
      "lon": -3.5961803,
      "direccion": "Plaza Nueva",
      "codigo_postal": null,
      "telefono": null,
      "web": null,
      "instagram": null,
      "horario": null,
      "terraza": false,
      "musica": null,
      "fuente": "openstreetmap"
    },
    {
      "id": "osm_node_4928900121",
      "nombre": "Cafeteria las Flores",
      "tipo": "cafe",
      "lat": 37.1716314,
      "lon": -3.59144,
      "direccion": "Calle Molinos",
      "codigo_postal": null,
      "telefono": null,
      "web": null,
      "instagram": null,
      "horario": null,
      "terraza": false,
      "musica": null,
      "fuente": "openstreetmap"
    },
    {
      "id": "osm_node_4938859853",
      "nombre": "Paripé Cocktail bar",
      "tipo": "pub",
      "lat": 37.1727687,
      "lon": -3.598292,
      "direccion": "Calle Moras 2",
      "codigo_postal": "18009",
      "telefono": "+34 629423855",
      "web": "https://www.grupoparipe.com/",
      "instagram": null,
      "horario": "Mo-Su 16:00-03:00",
      "terraza": false,
      "musica": null,
      "fuente": "openstreetmap"
    },
    {
      "id": "osm_node_4938902742",
      "nombre": "Taberna El Aviso",
      "tipo": "pub",
      "lat": 37.172839,
      "lon": -3.5964614,
      "direccion": "Calle Virgen del Rosario 8",
      "codigo_postal": "18009",
      "telefono": "+34 649 85 55 75",
      "web": null,
      "instagram": null,
      "horario": "Tu-Sa 13:00-16:00,20:00-00:00; Su 13:00-16:00",
      "terraza": false,
      "musica": null,
      "fuente": "openstreetmap"
    },
    {
      "id": "osm_node_4939149499",
      "nombre": "El Conde",
      "tipo": "pub",
      "lat": 37.1726733,
      "lon": -3.5961932,
      "direccion": "Calle Virgen del Rosario 12",
      "codigo_postal": "18009",
      "telefono": "+34 958 05 06 28",
      "web": null,
      "instagram": null,
      "horario": "Tu-Sa 13:00-16:00,20:00-00:00; Mo 20:00-00:00",
      "terraza": false,
      "musica": null,
      "fuente": "openstreetmap"
    },
    {
      "id": "osm_node_4963571451",
      "nombre": "Café Bar Albaycín",
      "tipo": "cafe",
      "lat": 37.2049611,
      "lon": -3.5961885,
      "direccion": null,
      "codigo_postal": null,
      "telefono": null,
      "web": null,
      "instagram": null,
      "horario": null,
      "terraza": false,
      "musica": null,
      "fuente": "openstreetmap"
    },
    {
      "id": "osm_node_4991078820",
      "nombre": "Bar Pibe",
      "tipo": "pub",
      "lat": 37.1810468,
      "lon": -3.5865347,
      "direccion": null,
      "codigo_postal": null,
      "telefono": null,
      "web": null,
      "instagram": null,
      "horario": null,
      "terraza": false,
      "musica": null,
      "fuente": "openstreetmap"
    },
    {
      "id": "osm_node_5079589696",
      "nombre": "Rue de la Crêpe",
      "tipo": "cafe",
      "lat": 37.1781729,
      "lon": -3.6014901,
      "direccion": "Plaza de la Universidad 5",
      "codigo_postal": "18001",
      "telefono": "+34 676 35 00 04",
      "web": null,
      "instagram": null,
      "horario": "Mo-Fr 18:00-23:30",
      "terraza": false,
      "musica": null,
      "fuente": "openstreetmap"
    },
    {
      "id": "osm_node_5100014423",
      "nombre": "Bar Provincias",
      "tipo": "pub",
      "lat": 37.1756937,
      "lon": -3.6002749,
      "direccion": "Calle Provincias 4",
      "codigo_postal": "18001",
      "telefono": null,
      "web": "https://www.barprovincias.es/",
      "instagram": null,
      "horario": null,
      "terraza": false,
      "musica": null,
      "fuente": "openstreetmap"
    },
    {
      "id": "osm_node_5136054925",
      "nombre": "Masquevinos",
      "tipo": "pub",
      "lat": 37.1751633,
      "lon": -3.5987706,
      "direccion": "Calle Tundidores 10",
      "codigo_postal": "18001",
      "telefono": "+34 958 56 09 86",
      "web": "http://www.restaurantemasquevinos.es",
      "instagram": null,
      "horario": "Mo-Th 12:00-17:00; Mar-Sep: Fr-Sa 12:00-01:00; Su 12:00-00:00; Oct-Feb: Fr 12:00-17:00,20:00-01:00; Sa 12:00-01:00",
      "terraza": true,
      "musica": null,
      "fuente": "openstreetmap"
    },
    {
      "id": "osm_node_5156567121",
      "nombre": "Artesanas de Granada",
      "tipo": "cafe",
      "lat": 37.1780712,
      "lon": -3.6009426,
      "direccion": "Calle San Jerónimo 24",
      "codigo_postal": "18001",
      "telefono": "+34958276009",
      "web": null,
      "instagram": null,
      "horario": "Mo-Su 08:00-20:30",
      "terraza": false,
      "musica": null,
      "fuente": "openstreetmap"
    },
    {
      "id": "osm_node_5173146334",
      "nombre": "Mimimi",
      "tipo": "cafe",
      "lat": 37.1786966,
      "lon": -3.6069505,
      "direccion": "Pasaje Profesor Sainz Cantero 7",
      "codigo_postal": "18002",
      "telefono": "+34 615 03 35 41",
      "web": null,
      "instagram": null,
      "horario": "Tu 16:00-21:00; We-Su 09:30-21:00",
      "terraza": false,
      "musica": null,
      "fuente": "openstreetmap"
    },
    {
      "id": "osm_node_5173149422",
      "nombre": "La Fusión",
      "tipo": "pub",
      "lat": 37.1723234,
      "lon": -3.6046073,
      "direccion": "Calle Ancha de Gracia",
      "codigo_postal": "18002",
      "telefono": null,
      "web": null,
      "instagram": null,
      "horario": null,
      "terraza": false,
      "musica": null,
      "fuente": "openstreetmap"
    },
    {
      "id": "osm_node_5305230125",
      "nombre": "Lemon Rock",
      "tipo": "bar",
      "lat": 37.177021,
      "lon": -3.6039288,
      "direccion": null,
      "codigo_postal": null,
      "telefono": null,
      "web": null,
      "instagram": null,
      "horario": null,
      "terraza": false,
      "musica": null,
      "fuente": "openstreetmap"
    },
    {
      "id": "osm_node_5305259131",
      "nombre": "Baires",
      "tipo": "pub",
      "lat": 37.1782942,
      "lon": -3.6042929,
      "direccion": "Calle Gran Capitán",
      "codigo_postal": null,
      "telefono": null,
      "web": null,
      "instagram": null,
      "horario": null,
      "terraza": false,
      "musica": null,
      "fuente": "openstreetmap"
    },
    {
      "id": "osm_node_5305405326",
      "nombre": "Dancing coffee shop",
      "tipo": "cafe",
      "lat": 37.1781421,
      "lon": -3.6040011,
      "direccion": null,
      "codigo_postal": null,
      "telefono": null,
      "web": null,
      "instagram": null,
      "horario": null,
      "terraza": true,
      "musica": null,
      "fuente": "openstreetmap"
    },
    {
      "id": "osm_node_5305407821",
      "nombre": "El Cielo",
      "tipo": "pub",
      "lat": 37.1785119,
      "lon": -3.6037577,
      "direccion": null,
      "codigo_postal": null,
      "telefono": null,
      "web": null,
      "instagram": null,
      "horario": null,
      "terraza": false,
      "musica": null,
      "fuente": "openstreetmap"
    },
    {
      "id": "osm_node_5306932921",
      "nombre": "Caroca",
      "tipo": "bar",
      "lat": 37.1753993,
      "lon": -3.6003728,
      "direccion": "Plaza de Bib Rambla 12",
      "codigo_postal": null,
      "telefono": null,
      "web": "https://www.grupoparipe.com/caroca/",
      "instagram": null,
      "horario": "Mo-Su 14:30-02:00",
      "terraza": false,
      "musica": null,
      "fuente": "openstreetmap"
    },
    {
      "id": "osm_node_5307034324",
      "nombre": "Ibéricos & Alhambra",
      "tipo": "pub",
      "lat": 37.1756167,
      "lon": -3.6008316,
      "direccion": null,
      "codigo_postal": null,
      "telefono": null,
      "web": null,
      "instagram": null,
      "horario": null,
      "terraza": false,
      "musica": null,
      "fuente": "openstreetmap"
    },
    {
      "id": "osm_node_5307043924",
      "nombre": "Monje",
      "tipo": "pub",
      "lat": 37.1757826,
      "lon": -3.6004476,
      "direccion": null,
      "codigo_postal": null,
      "telefono": null,
      "web": null,
      "instagram": null,
      "horario": null,
      "terraza": false,
      "musica": null,
      "fuente": "openstreetmap"
    },
    {
      "id": "osm_node_5307044025",
      "nombre": "Reca",
      "tipo": "pub",
      "lat": 37.176413,
      "lon": -3.6017599,
      "direccion": null,
      "codigo_postal": null,
      "telefono": null,
      "web": null,
      "instagram": null,
      "horario": null,
      "terraza": false,
      "musica": null,
      "fuente": "openstreetmap"
    },
    {
      "id": "osm_node_5308241129",
      "nombre": "Pennsylvania",
      "tipo": "pub",
      "lat": 37.177175,
      "lon": -3.6035584,
      "direccion": null,
      "codigo_postal": null,
      "telefono": null,
      "web": null,
      "instagram": null,
      "horario": null,
      "terraza": false,
      "musica": null,
      "fuente": "openstreetmap"
    },
    {
      "id": "osm_node_5308254423",
      "nombre": "Bar Luna",
      "tipo": "pub",
      "lat": 37.1756944,
      "lon": -3.607243,
      "direccion": null,
      "codigo_postal": null,
      "telefono": null,
      "web": null,
      "instagram": null,
      "horario": null,
      "terraza": false,
      "musica": null,
      "fuente": "openstreetmap"
    },
    {
      "id": "osm_node_5309183322",
      "nombre": "Blus",
      "tipo": "bar",
      "lat": 37.1770917,
      "lon": -3.604276,
      "direccion": null,
      "codigo_postal": null,
      "telefono": null,
      "web": null,
      "instagram": null,
      "horario": null,
      "terraza": false,
      "musica": null,
      "fuente": "openstreetmap"
    },
    {
      "id": "osm_node_5309183324",
      "nombre": "Catedral",
      "tipo": "pub",
      "lat": 37.1757379,
      "lon": -3.6001757,
      "direccion": null,
      "codigo_postal": null,
      "telefono": null,
      "web": null,
      "instagram": null,
      "horario": null,
      "terraza": false,
      "musica": null,
      "fuente": "openstreetmap"
    },
    {
      "id": "osm_node_5309798329",
      "nombre": "Bohemia Jazz Café",
      "tipo": "pub",
      "lat": 37.1772269,
      "lon": -3.6034339,
      "direccion": "Plaza de los Lobos 11",
      "codigo_postal": "18002",
      "telefono": null,
      "web": "https://www.bohemiajazzcafe.com/",
      "instagram": null,
      "horario": null,
      "terraza": false,
      "musica": null,
      "fuente": "openstreetmap"
    },
    {
      "id": "osm_node_5309798330",
      "nombre": "Las Buenas Juntas",
      "tipo": "pub",
      "lat": 37.1755393,
      "lon": -3.6076455,
      "direccion": "Calle Pedro Antonio de Alarcón",
      "codigo_postal": null,
      "telefono": null,
      "web": null,
      "instagram": null,
      "horario": null,
      "terraza": false,
      "musica": null,
      "fuente": "openstreetmap"
    },
    {
      "id": "osm_node_5309809121",
      "nombre": "Palo Cortao",
      "tipo": "pub",
      "lat": 37.1769692,
      "lon": -3.6045512,
      "direccion": null,
      "codigo_postal": null,
      "telefono": null,
      "web": null,
      "instagram": null,
      "horario": null,
      "terraza": false,
      "musica": null,
      "fuente": "openstreetmap"
    },
    {
      "id": "osm_node_5310930122",
      "nombre": "Bahía",
      "tipo": "pub",
      "lat": 37.1766367,
      "lon": -3.6025689,
      "direccion": null,
      "codigo_postal": null,
      "telefono": null,
      "web": null,
      "instagram": null,
      "horario": null,
      "terraza": false,
      "musica": null,
      "fuente": "openstreetmap"
    },
    {
      "id": "osm_node_5310930322",
      "nombre": "Marqués de Gerona",
      "tipo": "cafe",
      "lat": 37.1756598,
      "lon": -3.6007097,
      "direccion": null,
      "codigo_postal": null,
      "telefono": null,
      "web": null,
      "instagram": null,
      "horario": null,
      "terraza": false,
      "musica": null,
      "fuente": "openstreetmap"
    },
    {
      "id": "osm_node_5310930825",
      "nombre": "La Clausura",
      "tipo": "pub",
      "lat": 37.1769903,
      "lon": -3.6026622,
      "direccion": null,
      "codigo_postal": null,
      "telefono": "+34 958 208 710",
      "web": null,
      "instagram": null,
      "horario": null,
      "terraza": true,
      "musica": null,
      "fuente": "openstreetmap"
    },
    {
      "id": "osm_node_5312233621",
      "nombre": "Los Caños",
      "tipo": "pub",
      "lat": 37.1769336,
      "lon": -3.5969748,
      "direccion": null,
      "codigo_postal": null,
      "telefono": null,
      "web": null,
      "instagram": null,
      "horario": null,
      "terraza": false,
      "musica": null,
      "fuente": "openstreetmap"
    },
    {
      "id": "osm_node_5336819822",
      "nombre": "Casanova",
      "tipo": "pub",
      "lat": 37.1701264,
      "lon": -3.5963443,
      "direccion": null,
      "codigo_postal": null,
      "telefono": null,
      "web": null,
      "instagram": null,
      "horario": null,
      "terraza": true,
      "musica": null,
      "fuente": "openstreetmap"
    },
    {
      "id": "osm_node_5336820322",
      "nombre": "La Antigualla",
      "tipo": "bar",
      "lat": 37.1764303,
      "lon": -3.5942043,
      "direccion": null,
      "codigo_postal": null,
      "telefono": null,
      "web": null,
      "instagram": null,
      "horario": null,
      "terraza": false,
      "musica": null,
      "fuente": "openstreetmap"
    },
    {
      "id": "osm_node_5387472023",
      "nombre": "Eshavira Club",
      "tipo": "bar",
      "lat": 37.1802896,
      "lon": -3.5993971,
      "direccion": "Calle Postigo de la Cuna 2",
      "codigo_postal": null,
      "telefono": null,
      "web": "https://eshaviraclub.wordpress.com",
      "instagram": null,
      "horario": null,
      "terraza": false,
      "musica": null,
      "fuente": "openstreetmap"
    },
    {
      "id": "osm_node_5433568608",
      "nombre": "Llevate Cafe",
      "tipo": "cafe",
      "lat": 37.1831187,
      "lon": -3.593323,
      "direccion": null,
      "codigo_postal": null,
      "telefono": null,
      "web": null,
      "instagram": null,
      "horario": null,
      "terraza": false,
      "musica": null,
      "fuente": "openstreetmap"
    },
    {
      "id": "osm_node_5512005522",
      "nombre": "Capitán Amargo",
      "tipo": "pub",
      "lat": 37.1727275,
      "lon": -3.592686,
      "direccion": "Calle Molinos",
      "codigo_postal": null,
      "telefono": null,
      "web": null,
      "instagram": null,
      "horario": "Mo-Th 17:00-02:00; Fr-Sa 17:00-03:00",
      "terraza": false,
      "musica": null,
      "fuente": "openstreetmap"
    },
    {
      "id": "osm_node_5512023023",
      "nombre": "PlaymobilClub",
      "tipo": "bar",
      "lat": 37.1747779,
      "lon": -3.6076567,
      "direccion": null,
      "codigo_postal": null,
      "telefono": null,
      "web": null,
      "instagram": null,
      "horario": "Mo-Su 22:00-06:00",
      "terraza": false,
      "musica": null,
      "fuente": "openstreetmap"
    },
    {
      "id": "osm_node_5512035021",
      "nombre": "Pata Palo",
      "tipo": "bar",
      "lat": 37.1816048,
      "lon": -3.5998994,
      "direccion": null,
      "codigo_postal": null,
      "telefono": null,
      "web": null,
      "instagram": null,
      "horario": null,
      "terraza": false,
      "musica": null,
      "fuente": "openstreetmap"
    },
    {
      "id": "osm_node_5606790521",
      "nombre": "Tantra",
      "tipo": "bar",
      "lat": 37.1783162,
      "lon": -3.5984866,
      "direccion": null,
      "codigo_postal": null,
      "telefono": null,
      "web": null,
      "instagram": null,
      "horario": null,
      "terraza": false,
      "musica": null,
      "fuente": "openstreetmap"
    },
    {
      "id": "osm_node_5609572623",
      "nombre": "Los Infantes",
      "tipo": "cafe",
      "lat": 37.1579889,
      "lon": -3.5874722,
      "direccion": null,
      "codigo_postal": null,
      "telefono": null,
      "web": null,
      "instagram": null,
      "horario": null,
      "terraza": false,
      "musica": null,
      "fuente": "openstreetmap"
    },
    {
      "id": "osm_node_5609573721",
      "nombre": "Entresuelo",
      "tipo": "bar",
      "lat": 37.1776992,
      "lon": -3.5999725,
      "direccion": "Plaza de San Agustín 2",
      "codigo_postal": "18002",
      "telefono": null,
      "web": "http://entresuelogranada.blogspot.com/",
      "instagram": null,
      "horario": null,
      "terraza": false,
      "musica": null,
      "fuente": "openstreetmap"
    },
    {
      "id": "osm_node_5627305922",
      "nombre": "El Mentidero",
      "tipo": "bar",
      "lat": 37.1736904,
      "lon": -3.5978927,
      "direccion": null,
      "codigo_postal": null,
      "telefono": null,
      "web": null,
      "instagram": null,
      "horario": null,
      "terraza": false,
      "musica": null,
      "fuente": "openstreetmap"
    },
    {
      "id": "osm_node_5638681931",
      "nombre": "Magic",
      "tipo": "pub",
      "lat": 37.1892974,
      "lon": -3.6072576,
      "direccion": "Avenida Doctor Olóriz 25",
      "codigo_postal": "18012",
      "telefono": "+34 958 28 14 51",
      "web": null,
      "instagram": null,
      "horario": null,
      "terraza": false,
      "musica": null,
      "fuente": "openstreetmap"
    },
    {
      "id": "osm_node_5703392421",
      "nombre": "El Trastero",
      "tipo": "pub",
      "lat": 37.168407,
      "lon": -3.6026027,
      "direccion": null,
      "codigo_postal": null,
      "telefono": null,
      "web": null,
      "instagram": null,
      "horario": null,
      "terraza": false,
      "musica": null,
      "fuente": "openstreetmap"
    },
    {
      "id": "osm_node_5717808549",
      "nombre": "El Ojú",
      "tipo": "pub",
      "lat": 37.172016,
      "lon": -3.6036701,
      "direccion": "Calle General Narváez 4",
      "codigo_postal": "18002",
      "telefono": null,
      "web": null,
      "instagram": null,
      "horario": "Mo-Sa 14:30-16:30, 20:30-00:00",
      "terraza": false,
      "musica": null,
      "fuente": "openstreetmap"
    },
    {
      "id": "osm_node_5717843562",
      "nombre": "El Tablón Verde",
      "tipo": "cafe",
      "lat": 37.1826933,
      "lon": -3.6038077,
      "direccion": "Calle Santa Bárbara 9",
      "codigo_postal": "18001",
      "telefono": null,
      "web": null,
      "instagram": null,
      "horario": "Tu-Su 09:00-00:00",
      "terraza": false,
      "musica": null,
      "fuente": "openstreetmap"
    },
    {
      "id": "osm_node_5731173285",
      "nombre": "La Huerta de Lorca",
      "tipo": "pub",
      "lat": 37.1725169,
      "lon": -3.6103684,
      "direccion": null,
      "codigo_postal": null,
      "telefono": null,
      "web": null,
      "instagram": null,
      "horario": "Mo-Su 19:30+ \"summer\"",
      "terraza": true,
      "musica": null,
      "fuente": "openstreetmap"
    },
    {
      "id": "osm_node_5735266725",
      "nombre": "Dulce y Salado",
      "tipo": "cafe",
      "lat": 37.1716004,
      "lon": -3.6041461,
      "direccion": "Calle Martínez Campos 20",
      "codigo_postal": "18002",
      "telefono": "+34 858 810 585",
      "web": "https://cafeteriadulceysalado.es/",
      "instagram": null,
      "horario": "Mo-Su 06:30-23:00",
      "terraza": false,
      "musica": null,
      "fuente": "openstreetmap"
    },
    {
      "id": "osm_node_5804495641",
      "nombre": "El Dintel",
      "tipo": "bar",
      "lat": 37.1829225,
      "lon": -3.6033187,
      "direccion": "Calle Acera del Triunfo",
      "codigo_postal": "18001",
      "telefono": null,
      "web": null,
      "instagram": null,
      "horario": null,
      "terraza": false,
      "musica": null,
      "fuente": "openstreetmap"
    },
    {
      "id": "osm_node_5806965404",
      "nombre": "El Jaro",
      "tipo": "cafe",
      "lat": 37.1848734,
      "lon": -3.608626,
      "direccion": "Avenida de Andaluces",
      "codigo_postal": "18014",
      "telefono": null,
      "web": null,
      "instagram": null,
      "horario": null,
      "terraza": true,
      "musica": null,
      "fuente": "openstreetmap"
    },
    {
      "id": "osm_node_5827706920",
      "nombre": "Mesón Yerbabuena",
      "tipo": "pub",
      "lat": 37.1892758,
      "lon": -3.6191322,
      "direccion": null,
      "codigo_postal": null,
      "telefono": null,
      "web": null,
      "instagram": null,
      "horario": null,
      "terraza": false,
      "musica": null,
      "fuente": "openstreetmap"
    },
    {
      "id": "osm_node_5882781106",
      "nombre": "Tetería El Bañuelo",
      "tipo": "cafe",
      "lat": 37.1787324,
      "lon": -3.593094,
      "direccion": "Calle Bañuelo 5",
      "codigo_postal": "18010",
      "telefono": "+34 666 026 378",
      "web": null,
      "instagram": null,
      "horario": null,
      "terraza": true,
      "musica": null,
      "fuente": "openstreetmap"
    },
    {
      "id": "osm_node_5899121787",
      "nombre": "Tanji Granada",
      "tipo": "pub",
      "lat": 37.1755872,
      "lon": -3.6043593,
      "direccion": "Calle Obispo Hurtado 4",
      "codigo_postal": null,
      "telefono": null,
      "web": null,
      "instagram": null,
      "horario": null,
      "terraza": false,
      "musica": null,
      "fuente": "openstreetmap"
    },
    {
      "id": "osm_node_5899231786",
      "nombre": "Taberna Catavinos",
      "tipo": "pub",
      "lat": 37.1742916,
      "lon": -3.6043612,
      "direccion": "Calle San Miguel Alta 37",
      "codigo_postal": null,
      "telefono": null,
      "web": null,
      "instagram": null,
      "horario": null,
      "terraza": false,
      "musica": null,
      "fuente": "openstreetmap"
    },
    {
      "id": "osm_node_5899506971",
      "nombre": "Alhambra",
      "tipo": "cafe",
      "lat": 37.1747158,
      "lon": -3.5996217,
      "direccion": "Plaza de Bib-Rambla 27",
      "codigo_postal": "18001",
      "telefono": "+34 958 52 39 29",
      "web": "https://cafeteria-alhambra.com/",
      "instagram": null,
      "horario": null,
      "terraza": true,
      "musica": null,
      "fuente": "openstreetmap"
    },
    {
      "id": "osm_node_5901646085",
      "nombre": "La Gran Taberna",
      "tipo": "bar",
      "lat": 37.1766322,
      "lon": -3.5958876,
      "direccion": null,
      "codigo_postal": null,
      "telefono": null,
      "web": null,
      "instagram": null,
      "horario": null,
      "terraza": false,
      "musica": null,
      "fuente": "openstreetmap"
    },
    {
      "id": "osm_node_5909784785",
      "nombre": "Las Niñas",
      "tipo": "bar",
      "lat": 37.1729905,
      "lon": -3.5925687,
      "direccion": null,
      "codigo_postal": null,
      "telefono": null,
      "web": null,
      "instagram": null,
      "horario": null,
      "terraza": true,
      "musica": null,
      "fuente": "openstreetmap"
    },
    {
      "id": "osm_node_5918025885",
      "nombre": "Gelatería La Campana",
      "tipo": "cafe",
      "lat": 37.1730665,
      "lon": -3.6042696,
      "direccion": "Plaza de Gracia 7",
      "codigo_postal": "18002",
      "telefono": null,
      "web": null,
      "instagram": null,
      "horario": null,
      "terraza": false,
      "musica": null,
      "fuente": "openstreetmap"
    },
    {
      "id": "osm_node_5970825412",
      "nombre": "Cafetería Churrería Dorian",
      "tipo": "cafe",
      "lat": 37.1687161,
      "lon": -3.5998396,
      "direccion": "Calle Abu Isaac 2",
      "codigo_postal": "18005",
      "telefono": null,
      "web": null,
      "instagram": null,
      "horario": null,
      "terraza": false,
      "musica": null,
      "fuente": "openstreetmap"
    },
    {
      "id": "osm_node_5980341021",
      "nombre": "Café Pub Amsterdam",
      "tipo": "bar",
      "lat": 37.1741409,
      "lon": -3.6070204,
      "direccion": "Calle Pedro Antonio de Alarcón 52",
      "codigo_postal": "18002",
      "telefono": "+34 958 26 63 68",
      "web": null,
      "instagram": null,
      "horario": null,
      "terraza": false,
      "musica": null,
      "fuente": "openstreetmap"
    },
    {
      "id": "osm_node_5988802786",
      "nombre": "Gran Capitán",
      "tipo": "cafe",
      "lat": 37.1768275,
      "lon": -3.6056347,
      "direccion": null,
      "codigo_postal": null,
      "telefono": null,
      "web": null,
      "instagram": null,
      "horario": null,
      "terraza": true,
      "musica": null,
      "fuente": "openstreetmap"
    },
    {
      "id": "osm_node_5988834886",
      "nombre": "Bar Las Rejas",
      "tipo": "pub",
      "lat": 37.1746044,
      "lon": -3.6036005,
      "direccion": null,
      "codigo_postal": null,
      "telefono": null,
      "web": null,
      "instagram": null,
      "horario": null,
      "terraza": false,
      "musica": null,
      "fuente": "openstreetmap"
    },
    {
      "id": "osm_node_5988996985",
      "nombre": "La Esquina",
      "tipo": "pub",
      "lat": 37.1744966,
      "lon": -3.6074871,
      "direccion": "Calle Pedro Antonio de Alarcón",
      "codigo_postal": null,
      "telefono": null,
      "web": null,
      "instagram": null,
      "horario": null,
      "terraza": true,
      "musica": null,
      "fuente": "openstreetmap"
    },
    {
      "id": "osm_node_5988996986",
      "nombre": "Frankfurt's Bocanegra",
      "tipo": "pub",
      "lat": 37.1743138,
      "lon": -3.6071263,
      "direccion": "Calle Pedro Antonio de Alarcón",
      "codigo_postal": null,
      "telefono": null,
      "web": null,
      "instagram": null,
      "horario": "Su-Th 12:00-03:00, Fr,Sa 12:00-04:00",
      "terraza": false,
      "musica": null,
      "fuente": "openstreetmap"
    },
    {
      "id": "osm_node_5988996987",
      "nombre": "Cámara",
      "tipo": "cafe",
      "lat": 37.1736763,
      "lon": -3.6069961,
      "direccion": "Calle Pedro Antonio de Alarcón",
      "codigo_postal": "18002",
      "telefono": null,
      "web": null,
      "instagram": null,
      "horario": null,
      "terraza": false,
      "musica": null,
      "fuente": "openstreetmap"
    },
    {
      "id": "osm_node_5988997185",
      "nombre": "El Reventón",
      "tipo": "pub",
      "lat": 37.1747939,
      "lon": -3.6072714,
      "direccion": "Calle Sócrates",
      "codigo_postal": "18002",
      "telefono": null,
      "web": null,
      "instagram": null,
      "horario": null,
      "terraza": false,
      "musica": null,
      "fuente": "openstreetmap"
    },
    {
      "id": "osm_node_5988997385",
      "nombre": "Titapaca",
      "tipo": "pub",
      "lat": 37.1745191,
      "lon": -3.6072498,
      "direccion": "Calle Pedro Antonio de Alarcón",
      "codigo_postal": "18002",
      "telefono": null,
      "web": null,
      "instagram": null,
      "horario": null,
      "terraza": false,
      "musica": null,
      "fuente": "openstreetmap"
    },
    {
      "id": "osm_node_5988997386",
      "nombre": "Tole's Plaza",
      "tipo": "pub",
      "lat": 37.1742028,
      "lon": -3.6058726,
      "direccion": "Plaza de Menorca",
      "codigo_postal": "18002",
      "telefono": null,
      "web": null,
      "instagram": null,
      "horario": null,
      "terraza": false,
      "musica": null,
      "fuente": "openstreetmap"
    },
    {
      "id": "osm_node_5989003293",
      "nombre": "Reverso",
      "tipo": "cafe",
      "lat": 37.1751622,
      "lon": -3.6031383,
      "direccion": null,
      "codigo_postal": null,
      "telefono": null,
      "web": null,
      "instagram": null,
      "horario": null,
      "terraza": false,
      "musica": null,
      "fuente": "openstreetmap"
    },
    {
      "id": "osm_node_5989003490",
      "nombre": "Undiqus",
      "tipo": "cafe",
      "lat": 37.1752221,
      "lon": -3.603373,
      "direccion": null,
      "codigo_postal": null,
      "telefono": null,
      "web": null,
      "instagram": null,
      "horario": "Mo-Sa 10:00-14:00; Mo-Fr 17:30-20:30",
      "terraza": false,
      "musica": null,
      "fuente": "openstreetmap"
    },
    {
      "id": "osm_node_5989003495",
      "nombre": "El Asturiano",
      "tipo": "pub",
      "lat": 37.1742746,
      "lon": -3.602954,
      "direccion": null,
      "codigo_postal": null,
      "telefono": "+34 630 27 89 03",
      "web": null,
      "instagram": null,
      "horario": null,
      "terraza": true,
      "musica": null,
      "fuente": "openstreetmap"
    },
    {
      "id": "osm_node_5989076585",
      "nombre": "Puentezuelas 43",
      "tipo": "cafe",
      "lat": 37.1746572,
      "lon": -3.6027883,
      "direccion": "Calle Puentezuelas 43",
      "codigo_postal": null,
      "telefono": null,
      "web": null,
      "instagram": null,
      "horario": null,
      "terraza": false,
      "musica": null,
      "fuente": "openstreetmap"
    },
    {
      "id": "osm_node_5991688086",
      "nombre": "Pannonia",
      "tipo": "cafe",
      "lat": 37.1735833,
      "lon": -3.605159,
      "direccion": null,
      "codigo_postal": null,
      "telefono": "+34 605 03 50 25",
      "web": null,
      "instagram": null,
      "horario": null,
      "terraza": false,
      "musica": null,
      "fuente": "openstreetmap"
    },
    {
      "id": "osm_node_5991690886",
      "nombre": "El Rinconcillo",
      "tipo": "pub",
      "lat": 37.1716284,
      "lon": -3.6054893,
      "direccion": "Calle Pedro Antonio de Alarcón",
      "codigo_postal": null,
      "telefono": null,
      "web": null,
      "instagram": null,
      "horario": null,
      "terraza": true,
      "musica": null,
      "fuente": "openstreetmap"
    },
    {
      "id": "osm_node_5991700285",
      "nombre": "Pub Nighttrain",
      "tipo": "bar",
      "lat": 37.1744407,
      "lon": -3.6056048,
      "direccion": "Calle Obispo Hurtado 15",
      "codigo_postal": "18002",
      "telefono": "+34 610 35 57 35",
      "web": null,
      "instagram": null,
      "horario": null,
      "terraza": false,
      "musica": null,
      "fuente": "openstreetmap"
    },
    {
      "id": "osm_node_5994080786",
      "nombre": "Lion",
      "tipo": "bar",
      "lat": 37.1730079,
      "lon": -3.5985462,
      "direccion": "Calle Ángel Ganivet",
      "codigo_postal": "18009",
      "telefono": null,
      "web": null,
      "instagram": null,
      "horario": null,
      "terraza": true,
      "musica": null,
      "fuente": "openstreetmap"
    },
    {
      "id": "osm_node_5994131092",
      "nombre": "Párraga Tres",
      "tipo": "pub",
      "lat": 37.173254,
      "lon": -3.6005907,
      "direccion": "Calle Párraga 3",
      "codigo_postal": "18002",
      "telefono": null,
      "web": null,
      "instagram": null,
      "horario": null,
      "terraza": false,
      "musica": null,
      "fuente": "openstreetmap"
    },
    {
      "id": "osm_node_5994158385",
      "nombre": "La Mar Salá",
      "tipo": "cafe",
      "lat": 37.1736721,
      "lon": -3.6002129,
      "direccion": null,
      "codigo_postal": null,
      "telefono": null,
      "web": null,
      "instagram": null,
      "horario": null,
      "terraza": false,
      "musica": null,
      "fuente": "openstreetmap"
    },
    {
      "id": "osm_node_5994185885",
      "nombre": "La Abacería",
      "tipo": "bar",
      "lat": 37.1729729,
      "lon": -3.5984613,
      "direccion": "Calle Ángel Ganivet",
      "codigo_postal": "18009",
      "telefono": null,
      "web": null,
      "instagram": null,
      "horario": null,
      "terraza": true,
      "musica": null,
      "fuente": "openstreetmap"
    },
    {
      "id": "osm_node_5994204411",
      "nombre": "Casa Enrique",
      "tipo": "pub",
      "lat": 37.1727795,
      "lon": -3.5996818,
      "direccion": null,
      "codigo_postal": null,
      "telefono": null,
      "web": null,
      "instagram": null,
      "horario": null,
      "terraza": false,
      "musica": null,
      "fuente": "openstreetmap"
    },
    {
      "id": "osm_node_5994259095",
      "nombre": "Le Blanc Shisha Lounge",
      "tipo": "bar",
      "lat": 37.1721326,
      "lon": -3.6051859,
      "direccion": null,
      "codigo_postal": null,
      "telefono": null,
      "web": null,
      "instagram": null,
      "horario": null,
      "terraza": false,
      "musica": null,
      "fuente": "openstreetmap"
    },
    {
      "id": "osm_node_5994259096",
      "nombre": "La Sitarilla",
      "tipo": "pub",
      "lat": 37.1733955,
      "lon": -3.6036013,
      "direccion": "Calle San Miguel Alta",
      "codigo_postal": null,
      "telefono": null,
      "web": null,
      "instagram": null,
      "horario": null,
      "terraza": false,
      "musica": null,
      "fuente": "openstreetmap"
    },
    {
      "id": "osm_node_5994263588",
      "nombre": "Achilipú",
      "tipo": "pub",
      "lat": 37.1715704,
      "lon": -3.6043453,
      "direccion": "Calle Martínez Campos",
      "codigo_postal": "18002",
      "telefono": null,
      "web": null,
      "instagram": null,
      "horario": null,
      "terraza": false,
      "musica": null,
      "fuente": "openstreetmap"
    },
    {
      "id": "osm_node_5996210585",
      "nombre": "Esmeralda",
      "tipo": "cafe",
      "lat": 37.1727212,
      "lon": -3.6036099,
      "direccion": null,
      "codigo_postal": null,
      "telefono": null,
      "web": null,
      "instagram": null,
      "horario": null,
      "terraza": false,
      "musica": null,
      "fuente": "openstreetmap"
    },
    {
      "id": "osm_node_5996215485",
      "nombre": "La Qarmita Cafebreria",
      "tipo": "cafe",
      "lat": 37.1728913,
      "lon": -3.6026366,
      "direccion": "Calle Águila 20",
      "codigo_postal": "18002",
      "telefono": "+34 958 26 48 55",
      "web": "https://laqarmita.es",
      "instagram": "@laqarmita",
      "horario": "Mo-Su,PH 08:00-00:00",
      "terraza": true,
      "musica": null,
      "fuente": "openstreetmap"
    },
    {
      "id": "osm_node_5996222585",
      "nombre": "Macondo",
      "tipo": "pub",
      "lat": 37.1723858,
      "lon": -3.6029857,
      "direccion": null,
      "codigo_postal": null,
      "telefono": null,
      "web": null,
      "instagram": null,
      "horario": null,
      "terraza": false,
      "musica": null,
      "fuente": "openstreetmap"
    },
    {
      "id": "osm_node_6031984585",
      "nombre": "K-ITO",
      "tipo": "pub",
      "lat": 37.1784077,
      "lon": -3.6086487,
      "direccion": "Calle Goya",
      "codigo_postal": null,
      "telefono": null,
      "web": null,
      "instagram": null,
      "horario": null,
      "terraza": false,
      "musica": null,
      "fuente": "openstreetmap"
    },
    {
      "id": "osm_node_6033811985",
      "nombre": "Starbucks",
      "tipo": "cafe",
      "lat": 37.1761493,
      "lon": -3.5975784,
      "direccion": "Calle Gran Vía de Colón 4",
      "codigo_postal": "18010",
      "telefono": null,
      "web": "https://www.starbucks.es/",
      "instagram": null,
      "horario": "Mo-Th 07:30-22:00; Fr 07:30-00:00; Sa 08:00-00:00; Su 08:00-22:00",
      "terraza": false,
      "musica": null,
      "fuente": "openstreetmap"
    },
    {
      "id": "osm_node_6088401943",
      "nombre": "La Abadía",
      "tipo": "pub",
      "lat": 37.1752851,
      "lon": -3.6100564,
      "direccion": "Calle Maestro Cebrián 8",
      "codigo_postal": "18003",
      "telefono": "+34 958 28 03 76",
      "web": null,
      "instagram": null,
      "horario": null,
      "terraza": false,
      "musica": null,
      "fuente": "openstreetmap"
    },
    {
      "id": "osm_node_6196883986",
      "nombre": "Al pan pan y al vino vino",
      "tipo": "pub",
      "lat": 37.1768915,
      "lon": -3.6051117,
      "direccion": "Calle Horno de Haza",
      "codigo_postal": "18002",
      "telefono": null,
      "web": null,
      "instagram": null,
      "horario": null,
      "terraza": false,
      "musica": null,
      "fuente": "openstreetmap"
    },
    {
      "id": "osm_node_6231305585",
      "nombre": "La Tarara",
      "tipo": "pub",
      "lat": 37.1732445,
      "lon": -3.5961636,
      "direccion": "Calle Varela 15",
      "codigo_postal": "18009",
      "telefono": null,
      "web": null,
      "instagram": null,
      "horario": null,
      "terraza": false,
      "musica": null,
      "fuente": "openstreetmap"
    },
    {
      "id": "osm_node_6257659891",
      "nombre": "Mariscal",
      "tipo": "pub",
      "lat": 37.1712485,
      "lon": -3.5980604,
      "direccion": "Calle Carrera de la Virgen 12",
      "codigo_postal": "18002",
      "telefono": "+34 958 22 97 91",
      "web": "https://www.mariscaldelicatessen.es",
      "instagram": null,
      "horario": null,
      "terraza": true,
      "musica": null,
      "fuente": "openstreetmap"
    },
    {
      "id": "osm_node_6257660096",
      "nombre": "La Plaza",
      "tipo": "pub",
      "lat": 37.1800951,
      "lon": -3.6006894,
      "direccion": "Plaza del Boquerón 6",
      "codigo_postal": "18001",
      "telefono": "+34 639 41 86 44",
      "web": null,
      "instagram": null,
      "horario": null,
      "terraza": false,
      "musica": null,
      "fuente": "openstreetmap"
    },
    {
      "id": "osm_node_6257660485",
      "nombre": "Cafetería Artesanos de Granada",
      "tipo": "cafe",
      "lat": 37.1738595,
      "lon": -3.6078463,
      "direccion": "Camino de Ronda 110",
      "codigo_postal": "18004",
      "telefono": "+34 958 26 28 50",
      "web": "https://cafeteria-pasteleria-artesanos-de-granada.negocio.site",
      "instagram": null,
      "horario": "Mo-Su 08:00-21:00",
      "terraza": false,
      "musica": null,
      "fuente": "openstreetmap"
    },
    {
      "id": "osm_node_6257674985",
      "nombre": "López-Mezquita",
      "tipo": "cafe",
      "lat": 37.1754869,
      "lon": -3.5982638,
      "direccion": "Calle Reyes Católicos 39",
      "codigo_postal": "18001",
      "telefono": "+34 958 22 12 05",
      "web": null,
      "instagram": null,
      "horario": null,
      "terraza": false,
      "musica": null,
      "fuente": "openstreetmap"
    },
    {
      "id": "osm_node_6257675085",
      "nombre": "Cafetería Virgen del Triunfo",
      "tipo": "cafe",
      "lat": 37.1822329,
      "lon": -3.6023213,
      "direccion": "Calle San Juan de Dios 52",
      "codigo_postal": "18001",
      "telefono": null,
      "web": null,
      "instagram": null,
      "horario": null,
      "terraza": false,
      "musica": null,
      "fuente": "openstreetmap"
    },
    {
      "id": "osm_node_6257675190",
      "nombre": "Mariscal",
      "tipo": "pub",
      "lat": 37.1859818,
      "lon": -3.6076216,
      "direccion": "Avenida de la Constitución 36",
      "codigo_postal": "18002",
      "telefono": "+34 958 28 70 08",
      "web": null,
      "instagram": null,
      "horario": null,
      "terraza": false,
      "musica": null,
      "fuente": "openstreetmap"
    },
    {
      "id": "osm_node_6257690490",
      "nombre": "La Villa",
      "tipo": "pub",
      "lat": 37.1779723,
      "lon": -3.6091317,
      "direccion": "Plaza Albert Einstein 3",
      "codigo_postal": "18002",
      "telefono": "+34 688 99 90 54",
      "web": null,
      "instagram": null,
      "horario": null,
      "terraza": false,
      "musica": null,
      "fuente": "openstreetmap"
    },
    {
      "id": "osm_node_6257690491",
      "nombre": "Mentidero Forum",
      "tipo": "bar",
      "lat": 37.1604448,
      "lon": -3.608644,
      "direccion": "Calle José Luis Pérez Pujadas",
      "codigo_postal": "18006",
      "telefono": "+34 958 07 09 88",
      "web": null,
      "instagram": null,
      "horario": null,
      "terraza": false,
      "musica": null,
      "fuente": "openstreetmap"
    },
    {
      "id": "osm_node_6257703085",
      "nombre": "Taberna Tacón Flamenco",
      "tipo": "pub",
      "lat": 37.1799922,
      "lon": -3.6005369,
      "direccion": "Calle Santa Paula",
      "codigo_postal": "18001",
      "telefono": "+34 665 17 22 84",
      "web": null,
      "instagram": null,
      "horario": null,
      "terraza": false,
      "musica": null,
      "fuente": "openstreetmap"
    },
    {
      "id": "osm_node_6342991361",
      "nombre": "La Tienda de los Unicornios",
      "tipo": "cafe",
      "lat": 37.173449,
      "lon": -3.6022133,
      "direccion": null,
      "codigo_postal": null,
      "telefono": null,
      "web": null,
      "instagram": null,
      "horario": "Tu-Sa 10:30-13:30,17:00-20:00",
      "terraza": false,
      "musica": null,
      "fuente": "openstreetmap"
    },
    {
      "id": "osm_node_6349602385",
      "nombre": "La Buena Vida",
      "tipo": "pub",
      "lat": 37.1782706,
      "lon": -3.5979844,
      "direccion": "Calle Elvira 41",
      "codigo_postal": "18010",
      "telefono": null,
      "web": null,
      "instagram": null,
      "horario": null,
      "terraza": false,
      "musica": null,
      "fuente": "openstreetmap"
    },
    {
      "id": "osm_node_6409903238",
      "nombre": "Minuit",
      "tipo": "cafe",
      "lat": 37.1835016,
      "lon": -3.592243,
      "direccion": null,
      "codigo_postal": null,
      "telefono": null,
      "web": null,
      "instagram": null,
      "horario": null,
      "terraza": false,
      "musica": null,
      "fuente": "openstreetmap"
    },
    {
      "id": "osm_node_6412392617",
      "nombre": "La Lirio",
      "tipo": "cafe",
      "lat": 37.1778279,
      "lon": -3.5936206,
      "direccion": null,
      "codigo_postal": null,
      "telefono": null,
      "web": null,
      "instagram": null,
      "horario": null,
      "terraza": false,
      "musica": null,
      "fuente": "openstreetmap"
    },
    {
      "id": "osm_node_6412604847",
      "nombre": "Rabo de Nube",
      "tipo": "cafe",
      "lat": 37.1788942,
      "lon": -3.5901061,
      "direccion": "Paseo del Padre Manjón 1",
      "codigo_postal": null,
      "telefono": null,
      "web": null,
      "instagram": null,
      "horario": null,
      "terraza": false,
      "musica": null,
      "fuente": "openstreetmap"
    },
    {
      "id": "osm_node_6426658660",
      "nombre": "Oriente",
      "tipo": "cafe",
      "lat": 37.1826492,
      "lon": -3.5994993,
      "direccion": "Plaza del Triunfo",
      "codigo_postal": "18010",
      "telefono": null,
      "web": null,
      "instagram": null,
      "horario": null,
      "terraza": true,
      "musica": null,
      "fuente": "openstreetmap"
    },
    {
      "id": "osm_node_6432599885",
      "nombre": "Café Fútbol",
      "tipo": "cafe",
      "lat": 37.1720077,
      "lon": -3.5967861,
      "direccion": "Plaza de Mariana Pineda 6",
      "codigo_postal": "18009",
      "telefono": "+34 958 22 66 62",
      "web": "https://cafefutbol.com",
      "instagram": null,
      "horario": "Mo-Su 06:00-00:00",
      "terraza": true,
      "musica": null,
      "fuente": "openstreetmap"
    },
    {
      "id": "osm_node_6516971457",
      "nombre": "Tic Tac",
      "tipo": "bar",
      "lat": 37.1772468,
      "lon": -3.6040693,
      "direccion": "Calle Horno de Haza 19",
      "codigo_postal": null,
      "telefono": "+34 958 29 63 66",
      "web": null,
      "instagram": null,
      "horario": null,
      "terraza": false,
      "musica": null,
      "fuente": "openstreetmap"
    },
    {
      "id": "osm_node_6573355389",
      "nombre": "La Fragua",
      "tipo": "pub",
      "lat": 37.1825084,
      "lon": -3.5925145,
      "direccion": null,
      "codigo_postal": null,
      "telefono": null,
      "web": null,
      "instagram": null,
      "horario": null,
      "terraza": false,
      "musica": null,
      "fuente": "openstreetmap"
    },
    {
      "id": "osm_node_6621967485",
      "nombre": "Pizpireta",
      "tipo": "pub",
      "lat": 37.171061,
      "lon": -3.5978632,
      "direccion": null,
      "codigo_postal": null,
      "telefono": null,
      "web": null,
      "instagram": null,
      "horario": null,
      "terraza": false,
      "musica": null,
      "fuente": "openstreetmap"
    },
    {
      "id": "osm_node_6632292085",
      "nombre": "Taberna El 22",
      "tipo": "bar",
      "lat": 37.1781727,
      "lon": -3.5960187,
      "direccion": null,
      "codigo_postal": null,
      "telefono": null,
      "web": null,
      "instagram": null,
      "horario": null,
      "terraza": false,
      "musica": null,
      "fuente": "openstreetmap"
    },
    {
      "id": "osm_node_6650431587",
      "nombre": "Los Mondragones",
      "tipo": "cafe",
      "lat": 37.1896492,
      "lon": -3.6112139,
      "direccion": null,
      "codigo_postal": null,
      "telefono": null,
      "web": null,
      "instagram": null,
      "horario": null,
      "terraza": true,
      "musica": null,
      "fuente": "openstreetmap"
    },
    {
      "id": "osm_node_6660769308",
      "nombre": "Gastrobar San Juan de Dios",
      "tipo": "pub",
      "lat": 37.1813633,
      "lon": -3.6026748,
      "direccion": "Calle San Juan de Dios",
      "codigo_postal": "18001",
      "telefono": "+34 958 28 32 04",
      "web": null,
      "instagram": null,
      "horario": null,
      "terraza": false,
      "musica": null,
      "fuente": "openstreetmap"
    },
    {
      "id": "osm_node_6699272087",
      "nombre": "Bar Cúllar",
      "tipo": "pub",
      "lat": 37.1521845,
      "lon": -3.5989472,
      "direccion": "Calle Ebro 13",
      "codigo_postal": "18007",
      "telefono": null,
      "web": null,
      "instagram": null,
      "horario": null,
      "terraza": false,
      "musica": null,
      "fuente": "openstreetmap"
    },
    {
      "id": "osm_node_6841059168",
      "nombre": "Aliatar",
      "tipo": "pub",
      "lat": 37.1744075,
      "lon": -3.5993349,
      "direccion": "Calle San Sebastián 4",
      "codigo_postal": "18001",
      "telefono": "+34958266116",
      "web": "https://bar-aliatar.es/",
      "instagram": null,
      "horario": "Mo-Fr 09:00-23:00; Sa 10:00-23:00; Su 11:00-00:00",
      "terraza": false,
      "musica": null,
      "fuente": "openstreetmap"
    },
    {
      "id": "osm_node_6841066678",
      "nombre": "Rincón de Cristóbal",
      "tipo": "bar",
      "lat": 37.1682035,
      "lon": -3.5972533,
      "direccion": "Calle Rejas de la Virgen 36",
      "codigo_postal": "18005",
      "telefono": "+34958267775",
      "web": null,
      "instagram": null,
      "horario": "08:00-00:00",
      "terraza": true,
      "musica": null,
      "fuente": "openstreetmap"
    },
    {
      "id": "osm_node_6841072494",
      "nombre": "Cervecería Rhin Barril II",
      "tipo": "pub",
      "lat": 37.1683262,
      "lon": -3.5977712,
      "direccion": "Callejón de Arenas 6",
      "codigo_postal": "18005",
      "telefono": "+34 958 25 25 07",
      "web": null,
      "instagram": null,
      "horario": "Mo-Su 12:00-01:30",
      "terraza": true,
      "musica": null,
      "fuente": "openstreetmap"
    },
    {
      "id": "osm_node_6863047485",
      "nombre": "Siloé Bar y Grill",
      "tipo": "pub",
      "lat": 37.1771565,
      "lon": -3.598695,
      "direccion": "Calle Cárcel Baja 4",
      "codigo_postal": "18001",
      "telefono": "+34 958 22 07 52",
      "web": null,
      "instagram": null,
      "horario": "Mo-Su 10:00-00:00",
      "terraza": false,
      "musica": null,
      "fuente": "openstreetmap"
    },
    {
      "id": "osm_node_6872873194",
      "nombre": "Cafetería Bar MundiSalado MundiDulce",
      "tipo": "cafe",
      "lat": 37.1787665,
      "lon": -3.6102779,
      "direccion": "Calle Gonzalo Gallas 3",
      "codigo_postal": "18003",
      "telefono": null,
      "web": null,
      "instagram": null,
      "horario": "Mo-Sa 06:30-13:00,15:00-21:00",
      "terraza": true,
      "musica": null,
      "fuente": "openstreetmap"
    },
    {
      "id": "osm_node_6873304766",
      "nombre": "Tetería Larache",
      "tipo": "cafe",
      "lat": 37.1774306,
      "lon": -3.5969286,
      "direccion": "Calle Hospital Corpus Christi 5",
      "codigo_postal": null,
      "telefono": "+34 958949872",
      "web": null,
      "instagram": null,
      "horario": null,
      "terraza": false,
      "musica": null,
      "fuente": "openstreetmap"
    },
    {
      "id": "osm_node_6875443885",
      "nombre": "Gran Vía 9",
      "tipo": "cafe",
      "lat": 37.177019,
      "lon": -3.598368,
      "direccion": null,
      "codigo_postal": null,
      "telefono": null,
      "web": null,
      "instagram": null,
      "horario": null,
      "terraza": false,
      "musica": null,
      "fuente": "openstreetmap"
    },