{
  "ciudad": "Jaén",
  "total": 836,
  "locales": [
    {
      "id": "osm_node_567489847",
      "nombre": "Pub Magazine",
      "tipo": "pub",
      "lat": 38.0423203,
      "lon": -4.173935,
      "direccion": "Calle Alcalde Jerónimo Cano Vicaría 2",
      "codigo_postal": "23770",
      "telefono": null,
      "web": null,
      "instagram": null,
      "horario": null,
      "terraza": false
    },
    {
      "id": "osm_node_567489862",
      "nombre": "Pub Daniel's",
      "tipo": "pub",
      "lat": 38.0427211,
      "lon": -4.1746795,
      "direccion": "Avenida del Barco 6",
      "codigo_postal": "23770",
      "telefono": null,
      "web": null,
      "instagram": null,
      "horario": null,
      "terraza": false
    },
    {
      "id": "osm_node_1152973301",
      "nombre": "Jandro's",
      "tipo": "bar",
      "lat": 37.7735547,
      "lon": -3.7856349,
      "direccion": "2",
      "codigo_postal": null,
      "telefono": null,
      "web": null,
      "instagram": null,
      "horario": null,
      "terraza": false
    },
    {
      "id": "osm_node_1154398712",
      "nombre": "Cafetería Mabel",
      "tipo": "cafe",
      "lat": 37.772165,
      "lon": -3.790877,
      "direccion": "Rey Alhamar,9",
      "codigo_postal": "23007",
      "telefono": "+34645962888",
      "web": null,
      "instagram": null,
      "horario": null,
      "terraza": false
    },
    {
      "id": "osm_node_1154398723",
      "nombre": "El Rincón de Gaby",
      "tipo": "bar",
      "lat": 37.7717567,
      "lon": -3.7917049,
      "direccion": "Calle Millán de Priego 16",
      "codigo_postal": "23007",
      "telefono": null,
      "web": null,
      "instagram": null,
      "horario": null,
      "terraza": false
    },
    {
      "id": "osm_node_1154423931",
      "nombre": "El Lagarto",
      "tipo": "bar",
      "lat": 37.773361,
      "lon": -3.7890109,
      "direccion": null,
      "codigo_postal": null,
      "telefono": null,
      "web": null,
      "instagram": null,
      "horario": null,
      "terraza": false
    },
    {
      "id": "osm_node_1154423932",
      "nombre": "Robinet",
      "tipo": "bar",
      "lat": 37.7751566,
      "lon": -3.7894926,
      "direccion": null,
      "codigo_postal": null,
      "telefono": null,
      "web": null,
      "instagram": null,
      "horario": null,
      "terraza": false
    },
    {
      "id": "osm_node_1154503747",
      "nombre": "La Charca",
      "tipo": "bar",
      "lat": 37.7627388,
      "lon": -3.7947929,
      "direccion": "Calle Carrera de Jesús 51",
      "codigo_postal": "23002",
      "telefono": null,
      "web": "http://www.cafebarlacharca.com/",
      "instagram": null,
      "horario": null,
      "terraza": false
    },
    {
      "id": "osm_node_1165508012",
      "nombre": "La Tertulia",
      "tipo": "cafe",
      "lat": 37.7807016,
      "lon": -3.7867418,
      "direccion": "Manuel Caballero Venzala 7",
      "codigo_postal": "23008",
      "telefono": null,
      "web": null,
      "instagram": null,
      "horario": null,
      "terraza": false
    },
    {
      "id": "osm_node_1165508016",
      "nombre": "Párraga",
      "tipo": "cafe",
      "lat": 37.7795834,
      "lon": -3.7877588,
      "direccion": null,
      "codigo_postal": null,
      "telefono": null,
      "web": null,
      "instagram": null,
      "horario": null,
      "terraza": false
    },
    {
      "id": "osm_node_1165517861",
      "nombre": "Colombia 50",
      "tipo": "cafe",
      "lat": 37.7861051,
      "lon": -3.7772863,
      "direccion": null,
      "codigo_postal": null,
      "telefono": null,
      "web": null,
      "instagram": null,
      "horario": null,
      "terraza": true
    },
    {
      "id": "osm_node_1165992804",
      "nombre": "La Española",
      "tipo": "bar",
      "lat": 37.7802048,
      "lon": -3.7862458,
      "direccion": null,
      "codigo_postal": null,
      "telefono": null,
      "web": null,
      "instagram": null,
      "horario": null,
      "terraza": false
    },
    {
      "id": "osm_node_1169538280",
      "nombre": "Villa de la Iruela",
      "tipo": "bar",
      "lat": 37.9204225,
      "lon": -2.9943238,
      "direccion": null,
      "codigo_postal": null,
      "telefono": null,
      "web": null,
      "instagram": null,
      "horario": null,
      "terraza": false
    },
    {
      "id": "osm_node_1171734272",
      "nombre": "Los Chorrillos",
      "tipo": "bar",
      "lat": 37.9207925,
      "lon": -2.9878097,
      "direccion": null,
      "codigo_postal": null,
      "telefono": null,
      "web": null,
      "instagram": null,
      "horario": null,
      "terraza": false
    },
    {
      "id": "osm_node_1184142228",
      "nombre": "Churrería El Parral",
      "tipo": "cafe",
      "lat": 37.8437704,
      "lon": -3.0677018,
      "direccion": null,
      "codigo_postal": null,
      "telefono": null,
      "web": null,
      "instagram": null,
      "horario": null,
      "terraza": false
    },
    {
      "id": "osm_node_1184142233",
      "nombre": "Cafeteria El Pasaje",
      "tipo": "cafe",
      "lat": 37.8439385,
      "lon": -3.0678375,
      "direccion": null,
      "codigo_postal": null,
      "telefono": null,
      "web": null,
      "instagram": null,
      "horario": null,
      "terraza": false
    },
    {
      "id": "osm_node_1184142245",
      "nombre": "La Palmera",
      "tipo": "pub",
      "lat": 37.844337,
      "lon": -3.0673714,
      "direccion": null,
      "codigo_postal": null,
      "telefono": null,
      "web": null,
      "instagram": null,
      "horario": "Mo-Sa 10:00-14:00,18:00-21:00",
      "terraza": false
    },
    {
      "id": "osm_node_1195351799",
      "nombre": "Restaurante Las Palmeras",
      "tipo": "bar",
      "lat": 37.7159573,
      "lon": -3.9745825,
      "direccion": null,
      "codigo_postal": null,
      "telefono": null,
      "web": null,
      "instagram": null,
      "horario": null,
      "terraza": false
    },
    {
      "id": "osm_node_1195351811",
      "nombre": "London",
      "tipo": "pub",
      "lat": 37.7163623,
      "lon": -3.9740456,
      "direccion": null,
      "codigo_postal": null,
      "telefono": null,
      "web": null,
      "instagram": null,
      "horario": null,
      "terraza": false
    },
    {
      "id": "osm_node_1195358769",
      "nombre": "Miraflores",
      "tipo": "bar",
      "lat": 37.7161518,
      "lon": -3.9736923,
      "direccion": null,
      "codigo_postal": null,
      "telefono": null,
      "web": null,
      "instagram": null,
      "horario": null,
      "terraza": false
    },
    {
      "id": "osm_node_1195467524",
      "nombre": "Taberna La Cueva",
      "tipo": "pub",
      "lat": 37.845881,
      "lon": -3.0674028,
      "direccion": null,
      "codigo_postal": null,
      "telefono": null,
      "web": null,
      "instagram": null,
      "horario": null,
      "terraza": false
    },
    {
      "id": "osm_node_1195467549",
      "nombre": "Bar Marisol",
      "tipo": "bar",
      "lat": 37.844963,
      "lon": -3.067034,
      "direccion": null,
      "codigo_postal": null,
      "telefono": null,
      "web": null,
      "instagram": null,
      "horario": null,
      "terraza": false
    },
    {
      "id": "osm_node_1195467605",
      "nombre": "Mesón Rural Zabaleta siglo XXI",
      "tipo": "bar",
      "lat": 37.8449755,
      "lon": -3.0676169,
      "direccion": null,
      "codigo_postal": null,
      "telefono": null,
      "web": null,
      "instagram": null,
      "horario": null,
      "terraza": false
    },
    {
      "id": "osm_node_1195467629",
      "nombre": "Heladería-Cafetería Los Valencianos",
      "tipo": "cafe",
      "lat": 37.8455111,
      "lon": -3.067668,
      "direccion": null,
      "codigo_postal": null,
      "telefono": null,
      "web": null,
      "instagram": null,
      "horario": null,
      "terraza": false
    },
    {
      "id": "osm_node_1196039304",
      "nombre": "El Castillo",
      "tipo": "pub",
      "lat": 37.8462167,
      "lon": -3.0704173,
      "direccion": null,
      "codigo_postal": null,
      "telefono": null,
      "web": null,
      "instagram": null,
      "horario": null,
      "terraza": false
    },
    {
      "id": "osm_node_1196644501",
      "nombre": "Botánico",
      "tipo": "pub",
      "lat": 37.7198041,
      "lon": -3.9743828,
      "direccion": null,
      "codigo_postal": null,
      "telefono": null,
      "web": null,
      "instagram": null,
      "horario": null,
      "terraza": false
    },
    {
      "id": "osm_node_1196644505",
      "nombre": "Cerveceria La Tiza",
      "tipo": "bar",
      "lat": 37.7180585,
      "lon": -3.9741553,
      "direccion": null,
      "codigo_postal": null,
      "telefono": null,
      "web": null,
      "instagram": null,
      "horario": "Mo-Su 07:30-02:00",
      "terraza": false
    },
    {
      "id": "osm_node_1196644508",
      "nombre": "Bauhaus",
      "tipo": "pub",
      "lat": 37.7185277,
      "lon": -3.9742536,
      "direccion": null,
      "codigo_postal": null,
      "telefono": null,
      "web": null,
      "instagram": null,
      "horario": null,
      "terraza": false
    },
    {
      "id": "osm_node_1196644509",
      "nombre": "Gran Café de Martos",
      "tipo": "pub",
      "lat": 37.7192564,
      "lon": -3.974332,
      "direccion": null,
      "codigo_postal": null,
      "telefono": null,
      "web": null,
      "instagram": null,
      "horario": null,
      "terraza": false
    },
    {
      "id": "osm_node_1196644510",
      "nombre": "Café Bar Roma",
      "tipo": "bar",
      "lat": 37.7196862,
      "lon": -3.9745241,
      "direccion": null,
      "codigo_postal": null,
      "telefono": null,
      "web": null,
      "instagram": null,
      "horario": null,
      "terraza": false
    },
    {
      "id": "osm_node_1196644513",
      "nombre": "Belfast",
      "tipo": "pub",
      "lat": 37.7193167,
      "lon": -3.974332,
      "direccion": null,
      "codigo_postal": null,
      "telefono": null,
      "web": null,
      "instagram": null,
      "horario": null,
      "terraza": false
    },
    {
      "id": "osm_node_1196644515",
      "nombre": "Nuestra Sra. de las Nieves",
      "tipo": "cafe",
      "lat": 37.7196601,
      "lon": -3.9743574,
      "direccion": null,
      "codigo_postal": null,
      "telefono": null,
      "web": null,
      "instagram": null,
      "horario": null,
      "terraza": false
    },
    {
      "id": "osm_node_1196644518",
      "nombre": "Mesón Los Arcos",
      "tipo": "bar",
      "lat": 37.7193921,
      "lon": -3.9743447,
      "direccion": null,
      "codigo_postal": null,
      "telefono": null,
      "web": null,
      "instagram": null,
      "horario": null,
      "terraza": false
    },
    {
      "id": "osm_node_1201504423",
      "nombre": "El Paseo",
      "tipo": "bar",
      "lat": 37.9845441,
      "lon": -3.532934,
      "direccion": null,
      "codigo_postal": null,
      "telefono": null,
      "web": null,
      "instagram": null,
      "horario": null,
      "terraza": false
    },
    {
      "id": "osm_node_1204008093",
      "nombre": "Mesón Taurino Los Vargas",
      "tipo": "bar",
      "lat": 37.9856435,
      "lon": -3.5324813,
      "direccion": null,
      "codigo_postal": null,
      "telefono": null,
      "web": null,
      "instagram": null,
      "horario": null,
      "terraza": false
    },
    {
      "id": "osm_node_1210316478",
      "nombre": "La Esquina",
      "tipo": "bar",
      "lat": 38.0208881,
      "lon": -3.5027592,
      "direccion": null,
      "codigo_postal": null,
      "telefono": null,
      "web": null,
      "instagram": null,
      "horario": "Mo-Su 07:00-12:00",
      "terraza": false
    },
    {
      "id": "osm_node_1215889268",
      "nombre": "Bar Diego",
      "tipo": "bar",
      "lat": 37.9947394,
      "lon": -3.4657352,
      "direccion": null,
      "codigo_postal": null,
      "telefono": null,
      "web": null,
      "instagram": null,
      "horario": null,
      "terraza": false
    },
    {
      "id": "osm_node_1215889278",
      "nombre": "Cafetería-Pastelería Martínez",
      "tipo": "cafe",
      "lat": 37.9940891,
      "lon": -3.4663881,
      "direccion": null,
      "codigo_postal": null,
      "telefono": null,
      "web": null,
      "instagram": null,
      "horario": null,
      "terraza": false
    },
    {
      "id": "osm_node_1215930751",
      "nombre": "Bar Punto de Encuentro",
      "tipo": "bar",
      "lat": 37.9943432,
      "lon": -3.4653478,
      "direccion": null,
      "codigo_postal": null,
      "telefono": null,
      "web": null,
      "instagram": null,
      "horario": null,
      "terraza": false
    },
    {
      "id": "osm_node_1217383435",
      "nombre": "Cafe-Bar Mibel",
      "tipo": "bar",
      "lat": 37.994382,
      "lon": -3.4652488,
      "direccion": null,
      "codigo_postal": null,
      "telefono": null,
      "web": null,
      "instagram": null,
      "horario": null,
      "terraza": false
    },
    {
      "id": "osm_node_1217383437",
      "nombre": "Bar Pedrito",
      "tipo": "pub",
      "lat": 37.9944825,
      "lon": -3.4652089,
      "direccion": null,
      "codigo_postal": null,
      "telefono": null,
      "web": null,
      "instagram": null,
      "horario": null,
      "terraza": false
    },
    {
      "id": "osm_node_1217383439",
      "nombre": "Pub Oxford",
      "tipo": "pub",
      "lat": 37.9943832,
      "lon": -3.4649202,
      "direccion": null,
      "codigo_postal": "23440",
      "telefono": null,
      "web": null,
      "instagram": null,
      "horario": null,
      "terraza": false
    },
    {
      "id": "osm_node_1221149525",
      "nombre": "Cafetería-Pub Drinping",
      "tipo": "pub",
      "lat": 37.9956728,
      "lon": -3.4661884,
      "direccion": null,
      "codigo_postal": null,
      "telefono": null,
      "web": null,
      "instagram": null,
      "horario": null,
      "terraza": false
    },
    {
      "id": "osm_node_1221149526",
      "nombre": "Cafe-Bar Najera",
      "tipo": "bar",
      "lat": 37.9957194,
      "lon": -3.4655982,
      "direccion": null,
      "codigo_postal": null,
      "telefono": null,
      "web": null,
      "instagram": null,
      "horario": null,
      "terraza": false
    },
    {
      "id": "osm_node_1221149528",
      "nombre": "Pub Arellano",
      "tipo": "pub",
      "lat": 37.994289,
      "lon": -3.4669371,
      "direccion": null,
      "codigo_postal": null,
      "telefono": null,
      "web": null,
      "instagram": null,
      "horario": null,
      "terraza": false
    },
    {
      "id": "osm_node_1221195774",
      "nombre": "Méndez San Pablo",
      "tipo": "cafe",
      "lat": 37.9932745,
      "lon": -3.4680245,
      "direccion": "Calle San Pablo 2",
      "codigo_postal": "23440",
      "telefono": null,
      "web": null,
      "instagram": null,
      "horario": null,
      "terraza": true
    },
    {
      "id": "osm_node_1223032851",
      "nombre": "Cafeteria Restaurante",
      "tipo": "cafe",
      "lat": 37.9938062,
      "lon": -3.4664923,
      "direccion": null,
      "codigo_postal": null,
      "telefono": null,
      "web": null,
      "instagram": null,
      "horario": null,
      "terraza": false
    },
    {
      "id": "osm_node_1223061668",
      "nombre": "Cafe Osiris",
      "tipo": "cafe",
      "lat": 37.9943575,
      "lon": -3.4672053,
      "direccion": null,
      "codigo_postal": null,
      "telefono": null,
      "web": null,
      "instagram": null,
      "horario": null,
      "terraza": false
    },
    {
      "id": "osm_node_1223069115",
      "nombre": "Cafeteria Churreria Benjamín",
      "tipo": "cafe",
      "lat": 37.9938391,
      "lon": -3.4676119,
      "direccion": null,
      "codigo_postal": null,
      "telefono": null,
      "web": null,
      "instagram": null,
      "horario": null,
      "terraza": false
    },
    {
      "id": "osm_node_1226075486",
      "nombre": "Pub Sur",
      "tipo": "pub",
      "lat": 37.845329,
      "lon": -3.0658244,
      "direccion": null,
      "codigo_postal": null,
      "telefono": null,
      "web": null,
      "instagram": null,
      "horario": null,
      "terraza": false
    },
    {
      "id": "osm_node_1244216897",
      "nombre": "El Cruce",
      "tipo": "bar",
      "lat": 38.019623,
      "lon": -3.3633877,
      "direccion": null,
      "codigo_postal": null,
      "telefono": null,
      "web": null,
      "instagram": null,
      "horario": null,
      "terraza": false
    },
    {
      "id": "osm_node_1248086663",
      "nombre": "Bar Pacos",
      "tipo": "bar",
      "lat": 37.9897756,
      "lon": -3.4700471,
      "direccion": null,
      "codigo_postal": null,
      "telefono": null,
      "web": null,
      "instagram": null,
      "horario": null,
      "terraza": false
    },
    {
      "id": "osm_node_1248152237",
      "nombre": "Big Ben",
      "tipo": "pub",
      "lat": 38.0006463,
      "lon": -3.4767265,
      "direccion": null,
      "codigo_postal": null,
      "telefono": null,
      "web": null,
      "instagram": null,
      "horario": null,
      "terraza": false
    },
    {
      "id": "osm_node_1248750476",
      "nombre": "La Esquina",
      "tipo": "bar",
      "lat": 37.792264,
      "lon": -3.4676557,
      "direccion": null,
      "codigo_postal": null,
      "telefono": null,
      "web": null,
      "instagram": null,
      "horario": null,
      "terraza": false
    },
    {
      "id": "osm_node_1248750509",
      "nombre": "José",
      "tipo": "bar",
      "lat": 37.793297,
      "lon": -3.4680107,
      "direccion": null,
      "codigo_postal": null,
      "telefono": null,
      "web": null,
      "instagram": null,
      "horario": null,
      "terraza": false
    },
    {
      "id": "osm_node_1248750518",
      "nombre": "Puerta de Mágina",
      "tipo": "bar",
      "lat": 37.7929727,
      "lon": -3.4686884,
      "direccion": null,
      "codigo_postal": null,
      "telefono": null,
      "web": null,
      "instagram": null,
      "horario": null,
      "terraza": false
    },
    {
      "id": "osm_node_1248750545",
      "nombre": "Oxford",
      "tipo": "bar",
      "lat": 37.7929764,
      "lon": -3.4690487,
      "direccion": null,
      "codigo_postal": null,
      "telefono": null,
      "web": null,
      "instagram": null,
      "horario": null,
      "terraza": false
    },
    {
      "id": "osm_node_1248750564",
      "nombre": "Manolillo",
      "tipo": "bar",
      "lat": 37.7917172,
      "lon": -3.4674436,
      "direccion": null,
      "codigo_postal": null,
      "telefono": null,
      "web": null,
      "instagram": null,
      "horario": null,
      "terraza": false
    },
    {
      "id": "osm_node_1248750605",
      "nombre": "Antonio Calcetines",
      "tipo": "bar",
      "lat": 37.7922089,
      "lon": -3.4658987,
      "direccion": null,
      "codigo_postal": null,
      "telefono": null,
      "web": null,
      "instagram": null,
      "horario": null,
      "terraza": false
    },
    {
      "id": "osm_node_1248750608",
      "nombre": "Atocha",
      "tipo": "bar",
      "lat": 37.7926313,
      "lon": -3.4676455,
      "direccion": null,
      "codigo_postal": null,
      "telefono": null,
      "web": null,
      "instagram": null,
      "horario": null,
      "terraza": false
    },
    {
      "id": "osm_node_1248750630",
      "nombre": "Cafe Bar La Casa del Pueblo",
      "tipo": "bar",
      "lat": 37.7929444,
      "lon": -3.4679796,
      "direccion": null,
      "codigo_postal": null,
      "telefono": null,
      "web": null,
      "instagram": null,
      "horario": null,
      "terraza": false
    },
    {
      "id": "osm_node_1248771113",
      "nombre": "Isabel",
      "tipo": "bar",
      "lat": 37.8061786,
      "lon": -3.4608714,
      "direccion": null,
      "codigo_postal": null,
      "telefono": null,
      "web": null,
      "instagram": null,
      "horario": null,
      "terraza": false
    },
    {
      "id": "osm_node_1248771118",
      "nombre": "Mario",
      "tipo": "bar",
      "lat": 37.806002,
      "lon": -3.4611331,
      "direccion": null,
      "codigo_postal": null,
      "telefono": null,
      "web": null,
      "instagram": null,
      "horario": null,
      "terraza": false
    },
    {
      "id": "osm_node_1249745460",
      "nombre": "Buddha",
      "tipo": "pub",
      "lat": 37.9944966,
      "lon": -3.4709208,
      "direccion": "Calle San Francisco",
      "codigo_postal": null,
      "telefono": null,
      "web": null,
      "instagram": null,
      "horario": null,
      "terraza": false
    },
    {
      "id": "osm_node_1249745461",
      "nombre": "Gauri",
      "tipo": "pub",
      "lat": 37.9945682,
      "lon": -3.4711228,
      "direccion": "Calle San Francisco",
      "codigo_postal": null,
      "telefono": null,
      "web": null,
      "instagram": null,
      "horario": null,
      "terraza": false
    },
    {
      "id": "osm_node_1249745473",
      "nombre": "Mamajuana",
      "tipo": "pub",
      "lat": 37.9946624,
      "lon": -3.4715229,
      "direccion": null,
      "codigo_postal": null,
      "telefono": null,
      "web": null,
      "instagram": null,
      "horario": null,
      "terraza": false
    },
    {
      "id": "osm_node_1249745474",
      "nombre": "Café Romano",
      "tipo": "pub",
      "lat": 37.9944585,
      "lon": -3.470829,
      "direccion": "Calle San Francisco",
      "codigo_postal": null,
      "telefono": null,
      "web": null,
      "instagram": null,
      "horario": null,
      "terraza": false
    },
    {
      "id": "osm_node_1249745475",
      "nombre": "La Bodega",
      "tipo": "bar",
      "lat": 37.9946845,
      "lon": -3.4715586,
      "direccion": null,
      "codigo_postal": null,
      "telefono": null,
      "web": null,
      "instagram": null,
      "horario": null,
      "terraza": false
    },
    {
      "id": "osm_node_1250954528",
      "nombre": "Cafetería Pastelería Planetarium",
      "tipo": "cafe",
      "lat": 37.995863,
      "lon": -3.4767804,
      "direccion": "Calle Gonzalo de Berceo",
      "codigo_postal": "23440",
      "telefono": null,
      "web": null,
      "instagram": null,
      "horario": null,
      "terraza": false
    },
    {
      "id": "osm_node_1251824410",
      "nombre": "Cafe Bar Restaurante El Torreón",
      "tipo": "bar",
      "lat": 37.9922971,
      "lon": -3.4660985,
      "direccion": null,
      "codigo_postal": null,
      "telefono": null,
      "web": null,
      "instagram": null,
      "horario": null,
      "terraza": false
    },
    {
      "id": "osm_node_1251968533",
      "nombre": "Moet",
      "tipo": "pub",
      "lat": 37.7773905,
      "lon": -3.7926208,
      "direccion": null,
      "codigo_postal": null,
      "telefono": null,
      "web": null,
      "instagram": null,
      "horario": null,
      "terraza": false
    },
    {
      "id": "osm_node_1252340954",
      "nombre": "Peña Barcelonista",
      "tipo": "cafe",
      "lat": 37.9917922,
      "lon": -3.4713631,
      "direccion": "Calle del Agua 9",
      "codigo_postal": "23440",
      "telefono": null,
      "web": null,
      "instagram": null,
      "horario": null,
      "terraza": false
    },
    {
      "id": "osm_node_1252341022",
      "nombre": "Sidi Bou Cafe",
      "tipo": "cafe",
      "lat": 37.9924048,
      "lon": -3.4690575,
      "direccion": "Plaza de la Constitución 8",
      "codigo_postal": "23440",
      "telefono": null,
      "web": null,
      "instagram": null,
      "horario": null,
      "terraza": false
    },
    {
      "id": "osm_node_1252341046",
      "nombre": "Xavi Taberna",
      "tipo": "bar",
      "lat": 37.9929664,
      "lon": -3.4691787,
      "direccion": "Plaza de la Constitución 7",
      "codigo_postal": "23440",
      "telefono": null,
      "web": null,
      "instagram": null,
      "horario": null,
      "terraza": false
    },
    {
      "id": "osm_node_1252341074",
      "nombre": "La Biblioteca Café",
      "tipo": "cafe",
      "lat": 37.9930712,
      "lon": -3.4684088,
      "direccion": "Plaza de la Constitución 4",
      "codigo_postal": "23440",
      "telefono": null,
      "web": null,
      "instagram": null,
      "horario": null,
      "terraza": false
    },
    {
      "id": "osm_node_1252341240",
      "nombre": "K-Novas",
      "tipo": "cafe",
      "lat": 37.9933314,
      "lon": -3.4685422,
      "direccion": "Plaza de España 16",
      "codigo_postal": "23440",
      "telefono": null,
      "web": null,
      "instagram": null,
      "horario": "off",
      "terraza": false
    },
    {
      "id": "osm_node_1252341269",
      "nombre": "Los Pinetes",
      "tipo": "cafe",
      "lat": 37.9925454,
      "lon": -3.4689497,
      "direccion": "Plaza de la Constitución 15",
      "codigo_postal": "23440",
      "telefono": null,
      "web": null,
      "instagram": null,
      "horario": null,
      "terraza": false
    },
    {
      "id": "osm_node_1256493292",
      "nombre": "Pub Oxford II",
      "tipo": "pub",
      "lat": 37.9942965,
      "lon": -3.464964,
      "direccion": null,
      "codigo_postal": null,
      "telefono": null,
      "web": null,
      "instagram": null,
      "horario": null,
      "terraza": false
    },
    {
      "id": "osm_node_1256493299",
      "nombre": "Peña Madridista Nido Real",
      "tipo": "bar",
      "lat": 37.9938421,
      "lon": -3.4652761,
      "direccion": null,
      "codigo_postal": null,
      "telefono": null,
      "web": null,
      "instagram": null,
      "horario": null,
      "terraza": false
    },
    {
      "id": "osm_node_1258799314",
      "nombre": "Cafeteria El mirador",
      "tipo": "bar",
      "lat": 37.9928307,
      "lon": -3.4614926,
      "direccion": null,
      "codigo_postal": null,
      "telefono": null,
      "web": null,
      "instagram": null,
      "horario": null,
      "terraza": false
    },
    {
      "id": "osm_node_1259243084",
      "nombre": "Caferería Méndez",
      "tipo": "cafe",
      "lat": 37.997478,
      "lon": -3.4691439,
      "direccion": null,
      "codigo_postal": null,
      "telefono": null,
      "web": null,
      "instagram": null,
      "horario": null,
      "terraza": false
    },
    {
      "id": "osm_node_1259464436",
      "nombre": "Cervecería Café Burladero",
      "tipo": "bar",
      "lat": 37.9982562,
      "lon": -3.4666417,
      "direccion": null,
      "codigo_postal": null,
      "telefono": null,
      "web": null,
      "instagram": null,
      "horario": null,
      "terraza": false
    },
    {
      "id": "osm_node_1259464508",
      "nombre": "Pub 40 grados",
      "tipo": "pub",
      "lat": 37.9980963,
      "lon": -3.4666625,
      "direccion": null,
      "codigo_postal": null,
      "telefono": null,
      "web": null,
      "instagram": null,
      "horario": null,
      "terraza": false
    },
    {
      "id": "osm_node_1260003316",
      "nombre": "Grillo Gelato Italiano",
      "tipo": "cafe",
      "lat": 37.9979038,
      "lon": -3.4666842,
      "direccion": "Calle de la Trinidad 2",
      "codigo_postal": "23440",
      "telefono": null,
      "web": null,
      "instagram": null,
      "horario": "Mo-Sa 12:00-00:00; Su 18:00-00:00",
      "terraza": false
    },
    {
      "id": "osm_node_1260493845",
      "nombre": "Bar \"Caballo Blanco\"",
      "tipo": "bar",
      "lat": 37.9994805,
      "lon": -3.4748954,
      "direccion": "Calle Granada",
      "codigo_postal": "23440",
      "telefono": null,
      "web": null,
      "instagram": null,
      "horario": null,
      "terraza": false
    },
    {
      "id": "osm_node_1260493846",
      "nombre": "Bar \"Pedro Juarez\"",
      "tipo": "bar",
      "lat": 37.9987668,
      "lon": -3.4747223,
      "direccion": "Calle Granada",
      "codigo_postal": "23440",
      "telefono": null,
      "web": null,
      "instagram": null,
      "horario": null,
      "terraza": false
    },
    {
      "id": "osm_node_1260494701",
      "nombre": "Bar Andalucía",
      "tipo": "bar",
      "lat": 37.9986038,
      "lon": -3.4757577,
      "direccion": null,
      "codigo_postal": "23440",
      "telefono": null,
      "web": null,
      "instagram": null,
      "horario": null,
      "terraza": false
    },
    {
      "id": "osm_node_1260504509",
      "nombre": "Bar \"Los Tatos\"",
      "tipo": "bar",
      "lat": 37.9992302,
      "lon": -3.4756037,
      "direccion": null,
      "codigo_postal": null,
      "telefono": null,
      "web": null,
      "instagram": null,
      "horario": null,
      "terraza": false
    },
    {
      "id": "osm_node_1260504517",
      "nombre": "Churrería Montoro",
      "tipo": "cafe",
      "lat": 37.9983675,
      "lon": -3.4767805,
      "direccion": null,
      "codigo_postal": null,
      "telefono": null,
      "web": null,
      "instagram": null,
      "horario": null,
      "terraza": false
    },
    {
      "id": "osm_node_1260504519",
      "nombre": "Bar \"Luis Juarez\"",
      "tipo": "bar",
      "lat": 37.9987995,
      "lon": -3.47549,
      "direccion": "Calle Jaén",
      "codigo_postal": "23440",
      "telefono": null,
      "web": null,
      "instagram": null,
      "horario": null,
      "terraza": false
    },
    {
      "id": "osm_node_1260545785",
      "nombre": "Taberna \"Cubi Chico\"",
      "tipo": "bar",
      "lat": 37.9989399,
      "lon": -3.4746164,
      "direccion": "Calle Azulejos",
      "codigo_postal": "23440",
      "telefono": null,
      "web": null,
      "instagram": null,
      "horario": null,
      "terraza": false
    },
    {
      "id": "osm_node_1260545787",
      "nombre": "Cafetería Méndez",
      "tipo": "cafe",
      "lat": 37.9990259,
      "lon": -3.4740677,
      "direccion": null,
      "codigo_postal": null,
      "telefono": null,
      "web": null,
      "instagram": null,
      "horario": null,
      "terraza": false
    },
    {
      "id": "osm_node_1260635058",
      "nombre": "El Olivo",
      "tipo": "bar",
      "lat": 37.9973395,
      "lon": -3.4777554,
      "direccion": null,
      "codigo_postal": null,
      "telefono": null,
      "web": null,
      "instagram": null,
      "horario": null,
      "terraza": false
    },
    {
      "id": "osm_node_1260997974",
      "nombre": "Kiosco El Chiringuito",
      "tipo": "bar",
      "lat": 37.9939637,
      "lon": -3.4828888,
      "direccion": null,
      "codigo_postal": null,
      "telefono": null,
      "web": null,
      "instagram": null,
      "horario": null,
      "terraza": false
    },
    {
      "id": "osm_node_1265288303",
      "nombre": "Torno de Monjas",
      "tipo": "cafe",
      "lat": 38.008508,
      "lon": -3.3682,
      "direccion": "Plaza del Ayuntamiento",
      "codigo_postal": "23400",
      "telefono": null,
      "web": null,
      "instagram": null,
      "horario": null,
      "terraza": false
    },
    {
      "id": "osm_node_1265328691",
      "nombre": "Navarro",
      "tipo": "bar",
      "lat": 38.0087838,
      "lon": -3.3686762,
      "direccion": "Plaza del Ayuntamiento 2",
      "codigo_postal": "23400",
      "telefono": null,
      "web": null,
      "instagram": null,
      "horario": null,
      "terraza": false
    },
    {
      "id": "osm_node_1266720096",
      "nombre": "Café de Indias",
      "tipo": "cafe",
      "lat": 37.7778647,
      "lon": -3.7924412,
      "direccion": null,
      "codigo_postal": null,
      "telefono": null,
      "web": null,
      "instagram": null,
      "horario": null,
      "terraza": false
    },
    {
      "id": "osm_node_1266720103",
      "nombre": "60s",
      "tipo": "pub",
      "lat": 37.7789252,
      "lon": -3.7910781,
      "direccion": null,
      "codigo_postal": null,
      "telefono": null,
      "web": null,
      "instagram": null,
      "horario": null,
      "terraza": false
    },
    {
      "id": "osm_node_1266720125",
      "nombre": "Admiral's Arms Pub",
      "tipo": "bar",
      "lat": 37.7785407,
      "lon": -3.7913901,
      "direccion": "Calle Virgen de los Reyes 2",
      "codigo_postal": "23006",
      "telefono": null,
      "web": null,
      "instagram": null,
      "horario": "Fr-Sa 21:30-04:00",
      "terraza": false
    },
    {
      "id": "osm_node_1266720145",
      "nombre": "Goya XXI",
      "tipo": "pub",
      "lat": 37.7788594,
      "lon": -3.7921634,
      "direccion": null,
      "codigo_postal": null,
      "telefono": null,
      "web": null,
      "instagram": null,
      "horario": null,
      "terraza": false
    },
    {
      "id": "osm_node_1269907444",
      "nombre": "El Tirol",
      "tipo": "pub",
      "lat": 37.8459655,
      "lon": -3.0669473,
      "direccion": null,
      "codigo_postal": null,
      "telefono": null,
      "web": null,
      "instagram": null,
      "horario": null,
      "terraza": false
    },
    {
      "id": "osm_node_1270144642",
      "nombre": "Bar La Baranda",
      "tipo": "bar",
      "lat": 37.8478265,
      "lon": -3.0678878,
      "direccion": null,
      "codigo_postal": null,
      "telefono": null,
      "web": null,
      "instagram": null,
      "horario": null,
      "terraza": false
    },
    {
      "id": "osm_node_1271284486",
      "nombre": "La Fuente",
      "tipo": "bar",
      "lat": 38.0117821,
      "lon": -3.3781992,
      "direccion": "Avenida de Cristo Rey 10",
      "codigo_postal": "23400",
      "telefono": null,
      "web": null,
      "instagram": null,
      "horario": null,
      "terraza": false
    },
    {
      "id": "osm_node_1286788272",
      "nombre": "Café Teatro Central",
      "tipo": "pub",
      "lat": 37.9927317,
      "lon": -3.4671892,
      "direccion": "Calle Obispo Narváez",
      "codigo_postal": "23440",
      "telefono": null,
      "web": null,
      "instagram": null,
      "horario": null,
      "terraza": false
    },
    {
      "id": "osm_node_1291718473",
      "nombre": "Lolana",
      "tipo": "bar",
      "lat": 38.0093864,
      "lon": -3.3669576,
      "direccion": "Plaza Primero de Mayo",
      "codigo_postal": "23400",
      "telefono": null,
      "web": null,
      "instagram": null,
      "horario": null,
      "terraza": false
    },
    {
      "id": "osm_node_1782422902",
      "nombre": "Shooter -Cafe&Billar",
      "tipo": "bar",
      "lat": 37.7751523,
      "lon": -3.7897581,
      "direccion": null,
      "codigo_postal": null,
      "telefono": null,
      "web": null,
      "instagram": null,
      "horario": null,
      "terraza": false
    },
    {
      "id": "osm_node_1931462607",
      "nombre": "Pub Albero",
      "tipo": "bar",
      "lat": 38.0290019,
      "lon": -3.1003497,
      "direccion": "Carretera de Villacarrillo 4",
      "codigo_postal": "23311",
      "telefono": null,
      "web": null,
      "instagram": null,
      "horario": null,
      "terraza": false
    },
    {
      "id": "osm_node_1934434430",
      "nombre": "Bocados",
      "tipo": "bar",
      "lat": 38.0273471,
      "lon": -3.1000142,
      "direccion": "Carretera de Cazorla 17",
      "codigo_postal": "23311",
      "telefono": null,
      "web": null,
      "instagram": null,
      "horario": null,
      "terraza": false
    },
    {
      "id": "osm_node_2062785848",
      "nombre": "Churrería Zambombas",
      "tipo": "cafe",
      "lat": 37.9701457,
      "lon": -3.8029165,
      "direccion": "Paseo de España 1",
      "codigo_postal": "23620",
      "telefono": null,
      "web": null,
      "instagram": null,
      "horario": null,
      "terraza": false
    },
    {
      "id": "osm_node_2115185535",
      "nombre": "Bar La Plaza",
      "tipo": "bar",
      "lat": 37.7414999,
      "lon": -3.6930703,
      "direccion": "Plaza de San Pedro",
      "codigo_postal": "23170",
      "telefono": null,
      "web": null,
      "instagram": null,
      "horario": null,
      "terraza": false
    },
    {
      "id": "osm_node_2115198699",
      "nombre": "Café Bar La Piscina",
      "tipo": "bar",
      "lat": 37.7435908,
      "lon": -3.6925965,
      "direccion": "Mesón",
      "codigo_postal": "23170",
      "telefono": null,
      "web": null,
      "instagram": null,
      "horario": null,
      "terraza": false
    },
    {
      "id": "osm_node_2115198701",
      "nombre": "Cervecería El Zorro",
      "tipo": "bar",
      "lat": 37.7410201,
      "lon": -3.6940798,
      "direccion": "Pedregal",
      "codigo_postal": "23170",
      "telefono": null,
      "web": null,
      "instagram": null,
      "horario": null,
      "terraza": false
    },
    {
      "id": "osm_node_2283187721",
      "nombre": "La Esquina del Café",
      "tipo": "bar",
      "lat": 37.7605329,
      "lon": -3.7937451,
      "direccion": "Carretera de Jabalcuz 1",
      "codigo_postal": "23002",
      "telefono": null,
      "web": null,
      "instagram": null,
      "horario": null,
      "terraza": false
    },
    {
      "id": "osm_node_2283199128",
      "nombre": "Café-Bar Solera",
      "tipo": "bar",
      "lat": 37.7584401,
      "lon": -3.7942891,
      "direccion": "Ronda del astrónomo Al-Jayyani 1",
      "codigo_postal": "23002",
      "telefono": null,
      "web": null,
      "instagram": null,
      "horario": null,
      "terraza": false
    },
    {
      "id": "osm_node_2283204029",
      "nombre": "Moka II",
      "tipo": "cafe",
      "lat": 37.7631977,
      "lon": -3.788352,
      "direccion": "Don Rafel 3",
      "codigo_postal": "23002",
      "telefono": null,
      "web": null,
      "instagram": null,
      "horario": null,
      "terraza": false
    },
    {
      "id": "osm_node_2283209174",
      "nombre": "Café bar Los Ángeles",
      "tipo": "cafe",
      "lat": 37.7635666,
      "lon": -3.7876721,
      "direccion": "Calle Fuente de Don Diego 18",
      "codigo_postal": "23001",
      "telefono": "+34 953191087",
      "web": null,
      "instagram": null,
      "horario": null,
      "terraza": false
    },
    {
      "id": "osm_node_2283210266",
      "nombre": "+KTapas",
      "tipo": "bar",
      "lat": 37.7782043,
      "lon": -3.7897549,
      "direccion": "Paseo de la Estación 53",
      "codigo_postal": "23009",
      "telefono": null,
      "web": null,
      "instagram": null,
      "horario": null,
      "terraza": false
    },
    {
      "id": "osm_node_2283211859",
      "nombre": "Berges 21",
      "tipo": "bar",
      "lat": 37.7727009,
      "lon": -3.7908967,
      "direccion": "Calle Arquitecto Berges 21",
      "codigo_postal": "23007",
      "telefono": "+34 953 26 38 06",
      "web": null,
      "instagram": "https://www.instagram.com/berges21_/",
      "horario": null,
      "terraza": false
    },
    {
      "id": "osm_node_2283213452",
      "nombre": "Campero de la tapa",
      "tipo": "pub",
      "lat": 37.7606799,
      "lon": -3.7897326,
      "direccion": "Carretera de Otíñar 36",
      "codigo_postal": "23002",
      "telefono": null,
      "web": null,
      "instagram": null,
      "horario": null,
      "terraza": false
    },
    {
      "id": "osm_node_2283213453",
      "nombre": "La esquina de la tapa",
      "tipo": "bar",
      "lat": 37.7633994,
      "lon": -3.7894454,
      "direccion": "Calle Egido de la Alcantarilla 20",
      "codigo_postal": "23002",
      "telefono": "+34 953089756",
      "web": null,
      "instagram": null,
      "horario": null,
      "terraza": false
    },
    {
      "id": "osm_node_2283215431",
      "nombre": "Cafe Bar Guzmán",
      "tipo": "cafe",
      "lat": 37.7799692,
      "lon": -3.7820383,
      "direccion": "Paraje Comercial Plaza Luz del Valle 10",
      "codigo_postal": "23009",
      "telefono": null,
      "web": null,
      "instagram": null,
      "horario": null,
      "terraza": false
    },
    {
      "id": "osm_node_2283215848",
      "nombre": "LOS GALLOS",
      "tipo": "bar",
      "lat": 37.7769924,
      "lon": -3.7986169,
      "direccion": "Calle Doctor Federico Castillo 12",
      "codigo_postal": "23005",
      "telefono": null,
      "web": null,
      "instagram": null,
      "horario": null,
      "terraza": false
    },
    {
      "id": "osm_node_2283216721",
      "nombre": "La Cafetera",
      "tipo": "cafe",
      "lat": 37.7771797,
      "lon": -3.790597,
      "direccion": "Avenida Eduardo García Maroto 2",
      "codigo_postal": "23007",
      "telefono": null,
      "web": null,
      "instagram": null,
      "horario": null,
      "terraza": false
    },
    {
      "id": "osm_node_2283220569",
      "nombre": "MESON RUEDA VERDEJO",
      "tipo": "bar",
      "lat": 37.7769733,
      "lon": -3.798472,
      "direccion": "Calle Doctor Federico Castillo 12",
      "codigo_postal": "23005",
      "telefono": null,
      "web": null,
      "instagram": null,
      "horario": null,
      "terraza": false
    },
    {
      "id": "osm_node_2283221412",
      "nombre": "Luxor",
      "tipo": "cafe",
      "lat": 37.777703,
      "lon": -3.7896891,
      "direccion": "Paseo de la Estación 47",
      "codigo_postal": "23009",
      "telefono": null,
      "web": null,
      "instagram": null,
      "horario": null,
      "terraza": false
    },
    {
      "id": "osm_node_2283223279",
      "nombre": "Akelarre",
      "tipo": "bar",
      "lat": 37.7684909,
      "lon": -3.7873821,
      "direccion": "Calle Nueva 7",
      "codigo_postal": "23001",
      "telefono": null,
      "web": null,
      "instagram": null,
      "horario": null,
      "terraza": false
    },
    {
      "id": "osm_node_2283223595",
      "nombre": "Las Niñas de La Gloria",
      "tipo": "pub",
      "lat": 37.757194,
      "lon": -3.7941433,
      "direccion": "Calle La Gloria",
      "codigo_postal": "23002",
      "telefono": "+34 953083576",
      "web": null,
      "instagram": null,
      "horario": "Mo-Fr 09:00-13:30,17:00-20:00; Sa 09:00-13:30",
      "terraza": true
    },
    {
      "id": "osm_node_2283224001",
      "nombre": "Jaén",
      "tipo": "bar",
      "lat": 37.7798548,
      "lon": -3.782226,
      "direccion": "Pasaje Comercial Plaza Luz del Valle 7",
      "codigo_postal": "23009",
      "telefono": null,
      "web": null,
      "instagram": null,
      "horario": null,
      "terraza": false
    },
    {
      "id": "osm_node_2283227945",
      "nombre": "El Paso",
      "tipo": "cafe",
      "lat": 37.7773625,
      "lon": -3.7907029,
      "direccion": "Calle Hermanos Pinzón 1",
      "codigo_postal": "23007",
      "telefono": "+34 631 20 81 01",
      "web": "https://churreriaelpasojaen.com/",
      "instagram": null,
      "horario": "Tu-Su 06:30-13:00, 16:00-21:00",
      "terraza": true
    },
    {
      "id": "osm_node_2283231033",
      "nombre": "Santo Reino II",
      "tipo": "bar",
      "lat": 37.7654321,
      "lon": -3.7904416,
      "direccion": "Calle Campanas 7",
      "codigo_postal": "23002",
      "telefono": "+34 637519235",
      "web": null,
      "instagram": null,
      "horario": null,
      "terraza": false
    },
    {
      "id": "osm_node_2283231393",
      "nombre": "Bar Pitufos",
      "tipo": "bar",
      "lat": 37.7685013,
      "lon": -3.7871667,
      "direccion": "Calle Nueva 2",
      "codigo_postal": "23001",
      "telefono": "+34 953242753",
      "web": null,
      "instagram": null,
      "horario": null,
      "terraza": false
    },
    {
      "id": "osm_node_2283232833",
      "nombre": "Central",
      "tipo": "cafe",
      "lat": 37.7712369,
      "lon": -3.7897062,
      "direccion": "Arquitecto Berges",
      "codigo_postal": "23007",
      "telefono": null,
      "web": null,
      "instagram": null,
      "horario": null,
      "terraza": false
    },
    {
      "id": "osm_node_2283232994",
      "nombre": "Café-Bar Sonia",
      "tipo": "bar",
      "lat": 37.7709392,
      "lon": -3.7895421,
      "direccion": "Calle Arquitecto Berges",
      "codigo_postal": "23007",
      "telefono": null,
      "web": null,
      "instagram": null,
      "horario": null,
      "terraza": false
    },
    {
      "id": "osm_node_2283233327",
      "nombre": "El Chato",
      "tipo": "bar",
      "lat": 37.7802499,
      "lon": -3.8095974,
      "direccion": "Fuente del Alhamillo",
      "codigo_postal": null,
      "telefono": null,
      "web": null,
      "instagram": null,
      "horario": null,
      "terraza": false
    },
    {
      "id": "osm_node_2283236425",
      "nombre": "Batallas",
      "tipo": "cafe",
      "lat": 37.7729963,
      "lon": -3.7895106,
      "direccion": "Cruz Roja Española",
      "codigo_postal": null,
      "telefono": null,
      "web": null,
      "instagram": null,
      "horario": null,
      "terraza": false
    },
    {
      "id": "osm_node_2283236699",
      "nombre": "Necochea",
      "tipo": "cafe",
      "lat": 37.765603,
      "lon": -3.7897913,
      "direccion": "Calle Campanas 1",
      "codigo_postal": "23002",
      "telefono": null,
      "web": null,
      "instagram": null,
      "horario": null,
      "terraza": true
    },
    {
      "id": "osm_node_2283237813",
      "nombre": "La Senda",
      "tipo": "pub",
      "lat": 37.7626326,
      "lon": -3.7892617,
      "direccion": "Calle Egido de la Alcantarilla 36",
      "codigo_postal": "23002",
      "telefono": null,
      "web": null,
      "instagram": null,
      "horario": null,
      "terraza": false
    },
    {
      "id": "osm_node_2283238996",
      "nombre": "Cafe Bar 19",
      "tipo": "bar",
      "lat": 37.7767428,
      "lon": -3.7841111,
      "direccion": "Calle la Luna 19",
      "codigo_postal": "23009",
      "telefono": "+34 635899331",
      "web": null,
      "instagram": null,
      "horario": null,
      "terraza": false
    },
    {
      "id": "osm_node_2283250574",
      "nombre": "Cafetería Araque",
      "tipo": "cafe",
      "lat": 37.7677042,
      "lon": -3.7897283,
      "direccion": "Calle Doctor Civera 23",
      "codigo_postal": "23004",
      "telefono": null,
      "web": null,
      "instagram": null,
      "horario": null,
      "terraza": false
    },
    {
      "id": "osm_node_2283250778",
      "nombre": "Pub La Lola",
      "tipo": "pub",
      "lat": 37.7662837,
      "lon": -3.7876821,
      "direccion": "Calle Hurtado 21",
      "codigo_postal": null,
      "telefono": null,
      "web": null,
      "instagram": null,
      "horario": null,
      "terraza": false
    },
    {
      "id": "osm_node_2283254799",
      "nombre": "Taberna Almenas",
      "tipo": "bar",
      "lat": 37.7646869,
      "lon": -3.7889424,
      "direccion": "Calle Manuel Jontoya 4",
      "codigo_postal": "23001",
      "telefono": null,
      "web": null,
      "instagram": null,
      "horario": null,
      "terraza": false
    },
    {
      "id": "osm_node_2283254802",
      "nombre": "Mesón_Antonio´s",
      "tipo": "bar",
      "lat": 37.7665117,
      "lon": -3.7857156,
      "direccion": "Calle Bernardas 8",
      "codigo_postal": "23001",
      "telefono": "+34 953235130",
      "web": null,
      "instagram": null,
      "horario": null,
      "terraza": false
    },
    {
      "id": "osm_node_2283255431",
      "nombre": "Bar Alcandor",
      "tipo": "bar",
      "lat": 37.7672439,
      "lon": -3.7900634,
      "direccion": "Calle Atarazanas 3",
      "codigo_postal": "23004",
      "telefono": null,
      "web": null,
      "instagram": null,
      "horario": null,
      "terraza": false
    },
    {
      "id": "osm_node_2283256901",
      "nombre": "Taberna Los Faroles",
      "tipo": "bar",
      "lat": 37.7670256,
      "lon": -3.7851435,
      "direccion": "Calle Melchor Cobo Medina 2",
      "codigo_postal": "23001",
      "telefono": null,
      "web": null,
      "instagram": null,
      "horario": null,
      "terraza": false
    },
    {
      "id": "osm_node_2283257319",
      "nombre": "La Andaluza",
      "tipo": "bar",
      "lat": 37.7686969,
      "lon": -3.7891721,
      "direccion": "Calle Federico Mendizábal 17",
      "codigo_postal": "23001",
      "telefono": null,
      "web": "https://www.laandaluza.com/",
      "instagram": null,
      "horario": null,
      "terraza": false
    },
    {
      "id": "osm_node_2283257334",
      "nombre": "Cafe bar Haway",
      "tipo": "cafe",
      "lat": 37.7775287,
      "lon": -3.7942985,
      "direccion": "Avenida de Andalucía 20",
      "codigo_postal": "23006",
      "telefono": "+34 689109700",
      "web": null,
      "instagram": null,
      "horario": null,
      "terraza": false
    },
    {
      "id": "osm_node_2283258002",
      "nombre": "Salón de Juego \"Africana\"",
      "tipo": "bar",
      "lat": 37.7622926,
      "lon": -3.7950707,
      "direccion": "Glorieta de Doña Lola Torres 1",
      "codigo_postal": "23002",
      "telefono": null,
      "web": null,
      "instagram": null,
      "horario": null,
      "terraza": false
    },
    {
      "id": "osm_node_2283259386",
      "nombre": "La Despensa del Jamón",
      "tipo": "bar",
      "lat": 37.7622566,
      "lon": -3.7950327,
      "direccion": "Glorieta de Doña Lola Torres 1",
      "codigo_postal": "23002",
      "telefono": "+34 635728802",
      "web": null,
      "instagram": null,
      "horario": null,
      "terraza": false
    },
    {
      "id": "osm_node_2283260122",
      "nombre": "Taberna El Marquès",
      "tipo": "bar",
      "lat": 37.7717467,
      "lon": -3.7918564,
      "direccion": "Calle Millán de Priego 16",
      "codigo_postal": "23007",
      "telefono": null,
      "web": null,
      "instagram": null,
      "horario": null,
      "terraza": false
    },
    {
      "id": "osm_node_2283261086",
      "nombre": "La Palmera",
      "tipo": "pub",
      "lat": 37.7622683,
      "lon": -3.7947011,
      "direccion": "Calle Senda de los Huertos 3",
      "codigo_postal": "23002",
      "telefono": null,
      "web": null,
      "instagram": null,
      "horario": null,
      "terraza": false
    },
    {
      "id": "osm_node_2283263618",
      "nombre": "El Cossío",
      "tipo": "bar",
      "lat": 37.7670656,
      "lon": -3.7858655,
      "direccion": "Calle Capitán Aranda Baja 5",
      "codigo_postal": "23001",
      "telefono": null,
      "web": null,
      "instagram": null,
      "horario": null,
      "terraza": false
    },
    {
      "id": "osm_node_2283264333",
      "nombre": "Taberna El Bocao",
      "tipo": "bar",
      "lat": 37.7674772,
      "lon": -3.7849853,
      "direccion": "Calle Salsipuedes 8",
      "codigo_postal": "23001",
      "telefono": "+34 687 08 08 86",
      "web": null,
      "instagram": null,
      "horario": null,
      "terraza": false
    },
    {
      "id": "osm_node_2283265481",
      "nombre": "St. Patrick's Irish Tavern",
      "tipo": "bar",
      "lat": 37.7667732,
      "lon": -3.7876381,
      "direccion": "Calle Bernabé Soriano 30",
      "codigo_postal": "23001",
      "telefono": "+34 658 86 09 43",
      "web": "https://www.officialirishpub.es/local/st-patrick%C2%B4s-irish-pub",
      "instagram": "https://www.instagram.com/st.patrickjaen",
      "horario": null,
      "terraza": false
    },
    {
      "id": "osm_node_2283267089",
      "nombre": "Toscana",
      "tipo": "cafe",
      "lat": 37.7718521,
      "lon": -3.7919462,
      "direccion": "Calle Millán de Priego 16",
      "codigo_postal": "23007",
      "telefono": "+34 722450862",
      "web": null,
      "instagram": null,
      "horario": null,
      "terraza": false
    },
    {
      "id": "osm_node_2283270408",
      "nombre": "Il Café Collezione del Secolo XXI",
      "tipo": "cafe",
      "lat": 37.7620449,
      "lon": -3.7894104,
      "direccion": "Calle Senda de los Huertos 12",
      "codigo_postal": "23002",
      "telefono": "+34 953234110",
      "web": null,
      "instagram": null,
      "horario": null,
      "terraza": false
    },
    {
      "id": "osm_node_2283273189",
      "nombre": "Pub Fielato",
      "tipo": "pub",
      "lat": 37.7618626,
      "lon": -3.7892388,
      "direccion": "Camino Fuente de la Peña 1",
      "codigo_postal": "23002",
      "telefono": null,
      "web": null,
      "instagram": null,
      "horario": null,
      "terraza": false
    },
    {
      "id": "osm_node_2283273944",
      "nombre": "oh la la",
      "tipo": "cafe",
      "lat": 37.7663634,
      "lon": -3.7882989,
      "direccion": "Calle Bernabé Soriano 22",
      "codigo_postal": null,
      "telefono": null,
      "web": null,
      "instagram": null,
      "horario": null,
      "terraza": false
    },
    {
      "id": "osm_node_2283277509",
      "nombre": "Herladería Santo Reino",
      "tipo": "cafe",
      "lat": 37.7619622,
      "lon": -3.7896197,
      "direccion": "Calle Senda de los Huertos 12",
      "codigo_postal": "23002",
      "telefono": null,
      "web": null,
      "instagram": null,
      "horario": null,
      "terraza": false
    },
    {
      "id": "osm_node_2283277683",
      "nombre": "Párraga",
      "tipo": "cafe",
      "lat": 37.7684149,
      "lon": -3.7886451,
      "direccion": "Calle Federico Mendizábal 23",
      "codigo_postal": "23001",
      "telefono": null,
      "web": null,
      "instagram": null,
      "horario": null,
      "terraza": false
    },
    {
      "id": "osm_node_2283277687",
      "nombre": "Bon Café",
      "tipo": "cafe",
      "lat": 37.7674984,
      "lon": -3.7900793,
      "direccion": "Calle Doctor Civera 6",
      "codigo_postal": "23004",
      "telefono": "+34 953 19 03 53",
      "web": "http://descubresensaciones.es",
      "instagram": null,
      "horario": null,
      "terraza": false
    },
    {
      "id": "osm_node_2283279013",
      "nombre": "pato rojo",
      "tipo": "bar",
      "lat": 37.7659947,
      "lon": -3.7889279,
      "direccion": "Calle Bernabé Soriano 10",
      "codigo_postal": null,
      "telefono": null,
      "web": null,
      "instagram": null,
      "horario": null,
      "terraza": false
    },
    {
      "id": "osm_node_2283279219",
      "nombre": "Zahira",
      "tipo": "bar",
      "lat": 37.776776,
      "lon": -3.7929619,
      "direccion": "Calle de Sefarad 8",
      "codigo_postal": "23005",
      "telefono": "+34 953271222",
      "web": null,
      "instagram": null,
      "horario": null,
      "terraza": false
    },
    {
      "id": "osm_node_2283279420",
      "nombre": "La Tostá",
      "tipo": "cafe",
      "lat": 37.7745291,
      "lon": -3.7927029,
      "direccion": "Avenida del Ejército Español",
      "codigo_postal": "23007",
      "telefono": null,
      "web": null,
      "instagram": null,
      "horario": null,
      "terraza": false
    },
    {
      "id": "osm_node_2283279423",
      "nombre": "azulejo",
      "tipo": "cafe",
      "lat": 37.7657761,
      "lon": -3.7885132,
      "direccion": "Calle Hurtado 8",
      "codigo_postal": "23001",
      "telefono": "+34 953238250",
      "web": null,
      "instagram": null,
      "horario": null,
      "terraza": false
    },
    {
      "id": "osm_node_2283279436",
      "nombre": "Cafe Bar de la Torre",
      "tipo": "pub",
      "lat": 37.7676341,
      "lon": -3.7767375,
      "direccion": "Calle Los Tejares 3",
      "codigo_postal": "23003",
      "telefono": "+34 953239079",
      "web": null,
      "instagram": null,
      "horario": null,
      "terraza": false
    },
    {
      "id": "osm_node_2283279507",
      "nombre": "Bar El Abuelo",
      "tipo": "bar",
      "lat": 37.7669723,
      "lon": -3.7850179,
      "direccion": "Calle Bernardas 20",
      "codigo_postal": "23001",
      "telefono": null,
      "web": null,
      "instagram": null,
      "horario": null,
      "terraza": false
    },
    {
      "id": "osm_node_2283279508",
      "nombre": "Séneca",
      "tipo": "bar",
      "lat": 37.7772616,
      "lon": -3.7942289,
      "direccion": "Avenida de Andalucía",
      "codigo_postal": null,
      "telefono": null,
      "web": null,
      "instagram": null,
      "horario": null,
      "terraza": false
    },
    {
      "id": "osm_node_2283280573",
      "nombre": "Taberna Leyre",
      "tipo": "bar",
      "lat": 37.7619707,
      "lon": -3.7901025,
      "direccion": "Calle Senda de los Huertos 2",
      "codigo_postal": "23002",
      "telefono": null,
      "web": null,
      "instagram": null,
      "horario": null,
      "terraza": false
    },
    {
      "id": "osm_node_2283280647",
      "nombre": "Pub Epoca",
      "tipo": "pub",
      "lat": 37.7670274,
      "lon": -3.7848918,
      "direccion": "20",
      "codigo_postal": "23001",
      "telefono": null,
      "web": null,
      "instagram": null,
      "horario": null,
      "terraza": false
    },
    {
      "id": "osm_node_2283281216",
      "nombre": "Fénix",
      "tipo": "bar",
      "lat": 37.768329,
      "lon": -3.788351,
      "direccion": "Calle Federico Mendizábal 1",
      "codigo_postal": "23001",
      "telefono": "+34953234155",
      "web": null,
      "instagram": null,
      "horario": null,
      "terraza": false
    },
    {
      "id": "osm_node_2283281217",
      "nombre": "El Rey de Copas",
      "tipo": "bar",
      "lat": 37.7772274,
      "lon": -3.7944227,
      "direccion": "Avenida de Andalucía 27",
      "codigo_postal": null,
      "telefono": "+34 953256119",
      "web": null,
      "instagram": null,
      "horario": null,
      "terraza": false
    },
    {
      "id": "osm_node_2283281218",
      "nombre": "Salón de Juegos- Bar",
      "tipo": "bar",
      "lat": 37.7719794,
      "lon": -3.7920587,
      "direccion": "Calle Millán de Priego 22",
      "codigo_postal": "23007",
      "telefono": "+34953221626",
      "web": null,
      "instagram": null,
      "horario": null,
      "terraza": false
    },
    {
      "id": "osm_node_2283284350",
      "nombre": "Tropicana",
      "tipo": "cafe",
      "lat": 37.7777196,
      "lon": -3.7963289,
      "direccion": "Avenida de Andalucía 34",
      "codigo_postal": "23006",
      "telefono": null,
      "web": null,
      "instagram": null,
      "horario": null,
      "terraza": false
    },
    {
      "id": "osm_node_2283294916",
      "nombre": "Sol",
      "tipo": "bar",
      "lat": 37.7767212,
      "lon": -3.7922765,
      "direccion": "Calle de Sefarad 6",
      "codigo_postal": "23005",
      "telefono": null,
      "web": null,
      "instagram": null,
      "horario": null,
      "terraza": false
    },
    {
      "id": "osm_node_2283295185",
      "nombre": "Bar Viruta",
      "tipo": "bar",
      "lat": 37.7673794,
      "lon": -3.7845029,
      "direccion": "Calle Bernardas 33",
      "codigo_postal": "23001",
      "telefono": null,
      "web": null,
      "instagram": null,
      "horario": null,
      "terraza": false
    },
    {
      "id": "osm_node_2283299562",
      "nombre": "Dulce y amargo",
      "tipo": "cafe",
      "lat": 37.7673819,
      "lon": -3.7904283,
      "direccion": "San eufrasio 1",
      "codigo_postal": "23004",
      "telefono": null,
      "web": null,
      "instagram": null,
      "horario": null,
      "terraza": false
    },
    {
      "id": "osm_node_2283301351",
      "nombre": "novel",
      "tipo": "cafe",
      "lat": 37.7773145,
      "lon": -3.7948108,
      "direccion": "Avenida de Andalucía 31",
      "codigo_postal": null,
      "telefono": null,
      "web": null,
      "instagram": null,
      "horario": null,
      "terraza": false
    },
    {
      "id": "osm_node_2283302279",
      "nombre": "Cafetería Miami",
      "tipo": "cafe",
      "lat": 37.7693239,
      "lon": -3.7898643,
      "direccion": "Plaza de los Jardinillos",
      "codigo_postal": null,
      "telefono": null,
      "web": null,
      "instagram": null,
      "horario": null,
      "terraza": false
    },
    {
      "id": "osm_node_2283303389",
      "nombre": "Reycas",
      "tipo": "cafe",
      "lat": 37.7766791,
      "lon": -3.7918673,
      "direccion": "Calle de Sefarad 2",
      "codigo_postal": "23005",
      "telefono": "+34 953224569",
      "web": null,
      "instagram": null,
      "horario": null,
      "terraza": false
    },
    {
      "id": "osm_node_2283304222",
      "nombre": "Liverpool",
      "tipo": "cafe",
      "lat": 37.7766725,
      "lon": -3.7917912,
      "direccion": "Calle de Sefarad 2",
      "codigo_postal": "23005",
      "telefono": null,
      "web": null,
      "instagram": null,
      "horario": null,
      "terraza": false
    },
    {
      "id": "osm_node_2283310770",
      "nombre": "Café Sur Bar",
      "tipo": "cafe",
      "lat": 37.7773359,
      "lon": -3.7950477,
      "direccion": "Avenida de Andalucía 35",
      "codigo_postal": null,
      "telefono": "+34 953253631",
      "web": null,
      "instagram": null,
      "horario": null,
      "terraza": false
    },
    {
      "id": "osm_node_2283319015",
      "nombre": "Las Palmeras",
      "tipo": "pub",
      "lat": 37.7678713,
      "lon": -3.7881656,
      "direccion": "Plaza de la Constitución 3",
      "codigo_postal": "23001",
      "telefono": null,
      "web": null,
      "instagram": null,
      "horario": null,
      "terraza": false
    },
    {
      "id": "osm_node_2283319019",
      "nombre": "Quinto Aroma",
      "tipo": "cafe",
      "lat": 37.7684387,
      "lon": -3.7884705,
      "direccion": "Calle Federico Mendizábal 6",
      "codigo_postal": "23001",
      "telefono": null,
      "web": null,
      "instagram": null,
      "horario": null,
      "terraza": true
    },
    {
      "id": "osm_node_2283319021",
      "nombre": "Conde Duque",
      "tipo": "pub",
      "lat": 37.7679351,
      "lon": -3.7881371,
      "direccion": "Plaza de la Constitución 3",
      "codigo_postal": "23001",
      "telefono": null,
      "web": null,
      "instagram": "https://www.instagram.com/condeduquejaen/",
      "horario": null,
      "terraza": true
    },
    {
      "id": "osm_node_2283319022",
      "nombre": "Siena",
      "tipo": "cafe",
      "lat": 37.767803,
      "lon": -3.7881878,
      "direccion": "Plaza de la Constitución",
      "codigo_postal": "23001",
      "telefono": null,
      "web": null,
      "instagram": null,
      "horario": null,
      "terraza": false
    },
    {
      "id": "osm_node_2283319078",
      "nombre": "Montelado",
      "tipo": "cafe",
      "lat": 37.770719,
      "lon": -3.7882316,
      "direccion": "Paseo de la Estación 18",
      "codigo_postal": "23003",
      "telefono": null,
      "web": "https://montelado.com/",
      "instagram": "https://www.instagram.com/monteladojaen/",
      "horario": null,
      "terraza": true
    },
    {
      "id": "osm_node_2283321151",
      "nombre": "Dallas",
      "tipo": "cafe",
      "lat": 37.7743764,
      "lon": -3.7920645,
      "direccion": "Avenida del Ejército Español 13",
      "codigo_postal": "23007",
      "telefono": null,
      "web": null,
      "instagram": null,
      "horario": null,
      "terraza": false
    },
    {
      "id": "osm_node_2283446749",
      "nombre": "Cantina Bigotes",
      "tipo": "cafe",
      "lat": 37.7976138,
      "lon": -3.7889288,
      "direccion": "Calle Bélmez de la Moraleda",
      "codigo_postal": "23009",
      "telefono": null,
      "web": null,
      "instagram": null,
      "horario": null,
      "terraza": false
    },
    {
      "id": "osm_node_2283864313",
      "nombre": "Bar Juanes",
      "tipo": "bar",
      "lat": 37.7860211,
      "lon": -3.7790282,
      "direccion": "Cardenal Marcelo Espínola",
      "codigo_postal": "23009",
      "telefono": "+34650124224",
      "web": null,
      "instagram": null,
      "horario": null,
      "terraza": false
    },
    {
      "id": "osm_node_2283896898",
      "nombre": "Alicia",
      "tipo": "cafe",
      "lat": 37.7670996,
      "lon": -3.7906157,
      "direccion": "Calle Los Álamos 14",
      "codigo_postal": "23004",
      "telefono": null,
      "web": null,
      "instagram": null,
      "horario": null,
      "terraza": false
    },
    {
      "id": "osm_node_2283903287",
      "nombre": "Bar Blanco y negro",
      "tipo": "bar",
      "lat": 37.7673487,
      "lon": -3.789393,
      "direccion": "Calle Joaquín Tenorio 18",
      "codigo_postal": "23004",
      "telefono": null,
      "web": null,
      "instagram": null,
      "horario": null,
      "terraza": false
    },
    {
      "id": "osm_node_2283903800",
      "nombre": "La Báscula",
      "tipo": "bar",
      "lat": 37.7669833,
      "lon": -3.7891545,
      "direccion": "Calle Joaquín Tenorio 8",
      "codigo_postal": "23004",
      "telefono": null,
      "web": null,
      "instagram": null,
      "horario": null,
      "terraza": false
    },
    {
      "id": "osm_node_2283904513",
      "nombre": "Los Bigotes",
      "tipo": "cafe",
      "lat": 37.7669308,
      "lon": -3.7891298,
      "direccion": "Joaquin Tenorio 4",
      "codigo_postal": "23004",
      "telefono": null,
      "web": null,
      "instagram": null,
      "horario": null,
      "terraza": false
    },
    {
      "id": "osm_node_2283909252",
      "nombre": "El Bodegón",
      "tipo": "bar",
      "lat": 37.7667712,
      "lon": -3.7890544,
      "direccion": "Calle Joaquín Tenorio 2",
      "codigo_postal": "23004",
      "telefono": null,
      "web": null,
      "instagram": null,
      "horario": null,
      "terraza": false
    },
    {
      "id": "osm_node_2283912517",
      "nombre": "La plaza",
      "tipo": "bar",
      "lat": 37.7663703,
      "lon": -3.7886845,
      "direccion": "Plaza del Pósito 8",
      "codigo_postal": "23004",
      "telefono": null,
      "web": null,
      "instagram": null,
      "horario": null,
      "terraza": false
    },
    {
      "id": "osm_node_2283937842",
      "nombre": "Chocaté",
      "tipo": "cafe",
      "lat": 37.7665121,
      "lon": -3.7884792,
      "direccion": "Calle Cronista Cazabán 8",
      "codigo_postal": "23004",
      "telefono": null,
      "web": null,
      "instagram": null,
      "horario": null,
      "terraza": false
    },
    {
      "id": "osm_node_2283938242",
      "nombre": "Bar Fígaro",
      "tipo": "bar",
      "lat": 37.7666738,
      "lon": -3.7887759,
      "direccion": "Calle Pescadería 1",
      "codigo_postal": "23004",
      "telefono": null,
      "web": null,
      "instagram": null,
      "horario": null,
      "terraza": false
    },
    {
      "id": "osm_node_2283966911",
      "nombre": "La Mella",
      "tipo": "pub",
      "lat": 37.7565379,
      "lon": -3.7942203,
      "direccion": "Calle La Gloria",
      "codigo_postal": "23002",
      "telefono": null,
      "web": null,
      "instagram": null,
      "horario": null,
      "terraza": true
    },
    {
      "id": "osm_node_2284359469",
      "nombre": "La Reina del Sur",
      "tipo": "bar",
      "lat": 37.6767333,
      "lon": -3.5648873,
      "direccion": "Paseo del Señor del Mármol",
      "codigo_postal": "23120",
      "telefono": null,
      "web": null,
      "instagram": "https://www.instagram.com/cafepub_lareinadelsur/",
      "horario": null,
      "terraza": true
    },
    {
      "id": "osm_node_2285960716",
      "nombre": "Bar Lirios",
      "tipo": "bar",
      "lat": 37.7755491,
      "lon": -3.7849929,
      "direccion": "Calle Maestro Cebrián 1",
      "codigo_postal": "23008",
      "telefono": "+34 953253025",
      "web": null,
      "instagram": null,
      "horario": null,
      "terraza": false
    },
    {
      "id": "osm_node_2285960721",
      "nombre": "Bar Moderno",
      "tipo": "bar",
      "lat": 37.7757172,
      "lon": -3.7848177,
      "direccion": "Calle la Luna",
      "codigo_postal": "23009",
      "telefono": "+34 637129927",
      "web": null,
      "instagram": null,
      "horario": null,
      "terraza": false
    },
    {
      "id": "osm_node_2286074840",
      "nombre": "Bar 68",
      "tipo": "bar",
      "lat": 37.7769807,
      "lon": -3.7851262,
      "direccion": "Avenida de Madrid 64",
      "codigo_postal": "23009",
      "telefono": null,
      "web": null,
      "instagram": null,
      "horario": null,
      "terraza": false
    },
    {
      "id": "osm_node_2292374129",
      "nombre": "Café - Bar Casa Manolo",
      "tipo": "bar",
      "lat": 37.7687376,
      "lon": -3.790598,
      "direccion": "Calle Magdalena del Prado 1",
      "codigo_postal": "23004",
      "telefono": "+34 652 58 89 27",
      "web": null,
      "instagram": null,
      "horario": "Mo-Th 07:00-17:00; Fr,Sa 07:00-17:00,20:00-24:00; Su 11:00-17:00",
      "terraza": false
    },
    {
      "id": "osm_node_2292379973",
      "nombre": "Chippie's",
      "tipo": "pub",
      "lat": 37.7689743,
      "lon": -3.7901515,
      "direccion": "Calle Magdalena del Prado 6",
      "codigo_postal": "23004",
      "telefono": "+34 953 08 17 96",
      "web": null,
      "instagram": null,
      "horario": null,
      "terraza": false
    },
    {
      "id": "osm_node_2292437196",
      "nombre": "El Comercial",
      "tipo": "cafe",
      "lat": 37.7666531,
      "lon": -3.7881156,
      "direccion": "Calle Bernabé Soriano 23",
      "codigo_postal": "23001",
      "telefono": "+34 687 70 67 50",
      "web": "https://www.losmejorescafesdejaen.es",
      "instagram": "https://www.instagram.com/elcomercialjaen/",
      "horario": null,
      "terraza": true
    },
    {
      "id": "osm_node_2292437198",
      "nombre": "La Vística",
      "tipo": "bar",
      "lat": 37.76674,
      "lon": -3.7879721,
      "direccion": "Calle Bernabé Soriano 29",
      "codigo_postal": "23001",
      "telefono": null,
      "web": null,
      "instagram": "https://www.instagram.com/lavistica_jaen/",
      "horario": null,
      "terraza": false
    },
    {
      "id": "osm_node_2292453348",
      "nombre": "Deán",
      "tipo": "pub",
      "lat": 37.7670185,
      "lon": -3.7879496,
      "direccion": "Calle Cronista Cazabán",
      "codigo_postal": "23001",
      "telefono": null,
      "web": null,
      "instagram": "https://www.instagram.com/bardeanplaza/",
      "horario": null,
      "terraza": false
    },
    {
      "id": "osm_node_2292453349",
      "nombre": "El Mercado",
      "tipo": "pub",
      "lat": 37.7669614,
      "lon": -3.7880236,
      "direccion": "Cronista Cazabán",
      "codigo_postal": "23001",
      "telefono": "+34 616 87 28 94",
      "web": null,
      "instagram": null,
      "horario": null,
      "terraza": false
    },
    {
      "id": "osm_node_2367753971",
      "nombre": "Churrería Marmolejo",
      "tipo": "cafe",
      "lat": 38.0469631,
      "lon": -4.1738727,
      "direccion": "Calle Pasaje de Jesús",
      "codigo_postal": "23770",
      "telefono": null,
      "web": null,
      "instagram": null,
      "horario": null,
      "terraza": true
    },
    {
      "id": "osm_node_2373751117",
      "nombre": "Café-Bar Yukatán",
      "tipo": "bar",
      "lat": 37.7778483,
      "lon": -3.7954942,
      "direccion": null,
      "codigo_postal": null,
      "telefono": null,
      "web": null,
      "instagram": null,
      "horario": null,
      "terraza": false
    },
    {
      "id": "osm_node_2405898896",
      "nombre": "Café Bar Jardín",
      "tipo": "pub",
      "lat": 37.7045518,
      "lon": -3.2859191,
      "direccion": null,
      "codigo_postal": "23550",
      "telefono": null,
      "web": null,
      "instagram": null,
      "horario": null,
      "terraza": false
    },
    {
      "id": "osm_node_2405915776",
      "nombre": "Pub Laura",
      "tipo": "pub",
      "lat": 37.7034233,
      "lon": -3.2861138,
      "direccion": "Calle de la Palma 25",
      "codigo_postal": "23550",
      "telefono": null,
      "web": null,
      "instagram": null,
      "horario": null,
      "terraza": false
    },
    {
      "id": "osm_node_2407827860",
      "nombre": "Cafe Bar Manolo",
      "tipo": "bar",
      "lat": 37.7039927,
      "lon": -3.28713,
      "direccion": "Calle Virgencica",
      "codigo_postal": null,
      "telefono": null,
      "web": null,
      "instagram": null,
      "horario": null,
      "terraza": false
    },
    {
      "id": "osm_node_2408303670",
      "nombre": "Kamaleon",
      "tipo": "bar",
      "lat": 37.7040675,
      "lon": -3.2874831,
      "direccion": "Calle Santa Ana",
      "codigo_postal": null,
      "telefono": "+34 953 397 057",
      "web": null,
      "instagram": null,
      "horario": null,
      "terraza": false
    },
    {
      "id": "osm_node_2408303671",
      "nombre": "Maray",
      "tipo": "pub",
      "lat": 37.7042197,
      "lon": -3.2875331,
      "direccion": "Calle Santa Ana 46",
      "codigo_postal": "23550",
      "telefono": null,
      "web": null,
      "instagram": null,
      "horario": null,
      "terraza": false
    },
    {
      "id": "osm_node_2435523558",
      "nombre": "Gallito",
      "tipo": "bar",
      "lat": 38.0183876,
      "lon": -3.3687149,
      "direccion": "Calle Madre de Dios",
      "codigo_postal": "23400",
      "telefono": null,
      "web": null,
      "instagram": null,
      "horario": null,
      "terraza": false
    },
    {
      "id": "osm_node_2435523561",
      "nombre": "Los Arcos",
      "tipo": "bar",
      "lat": 38.0191842,
      "lon": -3.3635382,
      "direccion": "Calle Villacarrillo",
      "codigo_postal": "23400",
      "telefono": null,
      "web": null,
      "instagram": null,
      "horario": null,
      "terraza": false
    },
    {
      "id": "osm_node_2435523564",
      "nombre": "Agustín",
      "tipo": "bar",
      "lat": 38.016285,
      "lon": -3.3668373,
      "direccion": "Avenida de Antonio Machado",
      "codigo_postal": "23400",
      "telefono": null,
      "web": null,
      "instagram": null,
      "horario": null,
      "terraza": false
    },
    {
      "id": "osm_node_2435523567",
      "nombre": "La Peña",
      "tipo": "bar",
      "lat": 38.0158229,
      "lon": -3.3672411,
      "direccion": "Avenida de Antonio Machado 19",
      "codigo_postal": "23400",
      "telefono": null,
      "web": null,
      "instagram": null,
      "horario": null,
      "terraza": false
    },
    {
      "id": "osm_node_2435523581",
      "nombre": "Pura Raza",
      "tipo": "pub",
      "lat": 38.0154297,
      "lon": -3.374524,
      "direccion": "Calle Picasso",
      "codigo_postal": "23400",
      "telefono": null,
      "web": null,
      "instagram": null,
      "horario": null,
      "terraza": false
    },
    {
      "id": "osm_node_2435523591",
      "nombre": "Notthinghan Prisa",
      "tipo": "bar",
      "lat": 38.0118224,
      "lon": -3.3786351,
      "direccion": "Avenida de Cristo Rey",
      "codigo_postal": "23400",
      "telefono": null,
      "web": null,
      "instagram": null,
      "horario": null,
      "terraza": false
    },
    {
      "id": "osm_node_2435523594",
      "nombre": "El Mirador",
      "tipo": "bar",
      "lat": 38.0078679,
      "lon": -3.36585,
      "direccion": "Calle Baja del Salvador 9",
      "codigo_postal": "23400",
      "telefono": null,
      "web": null,
      "instagram": null,
      "horario": null,
      "terraza": false
    },
    {
      "id": "osm_node_2435523595",
      "nombre": "Llámame Lola",
      "tipo": "bar",
      "lat": 38.0078712,
      "lon": -3.366031,
      "direccion": "Calle Baja del Salvador 5",
      "codigo_postal": "23400",
      "telefono": null,
      "web": null,
      "instagram": null,
      "horario": null,
      "terraza": false
    },
    {
      "id": "osm_node_2435523600",
      "nombre": "Ubedí Café-Copas",
      "tipo": "pub",
      "lat": 38.0111708,
      "lon": -3.3682168,
      "direccion": "Plaza de Doña Josefa Manuel",
      "codigo_postal": "23400",
      "telefono": null,
      "web": null,
      "instagram": null,
      "horario": null,
      "terraza": false
    },
    {
      "id": "osm_node_2435715951",
      "nombre": "Rock and Rolla",
      "tipo": "pub",
      "lat": 38.0092485,
      "lon": -3.3679226,
      "direccion": "Plaza Primero de Mayo 31",
      "codigo_postal": "23400",
      "telefono": null,
      "web": null,
      "instagram": null,
      "horario": null,
      "terraza": false
    },
    {
      "id": "osm_node_2437753349",
      "nombre": "La Parada",
      "tipo": "cafe",
      "lat": 37.7725114,
      "lon": -3.7835181,
      "direccion": "Calle Arquitecto Antonio Flórez Urdapilleta",
      "codigo_postal": "23003",
      "telefono": null,
      "web": null,
      "instagram": null,
      "horario": null,
      "terraza": false
    },
    {
      "id": "osm_node_2469794773",
      "nombre": "Cafetería Churrería 3 MMM",
      "tipo": "cafe",
      "lat": 37.777628,
      "lon": -3.7982076,
      "direccion": "Avenida de Andalucía 53",
      "codigo_postal": "23005",
      "telefono": null,
      "web": null,
      "instagram": null,
      "horario": null,
      "terraza": false
    },
    {
      "id": "osm_node_2472016900",
      "nombre": "Cafetería Oasis",
      "tipo": "cafe",
      "lat": 37.773408,
      "lon": -3.8954683,
      "direccion": null,
      "codigo_postal": null,
      "telefono": null,
      "web": null,
      "instagram": null,
      "horario": null,
      "terraza": false
    },
    {
      "id": "osm_node_2506244183",
      "nombre": "Café Bar La Calle",
      "tipo": "bar",
      "lat": 37.9139282,
      "lon": -3.1230244,
      "direccion": "Calle Valentín de las Marinas 9",
      "codigo_postal": null,
      "telefono": null,
      "web": null,
      "instagram": null,
      "horario": null,
      "terraza": false
    },
    {
      "id": "osm_node_2530746658",
      "nombre": "Bar Las Vegas",
      "tipo": "bar",
      "lat": 37.9110843,
      "lon": -3.0027967,
      "direccion": "Plaza de la Corredera 17",
      "codigo_postal": "23470",
      "telefono": null,
      "web": null,
      "instagram": null,
      "horario": "Mo-Fr 10:00-24:00; Sa-Su 10:00-02:00",
      "terraza": false
    },
    {
      "id": "osm_node_2532938856",
      "nombre": "Bar el Biruta",
      "tipo": "bar",
      "lat": 38.1556062,
      "lon": -3.0322805,
      "direccion": null,
      "codigo_postal": null,
      "telefono": null,
      "web": null,
      "instagram": null,
      "horario": null,
      "terraza": false
    },
    {
      "id": "osm_node_2541114657",
      "nombre": "Heladería Tentación",
      "tipo": "cafe",
      "lat": 37.78302,
      "lon": -3.7892739,
      "direccion": null,
      "codigo_postal": null,
      "telefono": null,
      "web": "https://tentacionadmon.wixsite.com/tentacion",
      "instagram": "https://www.instagram.com/tentacionjaen",
      "horario": null,
      "terraza": false
    },
    {
      "id": "osm_node_2541114661",
      "nombre": "Zahorí",
      "tipo": "cafe",
      "lat": 37.7833955,
      "lon": -3.7894224,
      "direccion": null,
      "codigo_postal": null,
      "telefono": null,
      "web": null,
      "instagram": null,
      "horario": null,
      "terraza": false
    },
    {
      "id": "osm_node_2554720679",
      "nombre": "Taberna La Abacería",
      "tipo": "pub",
      "lat": 37.8459637,
      "lon": -3.0670399,
      "direccion": null,
      "codigo_postal": null,
      "telefono": null,
      "web": null,
      "instagram": null,
      "horario": null,
      "terraza": false
    },
    {
      "id": "osm_node_2636747010",
      "nombre": "Bar Paradise",
      "tipo": "cafe",
      "lat": 38.0372119,
      "lon": -4.038997,
      "direccion": null,
      "codigo_postal": null,
      "telefono": null,
      "web": null,
      "instagram": null,
      "horario": null,
      "terraza": false
    },
    {
      "id": "osm_node_2710671070",
      "nombre": "Rincón de Ana",
      "tipo": "bar",
      "lat": 37.9201479,
      "lon": -2.9945591,
      "direccion": null,
      "codigo_postal": null,
      "telefono": null,
      "web": null,
      "instagram": null,
      "horario": null,
      "terraza": false
    },
    {
      "id": "osm_node_2769320425",
      "nombre": "Cafe Bar La Verbenilla",
      "tipo": "bar",
      "lat": 37.9134571,
      "lon": -3.1268556,
      "direccion": null,
      "codigo_postal": null,
      "telefono": null,
      "web": null,
      "instagram": null,
      "horario": "Tu-Su 07:00-01:00",
      "terraza": false
    },
    {
      "id": "osm_node_2769320426",
      "nombre": "Casa Luis",
      "tipo": "bar",
      "lat": 37.9134917,
      "lon": -3.1263279,
      "direccion": null,
      "codigo_postal": null,
      "telefono": null,
      "web": null,
      "instagram": null,
      "horario": null,
      "terraza": false
    },
    {
      "id": "osm_node_2770017175",
      "nombre": "Avenida",
      "tipo": "cafe",
      "lat": 37.9458787,
      "lon": -2.9204129,
      "direccion": "Avenida del Campillo",
      "codigo_postal": "23478",
      "telefono": null,
      "web": null,
      "instagram": null,
      "horario": null,
      "terraza": false
    },
    {
      "id": "osm_node_2770017190",
      "nombre": "Martín",
      "tipo": "cafe",
      "lat": 37.9458048,
      "lon": -2.920891,
      "direccion": "Avenida del Campillo",
      "codigo_postal": "23478",
      "telefono": null,
      "web": null,
      "instagram": null,
      "horario": null,
      "terraza": false
    },
    {
      "id": "osm_node_2770028070",
      "nombre": "Bar El Leñador",
      "tipo": "bar",
      "lat": 37.9196415,
      "lon": -2.929433,
      "direccion": null,
      "codigo_postal": "23479",
      "telefono": null,
      "web": null,
      "instagram": null,
      "horario": null,
      "terraza": false
    },
    {
      "id": "osm_node_2770040959",
      "nombre": "BAR CAFETERIA ANDALUCIA",
      "tipo": "bar",
      "lat": 37.9136482,
      "lon": -3.1161619,
      "direccion": null,
      "codigo_postal": null,
      "telefono": null,
      "web": null,
      "instagram": null,
      "horario": null,
      "terraza": false
    },
    {
      "id": "osm_node_2770040976",
      "nombre": "PUB EL QUINTO PINO",
      "tipo": "pub",
      "lat": 37.9136884,
      "lon": -3.1136801,
      "direccion": null,
      "codigo_postal": null,
      "telefono": null,
      "web": null,
      "instagram": null,
      "horario": null,
      "terraza": false
    },
    {
      "id": "osm_node_2770049491",
      "nombre": "Lara",
      "tipo": "bar",
      "lat": 37.9468365,
      "lon": -2.9210798,
      "direccion": "Avenida del Campillo",
      "codigo_postal": "23478",
      "telefono": null,
      "web": null,
      "instagram": null,
      "horario": null,
      "terraza": false
    },
    {
      "id": "osm_node_2770049493",
      "nombre": "Nydo",
      "tipo": "pub",
      "lat": 37.946145,
      "lon": -2.9206002,
      "direccion": "Calle Félix Rodríguez de la Fuente",
      "codigo_postal": "23478",
      "telefono": null,
      "web": null,
      "instagram": null,
      "horario": null,
      "terraza": false
    },
    {
      "id": "osm_node_2770055178",
      "nombre": "Bar Luis Tiscar",
      "tipo": "bar",
      "lat": 37.8873907,
      "lon": -3.1884471,
      "direccion": null,
      "codigo_postal": "23468",
      "telefono": null,
      "web": null,
      "instagram": null,
      "horario": null,
      "terraza": false
    },
    {
      "id": "osm_node_2770060071",
      "nombre": "\"Los Ángeles\"",
      "tipo": "pub",
      "lat": 37.9141242,
      "lon": -3.1182714,
      "direccion": "Calle Antonio Sánchez Bonil 26",
      "codigo_postal": null,
      "telefono": null,
      "web": null,
      "instagram": null,
      "horario": null,
      "terraza": false
    },
    {
      "id": "osm_node_2770079625",
      "nombre": "Margarita",
      "tipo": "bar",
      "lat": 37.9475225,
      "lon": -2.9207338,
      "direccion": "Avenida del Campillo",
      "codigo_postal": "23478",
      "telefono": null,
      "web": null,
      "instagram": null,
      "horario": null,
      "terraza": false
    },
    {
      "id": "osm_node_2770096150",
      "nombre": "El Refugio",
      "tipo": "pub",
      "lat": 37.946204,
      "lon": -2.9209445,
      "direccion": "Calle Félix Rodríguez de la Fuente",
      "codigo_postal": "23478",
      "telefono": null,
      "web": null,
      "instagram": null,
      "horario": null,
      "terraza": false
    },
    {
      "id": "osm_node_2770174946",
      "nombre": "Bar Los Pochos",
      "tipo": "bar",
      "lat": 37.9138199,
      "lon": -3.122099,
      "direccion": null,
      "codigo_postal": null,
      "telefono": null,
      "web": null,
      "instagram": null,
      "horario": null,
      "terraza": false
    },
    {
      "id": "osm_node_2770186508",
      "nombre": "Churrería Vilar",
      "tipo": "cafe",
      "lat": 37.9458747,
      "lon": -2.9527169,
      "direccion": null,
      "codigo_postal": null,
      "telefono": null,
      "web": null,
      "instagram": null,
      "horario": null,
      "terraza": false
    },
    {
      "id": "osm_node_2770186513",
      "nombre": "Octopus",
      "tipo": "pub",
      "lat": 37.9456127,
      "lon": -2.9531972,
      "direccion": null,
      "codigo_postal": null,
      "telefono": null,
      "web": null,
      "instagram": null,
      "horario": null,
      "terraza": false
    },
    {
      "id": "osm_node_2770199062",
      "nombre": "Puerta 77",
      "tipo": "bar",
      "lat": 37.9211335,
      "lon": -2.9928421,
      "direccion": null,
      "codigo_postal": null,
      "telefono": null,
      "web": null,
      "instagram": null,
      "horario": null,
      "terraza": false
    },
    {
      "id": "osm_node_2770204095",
      "nombre": "Pub Templo",
      "tipo": "pub",
      "lat": 37.9121058,
      "lon": -3.0010341,
      "direccion": null,
      "codigo_postal": null,
      "telefono": null,
      "web": null,
      "instagram": null,
      "horario": null,
      "terraza": false
    },
    {
      "id": "osm_node_2770204101",
      "nombre": "Zona 80",
      "tipo": "pub",
      "lat": 37.9112785,
      "lon": -3.0018627,
      "direccion": null,
      "codigo_postal": null,
      "telefono": null,
      "web": null,
      "instagram": null,
      "horario": null,
      "terraza": false
    },
    {
      "id": "osm_node_2771942937",
      "nombre": "Pub Antique",
      "tipo": "pub",
      "lat": 37.9138187,
      "lon": -3.0033318,
      "direccion": null,
      "codigo_postal": null,
      "telefono": null,
      "web": null,
      "instagram": null,
      "horario": "00:00+",
      "terraza": false
    },
    {
      "id": "osm_node_2772039753",
      "nombre": "Cafetería El Maño",
      "tipo": "cafe",
      "lat": 37.9142128,
      "lon": -3.0003359,
      "direccion": null,
      "codigo_postal": null,
      "telefono": null,
      "web": null,
      "instagram": null,
      "horario": null,
      "terraza": false
    },
    {
      "id": "osm_node_2772039799",
      "nombre": "Pub La Rana Verde",
      "tipo": "pub",
      "lat": 37.913074,
      "lon": -3.0005798,
      "direccion": null,
      "codigo_postal": null,
      "telefono": null,
      "web": null,
      "instagram": null,
      "horario": null,
      "terraza": false
    },
    {
      "id": "osm_node_2772086427",
      "nombre": "El Cruce",
      "tipo": "cafe",
      "lat": 37.9114847,
      "lon": -3.1223696,
      "direccion": null,
      "codigo_postal": null,
      "telefono": null,
      "web": null,
      "instagram": null,
      "horario": null,
      "terraza": false
    },
    {
      "id": "osm_node_2772117135",
      "nombre": "El Cortijo",
      "tipo": "cafe",
      "lat": 37.9135891,
      "lon": -3.1208592,
      "direccion": "Avenida de Andalucía 20",
      "codigo_postal": "23460",
      "telefono": null,
      "web": null,
      "instagram": null,
      "horario": null,
      "terraza": false
    },
    {
      "id": "osm_node_2772165384",
      "nombre": "Pub Camelot",
      "tipo": "pub",
      "lat": 37.913974,
      "lon": -3.0048171,
      "direccion": null,
      "codigo_postal": null,
      "telefono": null,
      "web": null,
      "instagram": null,
      "horario": null,
      "terraza": false
    },
    {
      "id": "osm_node_2772165388",
      "nombre": "Pub Indian",
      "tipo": "pub",
      "lat": 37.9139386,
      "lon": -3.0047578,
      "direccion": null,
      "codigo_postal": null,
      "telefono": null,
      "web": null,
      "instagram": null,
      "horario": null,
      "terraza": false
    },
    {
      "id": "osm_node_2772165392",
      "nombre": "Pub Millenium",
      "tipo": "pub",
      "lat": 37.9139252,
      "lon": -3.0035338,
      "direccion": null,
      "codigo_postal": null,
      "telefono": null,
      "web": null,
      "instagram": null,
      "horario": null,
      "terraza": false
    },
    {
      "id": "osm_node_2772165394",
      "nombre": "Sala Gold",
      "tipo": "pub",
      "lat": 37.9140683,
      "lon": -3.0049426,
      "direccion": null,
      "codigo_postal": null,
      "telefono": null,
      "web": null,
      "instagram": null,
      "horario": null,
      "terraza": false
    },
    {
      "id": "osm_node_2772193707",
      "nombre": "Churrería Los Valencianos",
      "tipo": "cafe",
      "lat": 37.9133392,
      "lon": -3.0030439,
      "direccion": null,
      "codigo_postal": null,
      "telefono": null,
      "web": null,
      "instagram": null,
      "horario": "8:00-24:00",
      "terraza": false
    },
    {
      "id": "osm_node_2772247150",
      "nombre": "Bar El asador",
      "tipo": "bar",
      "lat": 37.9145456,
      "lon": -3.0044263,
      "direccion": null,
      "codigo_postal": null,
      "telefono": null,
      "web": null,
      "instagram": null,
      "horario": null,
      "terraza": false
    },
    {
      "id": "osm_node_2772259587",
      "nombre": "Peña Madridista",
      "tipo": "bar",
      "lat": 37.9154622,
      "lon": -3.0046922,
      "direccion": null,
      "codigo_postal": null,
      "telefono": null,
      "web": null,
      "instagram": null,
      "horario": null,
      "terraza": false
    },
    {
      "id": "osm_node_2772274175",
      "nombre": "Cafe-Bar Hermanos Aibar",
      "tipo": "bar",
      "lat": 37.9107483,
      "lon": -3.0026909,
      "direccion": "Plaza de la Corredera",
      "codigo_postal": "23470",
      "telefono": null,
      "web": null,
      "instagram": null,
      "horario": null,
      "terraza": false
    },
    {
      "id": "osm_node_2772274193",
      "nombre": "Cafe-Bar Paco´s",
      "tipo": "cafe",
      "lat": 37.9131539,
      "lon": -3.0024753,
      "direccion": "Plaza de la Constitución",
      "codigo_postal": "23470",
      "telefono": null,
      "web": null,
      "instagram": null,
      "horario": null,
      "terraza": false
    },
    {
      "id": "osm_node_2774776732",
      "nombre": "Tres Ases",
      "tipo": "bar",
      "lat": 37.8459055,
      "lon": -3.0680182,
      "direccion": null,
      "codigo_postal": null,
      "telefono": null,
      "web": null,
      "instagram": null,
      "horario": null,
      "terraza": false
    },
    {
      "id": "osm_node_2774899155",
      "nombre": "Peña Real Madrid",
      "tipo": "pub",
      "lat": 37.8445496,
      "lon": -3.0664533,
      "direccion": null,
      "codigo_postal": null,
      "telefono": null,
      "web": null,
      "instagram": null,
      "horario": null,
      "terraza": false
    },
    {
      "id": "osm_node_2775028080",
      "nombre": "Aliseda",
      "tipo": "pub",
      "lat": 37.8462572,
      "lon": -3.0701789,
      "direccion": null,
      "codigo_postal": null,
      "telefono": null,
      "web": null,
      "instagram": null,
      "horario": null,
      "terraza": false
    },
    {
      "id": "osm_node_2775883135",
      "nombre": "Bar Cafetería Eolo",
      "tipo": "bar",
      "lat": 37.9137444,
      "lon": -3.1193086,
      "direccion": null,
      "codigo_postal": null,
      "telefono": null,
      "web": null,
      "instagram": null,
      "horario": null,
      "terraza": false
    },
    {
      "id": "osm_node_2775883136",
      "nombre": "Cafetería Heladería Delicias",
      "tipo": "cafe",
      "lat": 37.9137588,
      "lon": -3.1187621,
      "direccion": null,
      "codigo_postal": null,
      "telefono": null,
      "web": null,
      "instagram": null,
      "horario": null,
      "terraza": false
    },
    {
      "id": "osm_node_2775883138",
      "nombre": "Cafetería Heladería Piscis",
      "tipo": "cafe",
      "lat": 37.9137465,
      "lon": -3.1193844,
      "direccion": null,
      "codigo_postal": null,
      "telefono": null,
      "web": null,
      "instagram": null,
      "horario": null,
      "terraza": false
    },
    {
      "id": "osm_node_2775883139",
      "nombre": "Café Bar Alborada",
      "tipo": "bar",
      "lat": 37.9146776,
      "lon": -3.1217946,
      "direccion": null,
      "codigo_postal": null,
      "telefono": null,
      "web": null,
      "instagram": null,
      "horario": null,
      "terraza": false
    },
    {
      "id": "osm_node_2776826853",
      "nombre": "Cafe Bar \"Entre 3\"",
      "tipo": "bar",
      "lat": 37.8477521,
      "lon": -3.0679078,
      "direccion": null,
      "codigo_postal": null,
      "telefono": null,
      "web": null,
      "instagram": null,
      "horario": null,
      "terraza": false
    },
    {
      "id": "osm_node_2776856326",
      "nombre": "Ana",
      "tipo": "pub",
      "lat": 37.8462899,
      "lon": -3.0699706,
      "direccion": null,
      "codigo_postal": null,
      "telefono": null,
      "web": null,
      "instagram": null,
      "horario": null,
      "terraza": false
    },
    {
      "id": "osm_node_2776954316",
      "nombre": "bar chiringuito",
      "tipo": "bar",
      "lat": 37.7603963,
      "lon": -3.0286658,
      "direccion": null,
      "codigo_postal": null,
      "telefono": null,
      "web": null,
      "instagram": null,
      "horario": null,
      "terraza": false
    },
    {
      "id": "osm_node_2776966371",
      "nombre": "Café-Bar Caza y Pesca",
      "tipo": "pub",
      "lat": 37.8434646,
      "lon": -3.066841,
      "direccion": null,
      "codigo_postal": null,
      "telefono": null,
      "web": null,
      "instagram": null,
      "horario": null,
      "terraza": false
    },
    {
      "id": "osm_node_2776981177",
      "nombre": "Bar Avenida Nicol",
      "tipo": "pub",
      "lat": 37.8455219,
      "lon": -3.0670465,
      "direccion": null,
      "codigo_postal": null,
      "telefono": null,
      "web": null,
      "instagram": null,
      "horario": null,
      "terraza": false
    },
    {
      "id": "osm_node_2776981254",
      "nombre": "Pub La Cueva",
      "tipo": "pub",
      "lat": 37.8453239,
      "lon": -3.0665192,
      "direccion": null,
      "codigo_postal": null,
      "telefono": null,
      "web": null,
      "instagram": null,
      "horario": null,
      "terraza": false
    },
    {
      "id": "osm_node_2776981256",
      "nombre": "Pub Tetería Taranto",
      "tipo": "bar",
      "lat": 37.8454257,
      "lon": -3.0665637,
      "direccion": null,
      "codigo_postal": null,
      "telefono": null,
      "web": null,
      "instagram": null,
      "horario": null,
      "terraza": false
    },
    {
      "id": "osm_node_2783005594",
      "nombre": "Cervecería el Museo del Montadito",
      "tipo": "bar",
      "lat": 37.9122017,
      "lon": -3.004078,
      "direccion": "Plaza de Andalucía",
      "codigo_postal": "23470",
      "telefono": null,
      "web": null,
      "instagram": null,
      "horario": null,
      "terraza": false
    },
    {
      "id": "osm_node_2783005597",
      "nombre": "Gastro Bar La Sarga",
      "tipo": "bar",
      "lat": 37.9120416,
      "lon": -3.0039637,
      "direccion": "Plaza de Andalucía",
      "codigo_postal": "23470",
      "telefono": null,
      "web": null,
      "instagram": null,
      "horario": null,
      "terraza": false
    },
    {
      "id": "osm_node_2785174538",
      "nombre": "El Holl",
      "tipo": "pub",
      "lat": 37.9135127,
      "lon": -3.1207612,
      "direccion": "Calle Colón",
      "codigo_postal": "23460",
      "telefono": null,
      "web": null,
      "instagram": null,
      "horario": null,
      "terraza": false
    },
    {
      "id": "osm_node_2790938099",
      "nombre": "Café-Bar Sevilla",
      "tipo": "bar",
      "lat": 37.9123735,
      "lon": -3.121898,
      "direccion": "Calle Ramón y Cajal 3",
      "codigo_postal": null,
      "telefono": null,
      "web": null,
      "instagram": null,
      "horario": null,
      "terraza": false
    },
    {
      "id": "osm_node_2791056648",
      "nombre": "Los Ángeles",
      "tipo": "pub",
      "lat": 37.9138188,
      "lon": -3.1178855,
      "direccion": "Avenida de Andalucía 47",
      "codigo_postal": null,
      "telefono": null,
      "web": null,
      "instagram": null,
      "horario": null,
      "terraza": false
    },
    {
      "id": "osm_node_2791063652",
      "nombre": "Café-Bar Triana. Burguer",
      "tipo": "bar",
      "lat": 37.9136453,
      "lon": -3.1184702,
      "direccion": "Avenida de Andalucía 58",
      "codigo_postal": "23460",
      "telefono": null,
      "web": null,
      "instagram": null,
      "horario": null,
      "terraza": false
    },
    {
      "id": "osm_node_2794468160",
      "nombre": "Cafetería Eduardo",
      "tipo": "cafe",
      "lat": 37.9132422,
      "lon": -3.0027463,
      "direccion": "Plaza de la Constitución",
      "codigo_postal": "23470",
      "telefono": null,
      "web": null,
      "instagram": null,
      "horario": null,
      "terraza": false
    },
    {
      "id": "osm_node_2794468163",
      "nombre": "Cafetería Bar Rojas",
      "tipo": "bar",
      "lat": 37.9131091,
      "lon": -3.0028889,
      "direccion": "Plaza de la Constitución",
      "codigo_postal": "23470",
      "telefono": null,
      "web": null,
      "instagram": null,
      "horario": null,
      "terraza": false
    },
    {
      "id": "osm_node_2794468166",
      "nombre": "Café Rick´s",
      "tipo": "cafe",
      "lat": 37.9130234,
      "lon": -3.0030883,
      "direccion": "Avenida Cronista Lorenzo Polaino",
      "codigo_postal": null,
      "telefono": null,
      "web": null,
      "instagram": null,
      "horario": null,
      "terraza": false
    },
    {
      "id": "osm_node_2794468169",
      "nombre": "Café-Bar El Cura",
      "tipo": "cafe",
      "lat": 37.9128732,
      "lon": -3.0022837,
      "direccion": "Plaza de la Constitución",
      "codigo_postal": "23470",
      "telefono": null,
      "web": null,
      "instagram": null,
      "horario": "Mo-Sa 11:00-16:00,20:00-02:00",
      "terraza": false
    },
    {
      "id": "osm_node_2794468181",
      "nombre": "Hogar del Jubilado",
      "tipo": "pub",
      "lat": 37.9127396,
      "lon": -3.0031224,
      "direccion": "Plaza de la Constitución",
      "codigo_postal": "23470",
      "telefono": null,
      "web": null,
      "instagram": null,
      "horario": null,
      "terraza": false
    },
    {
      "id": "osm_node_2794468196",
      "nombre": "Sola",
      "tipo": "cafe",
      "lat": 37.9126015,
      "lon": -3.0026643,
      "direccion": null,
      "codigo_postal": null,
      "telefono": null,
      "web": null,
      "instagram": null,
      "horario": "Mo-Sa 06:30-12:00,13:00-22:00",
      "terraza": false
    },