{
  "ciudad": "Jerez de la Frontera",
  "total": 90,
  "locales": [
    {
      "id": "osm_node_525685287",
      "nombre": "Franjar",
      "tipo": "cafe",
      "lat": 36.6973246,
      "lon": -6.0961034,
      "direccion": null,
      "codigo_postal": null,
      "telefono": null,
      "web": null,
      "instagram": null,
      "horario": null,
      "terraza": false,
      "musica": null,
      "fuente": "openstreetmap"
    },
    {
      "id": "osm_node_1574608646",
      "nombre": "Café de Indias",
      "tipo": "cafe",
      "lat": 36.6923654,
      "lon": -6.1553865,
      "direccion": null,
      "codigo_postal": null,
      "telefono": null,
      "web": null,
      "instagram": null,
      "horario": null,
      "terraza": false,
      "musica": null,
      "fuente": "openstreetmap"
    },
    {
      "id": "osm_node_1574615225",
      "nombre": "Café de Indias",
      "tipo": "cafe",
      "lat": 36.6906024,
      "lon": -6.1560471,
      "direccion": null,
      "codigo_postal": null,
      "telefono": null,
      "web": null,
      "instagram": null,
      "horario": null,
      "terraza": false,
      "musica": null,
      "fuente": "openstreetmap"
    },
    {
      "id": "osm_node_1947567039",
      "nombre": "Café Bar Wimpy",
      "tipo": "cafe",
      "lat": 36.701661,
      "lon": -6.1405252,
      "direccion": null,
      "codigo_postal": null,
      "telefono": null,
      "web": null,
      "instagram": null,
      "horario": null,
      "terraza": false,
      "musica": null,
      "fuente": "openstreetmap"
    },
    {
      "id": "osm_node_3359854330",
      "nombre": "Tabanco El Pasaje",
      "tipo": "bar",
      "lat": 36.6828298,
      "lon": -6.136203,
      "direccion": null,
      "codigo_postal": null,
      "telefono": null,
      "web": null,
      "instagram": null,
      "horario": null,
      "terraza": false,
      "musica": null,
      "fuente": "openstreetmap"
    },
    {
      "id": "osm_node_3359854331",
      "nombre": "Tabanco San Pablo",
      "tipo": "bar",
      "lat": 36.6809397,
      "lon": -6.1366836,
      "direccion": "Calle San Pablo 12",
      "codigo_postal": null,
      "telefono": null,
      "web": null,
      "instagram": null,
      "horario": null,
      "terraza": false,
      "musica": null,
      "fuente": "openstreetmap"
    },
    {
      "id": "osm_node_3359867018",
      "nombre": "Tabanco el Guitarrón",
      "tipo": "bar",
      "lat": 36.6850543,
      "lon": -6.1347423,
      "direccion": "Calle Bizcocheros 16",
      "codigo_postal": "11402",
      "telefono": null,
      "web": null,
      "instagram": null,
      "horario": null,
      "terraza": false,
      "musica": null,
      "fuente": "openstreetmap"
    },
    {
      "id": "osm_node_3359886954",
      "nombre": "Tabanco Plaza Plateros No 1",
      "tipo": "bar",
      "lat": 36.6841178,
      "lon": -6.1387997,
      "direccion": "Calle Francos 1",
      "codigo_postal": "11403",
      "telefono": null,
      "web": null,
      "instagram": null,
      "horario": null,
      "terraza": false,
      "musica": null,
      "fuente": "openstreetmap"
    },
    {
      "id": "osm_node_3359886955",
      "nombre": "Bar La Moderna",
      "tipo": "bar",
      "lat": 36.6854403,
      "lon": -6.1366509,
      "direccion": null,
      "codigo_postal": null,
      "telefono": null,
      "web": null,
      "instagram": null,
      "horario": null,
      "terraza": false,
      "musica": null,
      "fuente": "openstreetmap"
    },
    {
      "id": "osm_node_3418445117",
      "nombre": "Moreno",
      "tipo": "cafe",
      "lat": 36.6081344,
      "lon": -5.9436677,
      "direccion": null,
      "codigo_postal": null,
      "telefono": null,
      "web": null,
      "instagram": null,
      "horario": null,
      "terraza": false,
      "musica": null,
      "fuente": "openstreetmap"
    },
    {
      "id": "osm_node_3545274675",
      "nombre": "Larga, 26",
      "tipo": "pub",
      "lat": 36.683896,
      "lon": -6.1364269,
      "direccion": null,
      "codigo_postal": null,
      "telefono": null,
      "web": null,
      "instagram": null,
      "horario": null,
      "terraza": false,
      "musica": null,
      "fuente": "openstreetmap"
    },
    {
      "id": "osm_node_4339025592",
      "nombre": "Cervecería Gorila",
      "tipo": "pub",
      "lat": 36.6840845,
      "lon": -6.1386216,
      "direccion": null,
      "codigo_postal": null,
      "telefono": null,
      "web": null,
      "instagram": null,
      "horario": null,
      "terraza": false,
      "musica": null,
      "fuente": "openstreetmap"
    },
    {
      "id": "osm_node_4343203928",
      "nombre": "La Rosa de Oro",
      "tipo": "cafe",
      "lat": 36.6820131,
      "lon": -6.1309014,
      "direccion": null,
      "codigo_postal": null,
      "telefono": null,
      "web": null,
      "instagram": null,
      "horario": "Mo-Su 09:00-21:00",
      "terraza": true,
      "musica": null,
      "fuente": "openstreetmap"
    },
    {
      "id": "osm_node_4344451142",
      "nombre": "Las Banderillas",
      "tipo": "bar",
      "lat": 36.6808583,
      "lon": -6.1370432,
      "direccion": null,
      "codigo_postal": null,
      "telefono": null,
      "web": null,
      "instagram": null,
      "horario": "Mo-Fr 20:00-00:00",
      "terraza": false,
      "musica": null,
      "fuente": "openstreetmap"
    },
    {
      "id": "osm_node_4344468444",
      "nombre": "El 7",
      "tipo": "cafe",
      "lat": 36.6810334,
      "lon": -6.1368211,
      "direccion": null,
      "codigo_postal": null,
      "telefono": null,
      "web": null,
      "instagram": null,
      "horario": null,
      "terraza": false,
      "musica": null,
      "fuente": "openstreetmap"
    },
    {
      "id": "osm_node_4345108989",
      "nombre": "Panda",
      "tipo": "bar",
      "lat": 36.6822908,
      "lon": -6.1379282,
      "direccion": "Calle Latorre",
      "codigo_postal": "11403",
      "telefono": null,
      "web": null,
      "instagram": null,
      "horario": null,
      "terraza": false,
      "musica": null,
      "fuente": "openstreetmap"
    },
    {
      "id": "osm_node_4377901393",
      "nombre": "La Holandesa",
      "tipo": "cafe",
      "lat": 36.7059354,
      "lon": -6.1155055,
      "direccion": null,
      "codigo_postal": null,
      "telefono": null,
      "web": null,
      "instagram": null,
      "horario": null,
      "terraza": false,
      "musica": null,
      "fuente": "openstreetmap"
    },
    {
      "id": "osm_node_4451464692",
      "nombre": "O'Donoghues's",
      "tipo": "bar",
      "lat": 36.6888398,
      "lon": -6.133619,
      "direccion": "Calle Nuño de Cañas 7",
      "codigo_postal": "11402",
      "telefono": null,
      "web": null,
      "instagram": null,
      "horario": null,
      "terraza": false,
      "musica": null,
      "fuente": "openstreetmap"
    },
    {
      "id": "osm_node_4543883889",
      "nombre": "Tabanco Plateros",
      "tipo": "bar",
      "lat": 36.6831987,
      "lon": -6.1380184,
      "direccion": "Calle Algarve 35",
      "codigo_postal": "11403",
      "telefono": null,
      "web": null,
      "instagram": null,
      "horario": null,
      "terraza": false,
      "musica": null,
      "fuente": "openstreetmap"
    },
    {
      "id": "osm_node_4809732622",
      "nombre": "Tabanco Paulino",
      "tipo": "bar",
      "lat": 36.6810069,
      "lon": -6.1369643,
      "direccion": null,
      "codigo_postal": null,
      "telefono": null,
      "web": null,
      "instagram": null,
      "horario": null,
      "terraza": false,
      "musica": null,
      "fuente": "openstreetmap"
    },
    {
      "id": "osm_node_5016592921",
      "nombre": "Bar Camarinal",
      "tipo": "bar",
      "lat": 36.706868,
      "lon": -6.114342,
      "direccion": "Calle Hermano Valeriano León Local 6",
      "codigo_postal": "11407",
      "telefono": "+34 687 88 00 23",
      "web": null,
      "instagram": "barcamarinal",
      "horario": null,
      "terraza": false,
      "musica": null,
      "fuente": "openstreetmap"
    },
    {
      "id": "osm_node_5018079221",
      "nombre": "Mi Sueño",
      "tipo": "bar",
      "lat": 36.7076521,
      "lon": -6.1132137,
      "direccion": null,
      "codigo_postal": null,
      "telefono": null,
      "web": null,
      "instagram": null,
      "horario": null,
      "terraza": false,
      "musica": null,
      "fuente": "openstreetmap"
    },
    {
      "id": "osm_node_5153820021",
      "nombre": "Cerveceria Botavino",
      "tipo": "pub",
      "lat": 36.6964789,
      "lon": -6.134167,
      "direccion": "Avenida de la Cruz Roja 3",
      "codigo_postal": "11407",
      "telefono": null,
      "web": null,
      "instagram": null,
      "horario": "Mo-Su 09:00-00:00",
      "terraza": false,
      "musica": null,
      "fuente": "openstreetmap"
    },
    {
      "id": "osm_node_5202532922",
      "nombre": "Julio Alacant",
      "tipo": "cafe",
      "lat": 36.6815527,
      "lon": -6.1344248,
      "direccion": null,
      "codigo_postal": null,
      "telefono": null,
      "web": null,
      "instagram": null,
      "horario": "Mo-Fr 08:00-13:30,16:00-18:00; Sa 08:00-14:00",
      "terraza": false,
      "musica": null,
      "fuente": "openstreetmap"
    },
    {
      "id": "osm_node_5286499511",
      "nombre": "Tabanco Mariñiquez",
      "tipo": "bar",
      "lat": 36.6797306,
      "lon": -6.1323043,
      "direccion": null,
      "codigo_postal": null,
      "telefono": null,
      "web": null,
      "instagram": null,
      "horario": null,
      "terraza": false,
      "musica": null,
      "fuente": "openstreetmap"
    },
    {
      "id": "osm_node_5375537826",
      "nombre": "La Nueva Tapita",
      "tipo": "bar",
      "lat": 36.7043914,
      "lon": -6.1130403,
      "direccion": "Avenida de Espera 2",
      "codigo_postal": "11407",
      "telefono": null,
      "web": null,
      "instagram": null,
      "horario": null,
      "terraza": true,
      "musica": null,
      "fuente": "openstreetmap"
    },
    {
      "id": "osm_node_5375567425",
      "nombre": "Havana Cafe",
      "tipo": "bar",
      "lat": 36.6909641,
      "lon": -6.1364155,
      "direccion": "Calle Cádiz",
      "codigo_postal": "11402",
      "telefono": null,
      "web": null,
      "instagram": null,
      "horario": null,
      "terraza": true,
      "musica": null,
      "fuente": "openstreetmap"
    },
    {
      "id": "osm_node_5578708621",
      "nombre": "La Carboneria",
      "tipo": "bar",
      "lat": 36.6826578,
      "lon": -6.1387778,
      "direccion": "Calle Letrados 7",
      "codigo_postal": null,
      "telefono": null,
      "web": null,
      "instagram": null,
      "horario": null,
      "terraza": false,
      "musica": null,
      "fuente": "openstreetmap"
    },
    {
      "id": "osm_node_5579083521",
      "nombre": "Camachuelo",
      "tipo": "bar",
      "lat": 36.6832833,
      "lon": -6.1377086,
      "direccion": "Plaza del Progreso",
      "codigo_postal": null,
      "telefono": null,
      "web": null,
      "instagram": null,
      "horario": null,
      "terraza": false,
      "musica": null,
      "fuente": "openstreetmap"
    },
    {
      "id": "osm_node_5579083522",
      "nombre": "La Foto",
      "tipo": "pub",
      "lat": 36.6831499,
      "lon": -6.1373739,
      "direccion": "Plaza del Progreso",
      "codigo_postal": null,
      "telefono": null,
      "web": null,
      "instagram": null,
      "horario": null,
      "terraza": false,
      "musica": null,
      "fuente": "openstreetmap"
    },
    {
      "id": "osm_node_6359171186",
      "nombre": "Coso",
      "tipo": "cafe",
      "lat": 36.6828285,
      "lon": -6.1352315,
      "direccion": "Plaza Romero Martínez 20",
      "codigo_postal": "11402",
      "telefono": "+34956320053",
      "web": "http://www.cosojerez.com/",
      "instagram": null,
      "horario": "Tu-Fr 09:00-20:00; Sa-Su 10:00-20:00",
      "terraza": true,
      "musica": null,
      "fuente": "openstreetmap"
    },
    {
      "id": "osm_node_6468676497",
      "nombre": "Cafetería Estación de Ferrocarril",
      "tipo": "cafe",
      "lat": 36.680251,
      "lon": -6.1267931,
      "direccion": null,
      "codigo_postal": null,
      "telefono": null,
      "web": null,
      "instagram": null,
      "horario": null,
      "terraza": false,
      "musica": null,
      "fuente": "openstreetmap"
    },
    {
      "id": "osm_node_6700610998",
      "nombre": "Monika",
      "tipo": "bar",
      "lat": 36.6828891,
      "lon": -6.1405423,
      "direccion": null,
      "codigo_postal": null,
      "telefono": null,
      "web": null,
      "instagram": null,
      "horario": null,
      "terraza": false,
      "musica": null,
      "fuente": "openstreetmap"
    },
    {
      "id": "osm_node_6700745312",
      "nombre": "Corredera",
      "tipo": "bar",
      "lat": 36.6812895,
      "lon": -6.1367281,
      "direccion": null,
      "codigo_postal": null,
      "telefono": null,
      "web": null,
      "instagram": null,
      "horario": null,
      "terraza": false,
      "musica": null,
      "fuente": "openstreetmap"
    },
    {
      "id": "osm_node_6873693685",
      "nombre": "Baretto",
      "tipo": "bar",
      "lat": 36.690045,
      "lon": -6.129114,
      "direccion": "Calle Manuel Rodríguez \"Manolete\" 4",
      "codigo_postal": "11405",
      "telefono": null,
      "web": null,
      "instagram": null,
      "horario": null,
      "terraza": false,
      "musica": null,
      "fuente": "openstreetmap"
    },
    {
      "id": "osm_node_7731797203",
      "nombre": "Destraperlo Comando Cervecero",
      "tipo": "pub",
      "lat": 36.6507,
      "lon": -6.1272343,
      "direccion": "Calle Tanzania 3",
      "codigo_postal": null,
      "telefono": "+34691046568",
      "web": "https://destraperlo.es/",
      "instagram": "@destraperlocraftbeer",
      "horario": "Mo-Fr 10:00-15:00",
      "terraza": false,
      "musica": null,
      "fuente": "openstreetmap"
    },
    {
      "id": "osm_node_7925011785",
      "nombre": "El Bodegón",
      "tipo": "cafe",
      "lat": 36.6800343,
      "lon": -6.1272156,
      "direccion": "Plaza de la Estación",
      "codigo_postal": null,
      "telefono": null,
      "web": null,
      "instagram": null,
      "horario": null,
      "terraza": false,
      "musica": null,
      "fuente": "openstreetmap"
    },
    {
      "id": "osm_node_7925011886",
      "nombre": "Santa Ana II",
      "tipo": "bar",
      "lat": 36.6798368,
      "lon": -6.1273587,
      "direccion": null,
      "codigo_postal": null,
      "telefono": null,
      "web": null,
      "instagram": null,
      "horario": null,
      "terraza": false,
      "musica": null,
      "fuente": "openstreetmap"
    },
    {
      "id": "osm_node_8614988672",
      "nombre": "La Posada de la Abuela",
      "tipo": "cafe",
      "lat": 36.709957,
      "lon": -6.0897491,
      "direccion": null,
      "codigo_postal": null,
      "telefono": null,
      "web": null,
      "instagram": null,
      "horario": null,
      "terraza": false,
      "musica": null,
      "fuente": "openstreetmap"
    },
    {
      "id": "osm_node_8632779328",
      "nombre": "Peña flamenca",
      "tipo": "bar",
      "lat": 36.6491528,
      "lon": -5.9349516,
      "direccion": "Calle Cortes 4",
      "codigo_postal": "11570",
      "telefono": null,
      "web": null,
      "instagram": null,
      "horario": null,
      "terraza": false,
      "musica": null,
      "fuente": "openstreetmap"
    },
    {
      "id": "osm_node_9015266151",
      "nombre": "Pub Castillo",
      "tipo": "bar",
      "lat": 36.7585658,
      "lon": -6.0317798,
      "direccion": null,
      "codigo_postal": null,
      "telefono": null,
      "web": null,
      "instagram": null,
      "horario": null,
      "terraza": false,
      "musica": null,
      "fuente": "openstreetmap"
    },
    {
      "id": "osm_node_9521983936",
      "nombre": "Bar Nuevo Ramírez",
      "tipo": "bar",
      "lat": 36.6691214,
      "lon": -6.1266036,
      "direccion": null,
      "codigo_postal": null,
      "telefono": null,
      "web": null,
      "instagram": null,
      "horario": null,
      "terraza": false,
      "musica": null,
      "fuente": "openstreetmap"
    },
    {
      "id": "osm_node_10277739709",
      "nombre": "Sushi Panda",
      "tipo": "cafe",
      "lat": 36.6825931,
      "lon": -6.1378879,
      "direccion": null,
      "codigo_postal": null,
      "telefono": null,
      "web": null,
      "instagram": null,
      "horario": null,
      "terraza": false,
      "musica": null,
      "fuente": "openstreetmap"
    },
    {
      "id": "osm_node_11302045062",
      "nombre": "La Bien Pagá Tabancopla",
      "tipo": "bar",
      "lat": 36.6822191,
      "lon": -6.1388225,
      "direccion": "Plaza Vargas 2",
      "codigo_postal": "11403",
      "telefono": null,
      "web": null,
      "instagram": null,
      "horario": null,
      "terraza": false,
      "musica": null,
      "fuente": "openstreetmap"
    },
    {
      "id": "osm_node_11302092985",
      "nombre": "55 Jazz Club",
      "tipo": "bar",
      "lat": 36.6837272,
      "lon": -6.1390982,
      "direccion": "Calle Chapinería 3",
      "codigo_postal": "11403",
      "telefono": null,
      "web": null,
      "instagram": null,
      "horario": null,
      "terraza": false,
      "musica": null,
      "fuente": "openstreetmap"
    },
    {
      "id": "osm_node_11302092986",
      "nombre": "Santos Pecados",
      "tipo": "bar",
      "lat": 36.6839297,
      "lon": -6.139319,
      "direccion": "Calle Chapinería 3",
      "codigo_postal": "11403",
      "telefono": null,
      "web": null,
      "instagram": null,
      "horario": null,
      "terraza": false,
      "musica": null,
      "fuente": "openstreetmap"
    },
    {
      "id": "osm_node_11304889756",
      "nombre": "La Librería Rock Bar",
      "tipo": "bar",
      "lat": 36.6845367,
      "lon": -6.1390936,
      "direccion": "Calle Francos 10",
      "codigo_postal": "11403",
      "telefono": null,
      "web": null,
      "instagram": null,
      "horario": null,
      "terraza": false,
      "musica": null,
      "fuente": "openstreetmap"
    },
    {
      "id": "osm_node_12086685742",
      "nombre": "Matria",
      "tipo": "cafe",
      "lat": 36.6824237,
      "lon": -6.1338003,
      "direccion": null,
      "codigo_postal": null,
      "telefono": null,
      "web": null,
      "instagram": null,
      "horario": "Mo-Th 08:30-15:00; Fr,Sa 09:00-15:00,20:30-24:00",
      "terraza": false,
      "musica": null,
      "fuente": "openstreetmap"
    },
    {
      "id": "osm_node_12086907041",
      "nombre": "Bar Los Niños",
      "tipo": "cafe",
      "lat": 36.6824737,
      "lon": -6.1302542,
      "direccion": null,
      "codigo_postal": null,
      "telefono": null,
      "web": null,
      "instagram": null,
      "horario": null,
      "terraza": false,
      "musica": null,
      "fuente": "openstreetmap"
    },
    {
      "id": "osm_node_12101128885",
      "nombre": "Bar Sherry",
      "tipo": "pub",
      "lat": 36.6806992,
      "lon": -6.1296257,
      "direccion": null,
      "codigo_postal": null,
      "telefono": null,
      "web": null,
      "instagram": null,
      "horario": "Mo-Su 08:15-22:00",
      "terraza": false,
      "musica": null,
      "fuente": "openstreetmap"
    },
    {
      "id": "osm_node_12115500553",
      "nombre": "La manzanilla",
      "tipo": "pub",
      "lat": 36.6829139,
      "lon": -6.1359919,
      "direccion": null,
      "codigo_postal": null,
      "telefono": null,
      "web": null,
      "instagram": null,
      "horario": null,
      "terraza": false,
      "musica": null,
      "fuente": "openstreetmap"
    },
    {
      "id": "osm_node_12119765639",
      "nombre": "27 Café",
      "tipo": "pub",
      "lat": 36.6805984,
      "lon": -6.1340312,
      "direccion": null,
      "codigo_postal": null,
      "telefono": null,
      "web": null,
      "instagram": null,
      "horario": null,
      "terraza": false,
      "musica": null,
      "fuente": "openstreetmap"
    },
    {
      "id": "osm_node_12222042231",
      "nombre": "Bar San Pedro",
      "tipo": "bar",
      "lat": 36.6851633,
      "lon": -6.135909,
      "direccion": "Calle Bizcocheros 2",
      "codigo_postal": null,
      "telefono": "+34 651 49 50 44",
      "web": null,
      "instagram": null,
      "horario": "Mo-Fr 07:00-13:00",
      "terraza": false,
      "musica": null,
      "fuente": "openstreetmap"
    },
    {
      "id": "osm_node_12253203228",
      "nombre": "Charlotte",
      "tipo": "cafe",
      "lat": 36.6925309,
      "lon": -6.1550893,
      "direccion": null,
      "codigo_postal": null,
      "telefono": null,
      "web": null,
      "instagram": null,
      "horario": null,
      "terraza": false,
      "musica": null,
      "fuente": "openstreetmap"
    },
    {
      "id": "osm_node_12255561602",
      "nombre": "Krombol",
      "tipo": "cafe",
      "lat": 36.6911909,
      "lon": -6.1290836,
      "direccion": "Calle José Cádiz Salvatierra 7D",
      "codigo_postal": "11405",
      "telefono": "+34 856 04 80 28",
      "web": null,
      "instagram": null,
      "horario": "Mo off; Tu-Fr 08:30-12:30,16:30-20:30; Sa-Su 09:00-13:00,16:30-20:30",
      "terraza": true,
      "musica": null,
      "fuente": "openstreetmap"
    },
    {
      "id": "osm_node_12327078651",
      "nombre": "La Jarrita",
      "tipo": "bar",
      "lat": 36.6918163,
      "lon": -6.1292518,
      "direccion": null,
      "codigo_postal": null,
      "telefono": null,
      "web": null,
      "instagram": null,
      "horario": null,
      "terraza": false,
      "musica": null,
      "fuente": "openstreetmap"
    },
    {
      "id": "osm_node_12327281177",
      "nombre": "A lo Grande",
      "tipo": "bar",
      "lat": 36.6942332,
      "lon": -6.1278042,
      "direccion": null,
      "codigo_postal": null,
      "telefono": null,
      "web": null,
      "instagram": null,
      "horario": null,
      "terraza": false,
      "musica": null,
      "fuente": "openstreetmap"
    },
    {
      "id": "osm_node_12403366401",
      "nombre": "El Cafetal",
      "tipo": "bar",
      "lat": 36.6871005,
      "lon": -6.1168857,
      "direccion": "Avenida Rafa Verdú 6",
      "codigo_postal": "11405",
      "telefono": "+34 697 61 28 65",
      "web": null,
      "instagram": null,
      "horario": null,
      "terraza": false,
      "musica": null,
      "fuente": "openstreetmap"
    },
    {
      "id": "osm_node_12545976298",
      "nombre": "Los Reyes",
      "tipo": "cafe",
      "lat": 36.6807766,
      "lon": -6.1380828,
      "direccion": null,
      "codigo_postal": null,
      "telefono": null,
      "web": null,
      "instagram": null,
      "horario": null,
      "terraza": true,
      "musica": null,
      "fuente": "openstreetmap"
    },
    {
      "id": "osm_node_12553365671",
      "nombre": "Coco Café",
      "tipo": "cafe",
      "lat": 36.7086284,
      "lon": -6.1332135,
      "direccion": "Calle Costa del Azahar 4",
      "codigo_postal": "11407",
      "telefono": "+34 956 61 31 22",
      "web": "https://cococafe.es",
      "instagram": null,
      "horario": "07:30-20:30",
      "terraza": false,
      "musica": null,
      "fuente": "openstreetmap"
    },
    {
      "id": "osm_node_12568188577",
      "nombre": "Bar No Ni Na",
      "tipo": "cafe",
      "lat": 36.6886734,
      "lon": -6.1405603,
      "direccion": null,
      "codigo_postal": null,
      "telefono": null,
      "web": null,
      "instagram": null,
      "horario": null,
      "terraza": false,
      "musica": null,
      "fuente": "openstreetmap"
    },
    {
      "id": "osm_node_12570767292",
      "nombre": "Cafetería La Guida",
      "tipo": "cafe",
      "lat": 36.6838255,
      "lon": -6.13826,
      "direccion": null,
      "codigo_postal": null,
      "telefono": null,
      "web": null,
      "instagram": null,
      "horario": null,
      "terraza": false,
      "musica": null,
      "fuente": "openstreetmap"
    },
    {
      "id": "osm_node_12581877358",
      "nombre": "Bar Cafeteria Poniente",
      "tipo": "cafe",
      "lat": 36.6811428,
      "lon": -6.1338623,
      "direccion": null,
      "codigo_postal": null,
      "telefono": null,
      "web": null,
      "instagram": null,
      "horario": null,
      "terraza": false,
      "musica": null,
      "fuente": "openstreetmap"
    },
    {
      "id": "osm_node_12581894082",
      "nombre": "Bar Cafeteria Levante",
      "tipo": "cafe",
      "lat": 36.6811797,
      "lon": -6.1339607,
      "direccion": null,
      "codigo_postal": null,
      "telefono": null,
      "web": null,
      "instagram": null,
      "horario": null,
      "terraza": false,
      "musica": null,
      "fuente": "openstreetmap"
    },
    {
      "id": "osm_node_12713019634",
      "nombre": "Con Bully",
      "tipo": "bar",
      "lat": 36.6831588,
      "lon": -6.1380417,
      "direccion": null,
      "codigo_postal": null,
      "telefono": null,
      "web": null,
      "instagram": null,
      "horario": null,
      "terraza": false,
      "musica": null,
      "fuente": "openstreetmap"
    },
    {
      "id": "osm_node_12754807421",
      "nombre": "Entretapas",
      "tipo": "pub",
      "lat": 36.6796288,
      "lon": -6.1282394,
      "direccion": null,
      "codigo_postal": null,
      "telefono": null,
      "web": null,
      "instagram": null,
      "horario": null,
      "terraza": false,
      "musica": null,
      "fuente": "openstreetmap"
    },
    {
      "id": "osm_node_12909179205",
      "nombre": "Bar La Gañanía",
      "tipo": "bar",
      "lat": 36.6839437,
      "lon": -6.0753559,
      "direccion": "Calle Hijuela 30",
      "codigo_postal": "11593",
      "telefono": null,
      "web": null,
      "instagram": null,
      "horario": null,
      "terraza": false,
      "musica": null,
      "fuente": "openstreetmap"
    },
    {
      "id": "osm_node_12960491548",
      "nombre": "Bar Bujío",
      "tipo": "bar",
      "lat": 36.679182,
      "lon": -6.1353923,
      "direccion": "Plaza de la Cruz Vieja 3",
      "codigo_postal": "11402",
      "telefono": null,
      "web": null,
      "instagram": null,
      "horario": null,
      "terraza": false,
      "musica": null,
      "fuente": "openstreetmap"
    },
    {
      "id": "osm_node_13009019279",
      "nombre": "La vermutería del Sherry",
      "tipo": "bar",
      "lat": 36.6930132,
      "lon": -6.1345283,
      "direccion": "Avenida Alcalde Álvaro Domecq 1",
      "codigo_postal": "11407",
      "telefono": null,
      "web": "https://www.hipotels.com/en/hotels/sherrypark/services/",
      "instagram": null,
      "horario": "Mo-Su 12:00-24:00",
      "terraza": false,
      "musica": null,
      "fuente": "openstreetmap"
    },
    {
      "id": "osm_node_13020819401",
      "nombre": "Bar Marocla",
      "tipo": "bar",
      "lat": 36.6823659,
      "lon": -6.1377713,
      "direccion": null,
      "codigo_postal": null,
      "telefono": null,
      "web": null,
      "instagram": null,
      "horario": null,
      "terraza": false,
      "musica": null,
      "fuente": "openstreetmap"
    },
    {
      "id": "osm_node_13278011835",
      "nombre": "La Cazuela",
      "tipo": "pub",
      "lat": 36.6811934,
      "lon": -6.1243504,
      "direccion": null,
      "codigo_postal": null,
      "telefono": null,
      "web": null,
      "instagram": null,
      "horario": null,
      "terraza": false,
      "musica": null,
      "fuente": "openstreetmap"
    },
    {
      "id": "osm_node_13386139901",
      "nombre": "DK shots",
      "tipo": "bar",
      "lat": 36.6847569,
      "lon": -6.1382702,
      "direccion": null,
      "codigo_postal": null,
      "telefono": null,
      "web": null,
      "instagram": null,
      "horario": null,
      "terraza": false,
      "musica": null,
      "fuente": "openstreetmap"
    },
    {
      "id": "osm_node_13401352701",
      "nombre": "Bar Restaurante Ciudad del Transporte",
      "tipo": "bar",
      "lat": 36.7236312,
      "lon": -6.0933904,
      "direccion": "Calle Lira",
      "codigo_postal": null,
      "telefono": null,
      "web": null,
      "instagram": null,
      "horario": null,
      "terraza": false,
      "musica": null,
      "fuente": "openstreetmap"
    },
    {
      "id": "osm_node_13529553802",
      "nombre": "Cafetería Bar \"El Campero\"",
      "tipo": "bar",
      "lat": 36.7293474,
      "lon": -6.0884037,
      "direccion": "Avenida de la Innovación",
      "codigo_postal": null,
      "telefono": null,
      "web": null,
      "instagram": null,
      "horario": null,
      "terraza": false,
      "musica": null,
      "fuente": "openstreetmap"
    },
    {
      "id": "osm_node_13534938505",
      "nombre": "La Pirulina",
      "tipo": "cafe",
      "lat": 36.6863639,
      "lon": -6.1381901,
      "direccion": null,
      "codigo_postal": null,
      "telefono": null,
      "web": null,
      "instagram": null,
      "horario": null,
      "terraza": false,
      "musica": null,
      "fuente": "openstreetmap"
    },
    {
      "id": "osm_way_242081002",
      "nombre": "Sendaland",
      "tipo": "cafe",
      "lat": 36.700329,
      "lon": -6.116019,
      "direccion": "Calle Sirius 18",
      "codigo_postal": "11405",
      "telefono": "+34 956 32 63 20",
      "web": "http://www.sendaland.com/",
      "instagram": null,
      "horario": null,
      "terraza": false,
      "musica": null,
      "fuente": "openstreetmap"
    },
    {
      "id": "osm_way_298001074",
      "nombre": "La Vega Copas",
      "tipo": "bar",
      "lat": 36.682117,
      "lon": -6.136424,
      "direccion": "Plaza Esteve 3",
      "codigo_postal": "11402",
      "telefono": null,
      "web": null,
      "instagram": null,
      "horario": null,
      "terraza": true,
      "musica": null,
      "fuente": "openstreetmap"
    },
    {
      "id": "osm_way_298532157",
      "nombre": "Snack Bar El Escondite",
      "tipo": "bar",
      "lat": 36.691525,
      "lon": -6.10152,
      "direccion": null,
      "codigo_postal": null,
      "telefono": "+34 956326320",
      "web": "http://www.venalaciudad.com/",
      "instagram": null,
      "horario": null,
      "terraza": false,
      "musica": null,
      "fuente": "openstreetmap"
    },
    {
      "id": "osm_way_301243543",
      "nombre": "Damajuana",
      "tipo": "bar",
      "lat": 36.684988,
      "lon": -6.139488,
      "direccion": "Calle Francos 18",
      "codigo_postal": "11403",
      "telefono": null,
      "web": null,
      "instagram": null,
      "horario": null,
      "terraza": true,
      "musica": null,
      "fuente": "openstreetmap"
    },
    {
      "id": "osm_way_397459871",
      "nombre": "Venta Montero",
      "tipo": "cafe",
      "lat": 36.680412,
      "lon": -6.152751,
      "direccion": null,
      "codigo_postal": null,
      "telefono": null,
      "web": null,
      "instagram": null,
      "horario": null,
      "terraza": false,
      "musica": null,
      "fuente": "openstreetmap"
    },
    {
      "id": "osm_way_397989442",
      "nombre": "Kapote - Tribbeca",
      "tipo": "bar",
      "lat": 36.692641,
      "lon": -6.132728,
      "direccion": null,
      "codigo_postal": null,
      "telefono": null,
      "web": null,
      "instagram": null,
      "horario": null,
      "terraza": false,
      "musica": null,
      "fuente": "openstreetmap"
    },
    {
      "id": "osm_way_397989443",
      "nombre": "Iroko",
      "tipo": "bar",
      "lat": 36.69291,
      "lon": -6.1323,
      "direccion": null,
      "codigo_postal": null,
      "telefono": null,
      "web": null,
      "instagram": null,
      "horario": null,
      "terraza": false,
      "musica": null,
      "fuente": "openstreetmap"
    },
    {
      "id": "osm_way_398386998",
      "nombre": "Tabanco La Pandilla",
      "tipo": "pub",
      "lat": 36.685842,
      "lon": -6.133628,
      "direccion": null,
      "codigo_postal": null,
      "telefono": null,
      "web": null,
      "instagram": null,
      "horario": null,
      "terraza": false,
      "musica": null,
      "fuente": "openstreetmap"
    },
    {
      "id": "osm_way_404288460",
      "nombre": "Bar Cristóbal",
      "tipo": "pub",
      "lat": 36.682249,
      "lon": -6.115957,
      "direccion": null,
      "codigo_postal": null,
      "telefono": null,
      "web": null,
      "instagram": null,
      "horario": null,
      "terraza": false,
      "musica": null,
      "fuente": "openstreetmap"
    },
    {
      "id": "osm_way_404288462",
      "nombre": "Churrería Bar El Cazador",
      "tipo": "cafe",
      "lat": 36.682987,
      "lon": -6.115034,
      "direccion": null,
      "codigo_postal": null,
      "telefono": null,
      "web": null,
      "instagram": null,
      "horario": null,
      "terraza": false,
      "musica": null,
      "fuente": "openstreetmap"
    },
    {
      "id": "osm_way_569324155",
      "nombre": "Bar Cafetería El Lago",
      "tipo": "cafe",
      "lat": 36.686991,
      "lon": -6.100207,
      "direccion": null,
      "codigo_postal": null,
      "telefono": null,
      "web": null,
      "instagram": null,
      "horario": null,
      "terraza": false,
      "musica": null,
      "fuente": "openstreetmap"
    },
    {
      "id": "osm_way_594283948",
      "nombre": "Más Café Copas",
      "tipo": "bar",
      "lat": 36.682142,
      "lon": -6.110907,
      "direccion": null,
      "codigo_postal": null,
      "telefono": null,
      "web": null,
      "instagram": null,
      "horario": null,
      "terraza": false,
      "musica": null,
      "fuente": "openstreetmap"
    },
    {
      "id": "osm_way_622401544",
      "nombre": "Generalife",
      "tipo": "pub",
      "lat": 36.680771,
      "lon": -6.123432,
      "direccion": null,
      "codigo_postal": null,
      "telefono": null,
      "web": null,
      "instagram": null,
      "horario": "Mo-Su 12:00-24:00",
      "terraza": false,
      "musica": null,
      "fuente": "openstreetmap"
    },
    {
      "id": "osm_way_858713454",
      "nombre": "Hontoria Garden Bar",
      "tipo": "bar",
      "lat": 36.695693,
      "lon": -6.127973,
      "direccion": null,
      "codigo_postal": null,
      "telefono": null,
      "web": "http://www.hontoriagarden.com",
      "instagram": null,
      "horario": null,
      "terraza": false,
      "musica": null,
      "fuente": "openstreetmap"
    },
    {
      "id": "osm_way_1229108997",
      "nombre": "Brothers",
      "tipo": "bar",
      "lat": 36.68746,
      "lon": -6.128262,
      "direccion": "Avenida Nuestra Señora de la Paz 23",
      "codigo_postal": null,
      "telefono": null,
      "web": null,
      "instagram": null,
      "horario": null,
      "terraza": false,
      "musica": null,
      "fuente": "openstreetmap"
    }
  ]
}