{
  "ciudad": "Lorca",
  "total": 19,
  "locales": [
    {
      "id": "osm_node_1282685743",
      "nombre": "Café-cocina Santo Domingo",
      "tipo": "cafe",
      "lat": 37.6778999,
      "lon": -1.6965754,
      "direccion": null,
      "codigo_postal": null,
      "telefono": "+34 968477036",
      "web": null,
      "instagram": null,
      "horario": null,
      "terraza": false,
      "musica": null,
      "fuente": "openstreetmap"
    },
    {
      "id": "osm_node_1512591594",
      "nombre": "Cervecería Alblanca",
      "tipo": "bar",
      "lat": 37.6734558,
      "lon": -1.6980814,
      "direccion": null,
      "codigo_postal": null,
      "telefono": null,
      "web": null,
      "instagram": null,
      "horario": null,
      "terraza": false,
      "musica": null,
      "fuente": "openstreetmap"
    },
    {
      "id": "osm_node_1512593423",
      "nombre": "Mil Novecientos",
      "tipo": "bar",
      "lat": 37.6736437,
      "lon": -1.6979135,
      "direccion": null,
      "codigo_postal": null,
      "telefono": null,
      "web": null,
      "instagram": null,
      "horario": null,
      "terraza": false,
      "musica": null,
      "fuente": "openstreetmap"
    },
    {
      "id": "osm_node_1512597631",
      "nombre": "Platea",
      "tipo": "bar",
      "lat": 37.6724791,
      "lon": -1.6986906,
      "direccion": null,
      "codigo_postal": null,
      "telefono": null,
      "web": null,
      "instagram": null,
      "horario": null,
      "terraza": false,
      "musica": null,
      "fuente": "openstreetmap"
    },
    {
      "id": "osm_node_1604474344",
      "nombre": "La Vieja Cuba",
      "tipo": "bar",
      "lat": 37.6635614,
      "lon": -1.7037076,
      "direccion": null,
      "codigo_postal": null,
      "telefono": null,
      "web": null,
      "instagram": null,
      "horario": null,
      "terraza": false,
      "musica": null,
      "fuente": "openstreetmap"
    },
    {
      "id": "osm_node_1769075079",
      "nombre": "Expresso",
      "tipo": "cafe",
      "lat": 37.6731556,
      "lon": -1.7000382,
      "direccion": null,
      "codigo_postal": null,
      "telefono": null,
      "web": null,
      "instagram": null,
      "horario": null,
      "terraza": false,
      "musica": null,
      "fuente": "openstreetmap"
    },
    {
      "id": "osm_node_1769075102",
      "nombre": "Expresso",
      "tipo": "cafe",
      "lat": 37.6724807,
      "lon": -1.697643,
      "direccion": null,
      "codigo_postal": null,
      "telefono": null,
      "web": null,
      "instagram": null,
      "horario": null,
      "terraza": false,
      "musica": null,
      "fuente": "openstreetmap"
    },
    {
      "id": "osm_node_2344637821",
      "nombre": "Asociación de Vecinos de Tiata",
      "tipo": "cafe",
      "lat": 37.6635446,
      "lon": -1.6877559,
      "direccion": null,
      "codigo_postal": null,
      "telefono": null,
      "web": null,
      "instagram": null,
      "horario": null,
      "terraza": false,
      "musica": null,
      "fuente": "openstreetmap"
    },
    {
      "id": "osm_node_2389543332",
      "nombre": "La Piscina",
      "tipo": "bar",
      "lat": 37.5091066,
      "lon": -1.7237324,
      "direccion": null,
      "codigo_postal": null,
      "telefono": null,
      "web": null,
      "instagram": null,
      "horario": null,
      "terraza": false,
      "musica": null,
      "fuente": "openstreetmap"
    },
    {
      "id": "osm_node_2422403943",
      "nombre": "Las Torres",
      "tipo": "cafe",
      "lat": 37.6641772,
      "lon": -1.7034507,
      "direccion": null,
      "codigo_postal": null,
      "telefono": null,
      "web": null,
      "instagram": null,
      "horario": null,
      "terraza": false,
      "musica": null,
      "fuente": "openstreetmap"
    },
    {
      "id": "osm_node_2429640200",
      "nombre": "Nova",
      "tipo": "cafe",
      "lat": 37.6740349,
      "lon": -1.6972382,
      "direccion": null,
      "codigo_postal": null,
      "telefono": null,
      "web": null,
      "instagram": null,
      "horario": null,
      "terraza": false,
      "musica": null,
      "fuente": "openstreetmap"
    },
    {
      "id": "osm_node_2449542277",
      "nombre": "Hermanos Bayonas",
      "tipo": "bar",
      "lat": 37.6812846,
      "lon": -1.6502054,
      "direccion": null,
      "codigo_postal": null,
      "telefono": null,
      "web": null,
      "instagram": null,
      "horario": null,
      "terraza": false,
      "musica": null,
      "fuente": "openstreetmap"
    },
    {
      "id": "osm_node_11381129490",
      "nombre": "Keops",
      "tipo": "cafe",
      "lat": 37.6814991,
      "lon": -1.6498816,
      "direccion": null,
      "codigo_postal": null,
      "telefono": null,
      "web": null,
      "instagram": null,
      "horario": null,
      "terraza": false,
      "musica": null,
      "fuente": "openstreetmap"
    },
    {
      "id": "osm_node_13207468808",
      "nombre": "Café-Bar La Báscula",
      "tipo": "pub",
      "lat": 37.6567681,
      "lon": -1.690025,
      "direccion": null,
      "codigo_postal": null,
      "telefono": "+34 968468179",
      "web": "https://labascula.es/",
      "instagram": null,
      "horario": null,
      "terraza": false,
      "musica": null,
      "fuente": "openstreetmap"
    },
    {
      "id": "osm_way_477040393",
      "nombre": "Bar La Terraza",
      "tipo": "cafe",
      "lat": 37.550021,
      "lon": -1.68954,
      "direccion": null,
      "codigo_postal": null,
      "telefono": null,
      "web": null,
      "instagram": null,
      "horario": null,
      "terraza": false,
      "musica": null,
      "fuente": "openstreetmap"
    },
    {
      "id": "osm_way_477043754",
      "nombre": "Bar Venta Nueva",
      "tipo": "bar",
      "lat": 37.560725,
      "lon": -1.68132,
      "direccion": null,
      "codigo_postal": null,
      "telefono": null,
      "web": null,
      "instagram": null,
      "horario": null,
      "terraza": false,
      "musica": null,
      "fuente": "openstreetmap"
    },
    {
      "id": "osm_way_485588537",
      "nombre": "Bar Deportivo",
      "tipo": "bar",
      "lat": 37.591654,
      "lon": -1.651571,
      "direccion": null,
      "codigo_postal": null,
      "telefono": null,
      "web": null,
      "instagram": null,
      "horario": null,
      "terraza": false,
      "musica": null,
      "fuente": "openstreetmap"
    },
    {
      "id": "osm_way_485588955",
      "nombre": "Bar Rosales",
      "tipo": "bar",
      "lat": 37.592065,
      "lon": -1.65234,
      "direccion": null,
      "codigo_postal": null,
      "telefono": null,
      "web": null,
      "instagram": null,
      "horario": null,
      "terraza": false,
      "musica": null,
      "fuente": "openstreetmap"
    },
    {
      "id": "osm_way_489814055",
      "nombre": "Bar Carreras",
      "tipo": "bar",
      "lat": 37.566018,
      "lon": -1.677728,
      "direccion": null,
      "codigo_postal": null,
      "telefono": null,
      "web": null,
      "instagram": null,
      "horario": null,
      "terraza": false,
      "musica": null,
      "fuente": "openstreetmap"
    }
  ]
}