{
  "ciudad": "Málaga",
  "total": 1519,
  "locales": [
    {
      "id": "osm_node_431250015",
      "nombre": "El Bosque",
      "tipo": "pub",
      "lat": 36.7443451,
      "lon": -3.8803531,
      "direccion": null,
      "codigo_postal": null,
      "telefono": null,
      "web": null,
      "instagram": null,
      "horario": null,
      "terraza": false,
      "musica": null,
      "fuente": "openstreetmap"
    },
    {
      "id": "osm_node_431250019",
      "nombre": "Adéle",
      "tipo": "pub",
      "lat": 36.7443592,
      "lon": -3.8804302,
      "direccion": null,
      "codigo_postal": null,
      "telefono": null,
      "web": null,
      "instagram": null,
      "horario": null,
      "terraza": false,
      "musica": null,
      "fuente": "openstreetmap"
    },
    {
      "id": "osm_node_431250020",
      "nombre": "Maxwell's Bar",
      "tipo": "pub",
      "lat": 36.744496,
      "lon": -3.8805225,
      "direccion": "Calle Fray Junipero Serra",
      "codigo_postal": null,
      "telefono": null,
      "web": null,
      "instagram": null,
      "horario": "Mo-Su closed",
      "terraza": false,
      "musica": null,
      "fuente": "openstreetmap"
    },
    {
      "id": "osm_node_431250027",
      "nombre": "Ruskins",
      "tipo": "cafe",
      "lat": 36.7431796,
      "lon": -3.883709,
      "direccion": null,
      "codigo_postal": null,
      "telefono": null,
      "web": null,
      "instagram": null,
      "horario": null,
      "terraza": false,
      "musica": null,
      "fuente": "openstreetmap"
    },
    {
      "id": "osm_node_524569053",
      "nombre": "JJ's",
      "tipo": "cafe",
      "lat": 36.5995245,
      "lon": -4.5343165,
      "direccion": null,
      "codigo_postal": null,
      "telefono": null,
      "web": null,
      "instagram": null,
      "horario": null,
      "terraza": false,
      "musica": null,
      "fuente": "openstreetmap"
    },
    {
      "id": "osm_node_539185946",
      "nombre": "Menceys",
      "tipo": "cafe",
      "lat": 36.4242217,
      "lon": -5.1484059,
      "direccion": "Avenida de San Lorenzo 36",
      "codigo_postal": "29680",
      "telefono": null,
      "web": null,
      "instagram": null,
      "horario": null,
      "terraza": false,
      "musica": null,
      "fuente": "openstreetmap"
    },
    {
      "id": "osm_node_541397073",
      "nombre": "Café Central",
      "tipo": "cafe",
      "lat": 36.7211582,
      "lon": -4.4215087,
      "direccion": "11",
      "codigo_postal": "29016",
      "telefono": null,
      "web": "https://cafecentralmalaga.com/",
      "instagram": null,
      "horario": null,
      "terraza": false,
      "musica": null,
      "fuente": "openstreetmap"
    },
    {
      "id": "osm_node_543661240",
      "nombre": "La Rambla",
      "tipo": "cafe",
      "lat": 36.7468673,
      "lon": -3.8810717,
      "direccion": null,
      "codigo_postal": null,
      "telefono": null,
      "web": null,
      "instagram": null,
      "horario": null,
      "terraza": true,
      "musica": null,
      "fuente": "openstreetmap"
    },
    {
      "id": "osm_node_544218640",
      "nombre": "Paradiso del Mare",
      "tipo": "pub",
      "lat": 36.46142,
      "lon": -5.03422,
      "direccion": null,
      "codigo_postal": null,
      "telefono": null,
      "web": null,
      "instagram": null,
      "horario": null,
      "terraza": false,
      "musica": null,
      "fuente": "openstreetmap"
    },
    {
      "id": "osm_node_561299048",
      "nombre": "Zoya",
      "tipo": "cafe",
      "lat": 36.486953,
      "lon": -4.9905994,
      "direccion": null,
      "codigo_postal": null,
      "telefono": null,
      "web": null,
      "instagram": null,
      "horario": null,
      "terraza": false,
      "musica": null,
      "fuente": "openstreetmap"
    },
    {
      "id": "osm_node_593367297",
      "nombre": "Mesón Los Pilajeros",
      "tipo": "pub",
      "lat": 36.6386067,
      "lon": -5.2493039,
      "direccion": null,
      "codigo_postal": null,
      "telefono": null,
      "web": null,
      "instagram": null,
      "horario": null,
      "terraza": false,
      "musica": null,
      "fuente": "openstreetmap"
    },
    {
      "id": "osm_node_602495485",
      "nombre": "Cafeteria Bayleys",
      "tipo": "bar",
      "lat": 36.7495062,
      "lon": -4.0644703,
      "direccion": null,
      "codigo_postal": null,
      "telefono": null,
      "web": null,
      "instagram": null,
      "horario": null,
      "terraza": false,
      "musica": null,
      "fuente": "openstreetmap"
    },
    {
      "id": "osm_node_602753062",
      "nombre": "Funky Forest",
      "tipo": "cafe",
      "lat": 36.4651227,
      "lon": -5.0295835,
      "direccion": null,
      "codigo_postal": null,
      "telefono": null,
      "web": null,
      "instagram": null,
      "horario": null,
      "terraza": false,
      "musica": null,
      "fuente": "openstreetmap"
    },
    {
      "id": "osm_node_602753116",
      "nombre": "The Robin Hood Pub and restaurant.",
      "tipo": "pub",
      "lat": 36.4658924,
      "lon": -5.0260028,
      "direccion": "Avenida Dos Hermanas",
      "codigo_postal": "29680",
      "telefono": null,
      "web": null,
      "instagram": null,
      "horario": null,
      "terraza": false,
      "musica": null,
      "fuente": "openstreetmap"
    },
    {
      "id": "osm_node_663346947",
      "nombre": "The Ashnook",
      "tipo": "pub",
      "lat": 36.5964076,
      "lon": -4.5368546,
      "direccion": null,
      "codigo_postal": null,
      "telefono": null,
      "web": null,
      "instagram": null,
      "horario": null,
      "terraza": false,
      "musica": null,
      "fuente": "openstreetmap"
    },
    {
      "id": "osm_node_726810365",
      "nombre": "Safari - Bar de Copas",
      "tipo": "pub",
      "lat": 36.728385,
      "lon": -3.9614272,
      "direccion": "Paseo Maritimo",
      "codigo_postal": "29793",
      "telefono": "+34 952532759",
      "web": "https://safaribar.es",
      "instagram": null,
      "horario": "\"summer\": 10:30-02:00; \"winter\": Mo 10:30-sunset, We-Su 10:30-sunset",
      "terraza": true,
      "musica": null,
      "fuente": "openstreetmap"
    },
    {
      "id": "osm_node_726810371",
      "nombre": "Strand Café",
      "tipo": "biergarten",
      "lat": 36.7294876,
      "lon": -3.9652612,
      "direccion": "Paseo Maritima Ferrara Playa",
      "codigo_postal": "29793",
      "telefono": "+34 622940511",
      "web": null,
      "instagram": null,
      "horario": "14:00-00:00",
      "terraza": true,
      "musica": null,
      "fuente": "openstreetmap"
    },
    {
      "id": "osm_node_736558950",
      "nombre": "Uppa Crust",
      "tipo": "cafe",
      "lat": 36.5515359,
      "lon": -4.6146923,
      "direccion": null,
      "codigo_postal": null,
      "telefono": null,
      "web": null,
      "instagram": null,
      "horario": null,
      "terraza": false,
      "musica": null,
      "fuente": "openstreetmap"
    },
    {
      "id": "osm_node_737978893",
      "nombre": "El Hombre Alto",
      "tipo": "pub",
      "lat": 36.5510251,
      "lon": -4.6179815,
      "direccion": null,
      "codigo_postal": null,
      "telefono": null,
      "web": null,
      "instagram": null,
      "horario": null,
      "terraza": false,
      "musica": null,
      "fuente": "openstreetmap"
    },
    {
      "id": "osm_node_737978911",
      "nombre": "Bar One",
      "tipo": "bar",
      "lat": 36.5505449,
      "lon": -4.6157787,
      "direccion": null,
      "codigo_postal": null,
      "telefono": null,
      "web": null,
      "instagram": null,
      "horario": null,
      "terraza": false,
      "musica": null,
      "fuente": "openstreetmap"
    },
    {
      "id": "osm_node_737978915",
      "nombre": "Bar Hima",
      "tipo": "pub",
      "lat": 36.5502231,
      "lon": -4.6155378,
      "direccion": null,
      "codigo_postal": null,
      "telefono": null,
      "web": null,
      "instagram": null,
      "horario": null,
      "terraza": false,
      "musica": null,
      "fuente": "openstreetmap"
    },
    {
      "id": "osm_node_738884910",
      "nombre": "La Pescia",
      "tipo": "cafe",
      "lat": 36.7542878,
      "lon": -3.8747429,
      "direccion": null,
      "codigo_postal": null,
      "telefono": null,
      "web": null,
      "instagram": null,
      "horario": null,
      "terraza": false,
      "musica": null,
      "fuente": "openstreetmap"
    },
    {
      "id": "osm_node_739571667",
      "nombre": "Rusty's",
      "tipo": "pub",
      "lat": 36.5524876,
      "lon": -4.6138866,
      "direccion": null,
      "codigo_postal": null,
      "telefono": null,
      "web": null,
      "instagram": null,
      "horario": null,
      "terraza": false,
      "musica": null,
      "fuente": "openstreetmap"
    },
    {
      "id": "osm_node_774084180",
      "nombre": "H20",
      "tipo": "bar",
      "lat": 36.7504979,
      "lon": -3.8692364,
      "direccion": null,
      "codigo_postal": null,
      "telefono": null,
      "web": null,
      "instagram": null,
      "horario": null,
      "terraza": true,
      "musica": null,
      "fuente": "openstreetmap"
    },
    {
      "id": "osm_node_775371429",
      "nombre": "La Cueva",
      "tipo": "pub",
      "lat": 36.7596901,
      "lon": -3.867294,
      "direccion": null,
      "codigo_postal": null,
      "telefono": null,
      "web": null,
      "instagram": null,
      "horario": null,
      "terraza": false,
      "musica": null,
      "fuente": "openstreetmap"
    },
    {
      "id": "osm_node_776553289",
      "nombre": "Sinatra's",
      "tipo": "bar",
      "lat": 36.7483261,
      "lon": -3.8752424,
      "direccion": null,
      "codigo_postal": null,
      "telefono": null,
      "web": null,
      "instagram": null,
      "horario": null,
      "terraza": false,
      "musica": null,
      "fuente": "openstreetmap"
    },
    {
      "id": "osm_node_833420283",
      "nombre": "Axarquía",
      "tipo": "cafe",
      "lat": 36.7619819,
      "lon": -3.8882071,
      "direccion": null,
      "codigo_postal": null,
      "telefono": "+34 952522104",
      "web": null,
      "instagram": null,
      "horario": "24/7",
      "terraza": false,
      "musica": null,
      "fuente": "openstreetmap"
    },
    {
      "id": "osm_node_922686821",
      "nombre": "San Miguel",
      "tipo": "cafe",
      "lat": 36.7468907,
      "lon": -3.8790355,
      "direccion": null,
      "codigo_postal": null,
      "telefono": null,
      "web": null,
      "instagram": null,
      "horario": null,
      "terraza": false,
      "musica": null,
      "fuente": "openstreetmap"
    },
    {
      "id": "osm_node_934976447",
      "nombre": "El Paraíso Country Club",
      "tipo": "pub",
      "lat": 36.46812,
      "lon": -5.0323987,
      "direccion": null,
      "codigo_postal": null,
      "telefono": null,
      "web": null,
      "instagram": null,
      "horario": null,
      "terraza": false,
      "musica": null,
      "fuente": "openstreetmap"
    },
    {
      "id": "osm_node_934976699",
      "nombre": "Granada",
      "tipo": "pub",
      "lat": 36.4667412,
      "lon": -5.0267062,
      "direccion": null,
      "codigo_postal": null,
      "telefono": null,
      "web": null,
      "instagram": null,
      "horario": null,
      "terraza": false,
      "musica": null,
      "fuente": "openstreetmap"
    },
    {
      "id": "osm_node_937064656",
      "nombre": "Venta de Palma",
      "tipo": "bar",
      "lat": 36.8280331,
      "lon": -3.9704743,
      "direccion": null,
      "codigo_postal": null,
      "telefono": null,
      "web": null,
      "instagram": null,
      "horario": null,
      "terraza": false,
      "musica": null,
      "fuente": "openstreetmap"
    },
    {
      "id": "osm_node_979976402",
      "nombre": "The Lord Nelson",
      "tipo": "pub",
      "lat": 36.4900024,
      "lon": -4.7151169,
      "direccion": null,
      "codigo_postal": null,
      "telefono": null,
      "web": null,
      "instagram": null,
      "horario": null,
      "terraza": false,
      "musica": null,
      "fuente": "openstreetmap"
    },
    {
      "id": "osm_node_979988011",
      "nombre": "Da Vinci's",
      "tipo": "bar",
      "lat": 36.4894678,
      "lon": -4.7280908,
      "direccion": null,
      "codigo_postal": null,
      "telefono": null,
      "web": null,
      "instagram": null,
      "horario": null,
      "terraza": false,
      "musica": null,
      "fuente": "openstreetmap"
    },
    {
      "id": "osm_node_979993985",
      "nombre": "Dempsey's",
      "tipo": "bar",
      "lat": 36.4890019,
      "lon": -4.711872,
      "direccion": null,
      "codigo_postal": null,
      "telefono": null,
      "web": null,
      "instagram": null,
      "horario": null,
      "terraza": false,
      "musica": null,
      "fuente": "openstreetmap"
    },
    {
      "id": "osm_node_981881080",
      "nombre": "Bread's",
      "tipo": "cafe",
      "lat": 36.4898476,
      "lon": -4.7115582,
      "direccion": null,
      "codigo_postal": null,
      "telefono": null,
      "web": null,
      "instagram": null,
      "horario": null,
      "terraza": false,
      "musica": null,
      "fuente": "openstreetmap"
    },
    {
      "id": "osm_node_981919339",
      "nombre": "The Harp Bar",
      "tipo": "pub",
      "lat": 36.4936702,
      "lon": -4.7194294,
      "direccion": null,
      "codigo_postal": null,
      "telefono": null,
      "web": null,
      "instagram": null,
      "horario": null,
      "terraza": false,
      "musica": null,
      "fuente": "openstreetmap"
    },
    {
      "id": "osm_node_981919340",
      "nombre": "Sister's Bar",
      "tipo": "pub",
      "lat": 36.4937996,
      "lon": -4.7195796,
      "direccion": null,
      "codigo_postal": null,
      "telefono": null,
      "web": null,
      "instagram": null,
      "horario": null,
      "terraza": false,
      "musica": null,
      "fuente": "openstreetmap"
    },
    {
      "id": "osm_node_981919343",
      "nombre": "Willson's Cafe Bar",
      "tipo": "cafe",
      "lat": 36.4937521,
      "lon": -4.7195303,
      "direccion": null,
      "codigo_postal": null,
      "telefono": null,
      "web": null,
      "instagram": null,
      "horario": null,
      "terraza": false,
      "musica": null,
      "fuente": "openstreetmap"
    },
    {
      "id": "osm_node_981919348",
      "nombre": "Rumores",
      "tipo": "bar",
      "lat": 36.4931095,
      "lon": -4.7188345,
      "direccion": null,
      "codigo_postal": null,
      "telefono": null,
      "web": null,
      "instagram": null,
      "horario": null,
      "terraza": false,
      "musica": null,
      "fuente": "openstreetmap"
    },
    {
      "id": "osm_node_981923304",
      "nombre": "Bogart's",
      "tipo": "bar",
      "lat": 36.492024,
      "lon": -4.7176906,
      "direccion": null,
      "codigo_postal": null,
      "telefono": null,
      "web": null,
      "instagram": null,
      "horario": null,
      "terraza": false,
      "musica": null,
      "fuente": "openstreetmap"
    },
    {
      "id": "osm_node_982345957",
      "nombre": "Bar La Laguna",
      "tipo": "pub",
      "lat": 36.5641796,
      "lon": -4.8563603,
      "direccion": null,
      "codigo_postal": null,
      "telefono": null,
      "web": null,
      "instagram": null,
      "horario": null,
      "terraza": false,
      "musica": null,
      "fuente": "openstreetmap"
    },
    {
      "id": "osm_node_992985858",
      "nombre": "Bar La Plaza",
      "tipo": "pub",
      "lat": 37.0370027,
      "lon": -4.7254307,
      "direccion": null,
      "codigo_postal": null,
      "telefono": null,
      "web": null,
      "instagram": null,
      "horario": null,
      "terraza": false,
      "musica": null,
      "fuente": "openstreetmap"
    },
    {
      "id": "osm_node_992985959",
      "nombre": "Bar Casa Corado",
      "tipo": "bar",
      "lat": 37.0373619,
      "lon": -4.7272905,
      "direccion": null,
      "codigo_postal": null,
      "telefono": null,
      "web": null,
      "instagram": null,
      "horario": null,
      "terraza": false,
      "musica": null,
      "fuente": "openstreetmap"
    },
    {
      "id": "osm_node_993625272",
      "nombre": "bar esther",
      "tipo": "pub",
      "lat": 36.416455,
      "lon": -5.1574645,
      "direccion": null,
      "codigo_postal": null,
      "telefono": null,
      "web": null,
      "instagram": null,
      "horario": null,
      "terraza": false,
      "musica": null,
      "fuente": "openstreetmap"
    },
    {
      "id": "osm_node_997703968",
      "nombre": "Redondo Tapería",
      "tipo": "pub",
      "lat": 36.746917,
      "lon": -3.8756977,
      "direccion": "Calle Gloria 14",
      "codigo_postal": "29780",
      "telefono": "+34 658 39 95 38",
      "web": "https://redondo.bar/",
      "instagram": null,
      "horario": null,
      "terraza": false,
      "musica": null,
      "fuente": "openstreetmap"
    },
    {
      "id": "osm_node_1013122455",
      "nombre": "Vista Verde",
      "tipo": "cafe",
      "lat": 36.5813556,
      "lon": -4.9489133,
      "direccion": null,
      "codigo_postal": null,
      "telefono": null,
      "web": null,
      "instagram": null,
      "horario": null,
      "terraza": false,
      "musica": null,
      "fuente": "openstreetmap"
    },
    {
      "id": "osm_node_1024575656",
      "nombre": "Cafeteria Nachs",
      "tipo": "cafe",
      "lat": 36.377215,
      "lon": -5.2492294,
      "direccion": null,
      "codigo_postal": null,
      "telefono": null,
      "web": null,
      "instagram": null,
      "horario": null,
      "terraza": false,
      "musica": null,
      "fuente": "openstreetmap"
    },
    {
      "id": "osm_node_1057385146",
      "nombre": "The Chapel Bar",
      "tipo": "pub",
      "lat": 36.7457746,
      "lon": -3.8802821,
      "direccion": null,
      "codigo_postal": null,
      "telefono": null,
      "web": null,
      "instagram": null,
      "horario": null,
      "terraza": false,
      "musica": null,
      "fuente": "openstreetmap"
    },
    {
      "id": "osm_node_1064561681",
      "nombre": "La Playa",
      "tipo": "cafe",
      "lat": 36.7373228,
      "lon": -3.9892538,
      "direccion": null,
      "codigo_postal": null,
      "telefono": null,
      "web": null,
      "instagram": null,
      "horario": null,
      "terraza": false,
      "musica": null,
      "fuente": "openstreetmap"
    },
    {
      "id": "osm_node_1071642319",
      "nombre": "Bar El Rocio",
      "tipo": "pub",
      "lat": 36.6553901,
      "lon": -5.1294672,
      "direccion": null,
      "codigo_postal": null,
      "telefono": null,
      "web": null,
      "instagram": null,
      "horario": null,
      "terraza": false,
      "musica": null,
      "fuente": "openstreetmap"
    },
    {
      "id": "osm_node_1088181646",
      "nombre": "Starbucks",
      "tipo": "cafe",
      "lat": 36.6763364,
      "lon": -4.4915633,
      "direccion": null,
      "codigo_postal": null,
      "telefono": null,
      "web": null,
      "instagram": null,
      "horario": null,
      "terraza": false,
      "musica": null,
      "fuente": "openstreetmap"
    },
    {
      "id": "osm_node_1108753287",
      "nombre": "Costa",
      "tipo": "cafe",
      "lat": 36.7630121,
      "lon": -3.8717947,
      "direccion": null,
      "codigo_postal": null,
      "telefono": null,
      "web": null,
      "instagram": null,
      "horario": null,
      "terraza": false,
      "musica": null,
      "fuente": "openstreetmap"
    },
    {
      "id": "osm_node_1108753440",
      "nombre": "Génesis",
      "tipo": "cafe",
      "lat": 36.7608548,
      "lon": -3.8749956,
      "direccion": null,
      "codigo_postal": null,
      "telefono": null,
      "web": null,
      "instagram": null,
      "horario": null,
      "terraza": false,
      "musica": null,
      "fuente": "openstreetmap"
    },
    {
      "id": "osm_node_1119698090",
      "nombre": "La Marina",
      "tipo": "pub",
      "lat": 36.7459571,
      "lon": -3.8799728,
      "direccion": null,
      "codigo_postal": null,
      "telefono": null,
      "web": null,
      "instagram": null,
      "horario": null,
      "terraza": false,
      "musica": null,
      "fuente": "openstreetmap"
    },
    {
      "id": "osm_node_1122309756",
      "nombre": "El Taller",
      "tipo": "cafe",
      "lat": 36.758074,
      "lon": -3.8738782,
      "direccion": null,
      "codigo_postal": null,
      "telefono": null,
      "web": null,
      "instagram": null,
      "horario": null,
      "terraza": false,
      "musica": null,
      "fuente": "openstreetmap"
    },
    {
      "id": "osm_node_1129254219",
      "nombre": "tropical",
      "tipo": "bar",
      "lat": 36.7304795,
      "lon": -3.9693757,
      "direccion": null,
      "codigo_postal": null,
      "telefono": null,
      "web": null,
      "instagram": null,
      "horario": null,
      "terraza": false,
      "musica": null,
      "fuente": "openstreetmap"
    },
    {
      "id": "osm_node_1132335116",
      "nombre": "Marissal by Dorobe",
      "tipo": "cafe",
      "lat": 36.7448706,
      "lon": -3.876124,
      "direccion": null,
      "codigo_postal": null,
      "telefono": null,
      "web": null,
      "instagram": null,
      "horario": "Mo-Su 00:00-00:30,09:00-24:00",
      "terraza": false,
      "musica": null,
      "fuente": "openstreetmap"
    },
    {
      "id": "osm_node_1132369667",
      "nombre": "Caffe Pascucci Shop Málaga",
      "tipo": "cafe",
      "lat": 36.6830024,
      "lon": -4.4707306,
      "direccion": null,
      "codigo_postal": null,
      "telefono": null,
      "web": null,
      "instagram": null,
      "horario": null,
      "terraza": false,
      "musica": null,
      "fuente": "openstreetmap"
    },
    {
      "id": "osm_node_1258374224",
      "nombre": "Zirkos",
      "tipo": "bar",
      "lat": 36.5817663,
      "lon": -4.5390154,
      "direccion": null,
      "codigo_postal": null,
      "telefono": null,
      "web": null,
      "instagram": null,
      "horario": null,
      "terraza": false,
      "musica": null,
      "fuente": "openstreetmap"
    },
    {
      "id": "osm_node_1258377026",
      "nombre": "El Capricho de Torrequebrada",
      "tipo": "bar",
      "lat": 36.5819106,
      "lon": -4.538752,
      "direccion": null,
      "codigo_postal": null,
      "telefono": null,
      "web": null,
      "instagram": null,
      "horario": null,
      "terraza": false,
      "musica": null,
      "fuente": "openstreetmap"
    },
    {
      "id": "osm_node_1258395598",
      "nombre": "Irish Pub & Grill",
      "tipo": "pub",
      "lat": 36.5862917,
      "lon": -4.5338152,
      "direccion": null,
      "codigo_postal": null,
      "telefono": null,
      "web": null,
      "instagram": null,
      "horario": null,
      "terraza": false,
      "musica": null,
      "fuente": "openstreetmap"
    },
    {
      "id": "osm_node_1258399782",
      "nombre": "Coco's",
      "tipo": "bar",
      "lat": 36.58627,
      "lon": -4.5330696,
      "direccion": null,
      "codigo_postal": null,
      "telefono": null,
      "web": null,
      "instagram": null,
      "horario": null,
      "terraza": false,
      "musica": null,
      "fuente": "openstreetmap"
    },
    {
      "id": "osm_node_1258549397",
      "nombre": "Meeting Point Café",
      "tipo": "cafe",
      "lat": 36.5895375,
      "lon": -4.533375,
      "direccion": "Avenida de las Palmeras",
      "codigo_postal": null,
      "telefono": null,
      "web": null,
      "instagram": null,
      "horario": null,
      "terraza": false,
      "musica": null,
      "fuente": "openstreetmap"
    },
    {
      "id": "osm_node_1258560992",
      "nombre": "Antons bar",
      "tipo": "bar",
      "lat": 36.5884331,
      "lon": -4.5313632,
      "direccion": null,
      "codigo_postal": null,
      "telefono": null,
      "web": null,
      "instagram": null,
      "horario": null,
      "terraza": false,
      "musica": null,
      "fuente": "openstreetmap"
    },
    {
      "id": "osm_node_1258766081",
      "nombre": "La Fuente",
      "tipo": "pub",
      "lat": 36.6184285,
      "lon": -5.342185,
      "direccion": null,
      "codigo_postal": null,
      "telefono": null,
      "web": null,
      "instagram": null,
      "horario": null,
      "terraza": false,
      "musica": null,
      "fuente": "openstreetmap"
    },
    {
      "id": "osm_node_1259613545",
      "nombre": "Bar Cueva Estepona",
      "tipo": "pub",
      "lat": 36.6307421,
      "lon": -5.1218595,
      "direccion": null,
      "codigo_postal": null,
      "telefono": null,
      "web": null,
      "instagram": null,
      "horario": null,
      "terraza": false,
      "musica": null,
      "fuente": "openstreetmap"
    },
    {
      "id": "osm_node_1290072506",
      "nombre": "Cafe Toto",
      "tipo": "cafe",
      "lat": 36.7812872,
      "lon": -4.104239,
      "direccion": "Plaza Carmelitas",
      "codigo_postal": "29700",
      "telefono": null,
      "web": null,
      "instagram": null,
      "horario": null,
      "terraza": true,
      "musica": null,
      "fuente": "openstreetmap"
    },
    {
      "id": "osm_node_1329545930",
      "nombre": "Cafetería Bokagua",
      "tipo": "cafe",
      "lat": 36.6213739,
      "lon": -5.339986,
      "direccion": null,
      "codigo_postal": null,
      "telefono": null,
      "web": null,
      "instagram": null,
      "horario": null,
      "terraza": false,
      "musica": null,
      "fuente": "openstreetmap"
    },
    {
      "id": "osm_node_1369169522",
      "nombre": "Bar Sevilla",
      "tipo": "pub",
      "lat": 36.6183342,
      "lon": -5.3419688,
      "direccion": null,
      "codigo_postal": null,
      "telefono": null,
      "web": null,
      "instagram": null,
      "horario": null,
      "terraza": false,
      "musica": null,
      "fuente": "openstreetmap"
    },
    {
      "id": "osm_node_1400465800",
      "nombre": "Mr. You Coffee",
      "tipo": "cafe",
      "lat": 36.5196138,
      "lon": -4.8921312,
      "direccion": null,
      "codigo_postal": null,
      "telefono": null,
      "web": null,
      "instagram": null,
      "horario": "06:30-21:30",
      "terraza": false,
      "musica": null,
      "fuente": "openstreetmap"
    },
    {
      "id": "osm_node_1575649206",
      "nombre": "Anahi",
      "tipo": "cafe",
      "lat": 36.7453618,
      "lon": -3.8758073,
      "direccion": null,
      "codigo_postal": null,
      "telefono": null,
      "web": null,
      "instagram": null,
      "horario": null,
      "terraza": false,
      "musica": null,
      "fuente": "openstreetmap"
    },
    {
      "id": "osm_node_1688839006",
      "nombre": "Bar Allioli",
      "tipo": "bar",
      "lat": 36.6599857,
      "lon": -5.2811632,
      "direccion": null,
      "codigo_postal": null,
      "telefono": null,
      "web": null,
      "instagram": null,
      "horario": null,
      "terraza": false,
      "musica": null,
      "fuente": "openstreetmap"
    },
    {
      "id": "osm_node_1704264776",
      "nombre": "Café Bar Europa",
      "tipo": "cafe",
      "lat": 36.5925406,
      "lon": -4.5274686,
      "direccion": "Avenida Federico García Lorca",
      "codigo_postal": null,
      "telefono": "+34617534049",
      "web": null,
      "instagram": null,
      "horario": null,
      "terraza": false,
      "musica": null,
      "fuente": "openstreetmap"
    },
    {
      "id": "osm_node_1707325425",
      "nombre": "Taberna Marinera El Ancla",
      "tipo": "bar",
      "lat": 36.4295006,
      "lon": -5.1420254,
      "direccion": "Avenida Andalucía 43",
      "codigo_postal": "29680",
      "telefono": null,
      "web": null,
      "instagram": null,
      "horario": null,
      "terraza": false,
      "musica": null,
      "fuente": "openstreetmap"
    },
    {
      "id": "osm_node_1709259131",
      "nombre": "La Purisima",
      "tipo": "cafe",
      "lat": 36.7225038,
      "lon": -4.3760114,
      "direccion": "Calle Juan Valera 2",
      "codigo_postal": "29017",
      "telefono": null,
      "web": null,
      "instagram": null,
      "horario": null,
      "terraza": false,
      "musica": null,
      "fuente": "openstreetmap"
    },
    {
      "id": "osm_node_1714620346",
      "nombre": "Bar La Vina",
      "tipo": "pub",
      "lat": 36.4235521,
      "lon": -5.1505296,
      "direccion": null,
      "codigo_postal": null,
      "telefono": null,
      "web": null,
      "instagram": null,
      "horario": null,
      "terraza": false,
      "musica": null,
      "fuente": "openstreetmap"
    },
    {
      "id": "osm_node_1731337597",
      "nombre": "Los cano loft",
      "tipo": "bar",
      "lat": 36.5037418,
      "lon": -4.8107355,
      "direccion": null,
      "codigo_postal": null,
      "telefono": null,
      "web": null,
      "instagram": null,
      "horario": null,
      "terraza": false,
      "musica": null,
      "fuente": "openstreetmap"
    },
    {
      "id": "osm_node_1731346075",
      "nombre": "Tibu",
      "tipo": "bar",
      "lat": 36.4880572,
      "lon": -4.9535028,
      "direccion": null,
      "codigo_postal": null,
      "telefono": null,
      "web": null,
      "instagram": null,
      "horario": null,
      "terraza": false,
      "musica": null,
      "fuente": "openstreetmap"
    },
    {
      "id": "osm_node_1736279361",
      "nombre": "The Blue Bar",
      "tipo": "pub",
      "lat": 36.5519474,
      "lon": -4.684122,
      "direccion": null,
      "codigo_postal": null,
      "telefono": null,
      "web": null,
      "instagram": null,
      "horario": null,
      "terraza": false,
      "musica": null,
      "fuente": "openstreetmap"
    },
    {
      "id": "osm_node_1739162215",
      "nombre": "Ole Ole",
      "tipo": "cafe",
      "lat": 36.7449259,
      "lon": -3.882121,
      "direccion": null,
      "codigo_postal": null,
      "telefono": null,
      "web": null,
      "instagram": null,
      "horario": null,
      "terraza": false,
      "musica": null,
      "fuente": "openstreetmap"
    },
    {
      "id": "osm_node_1749164286",
      "nombre": "Seven",
      "tipo": "bar",
      "lat": 36.4888405,
      "lon": -4.9510461,
      "direccion": null,
      "codigo_postal": null,
      "telefono": null,
      "web": null,
      "instagram": null,
      "horario": null,
      "terraza": false,
      "musica": null,
      "fuente": "openstreetmap"
    },
    {
      "id": "osm_node_1764261217",
      "nombre": "Cafeteria Capricho",
      "tipo": "cafe",
      "lat": 36.7306698,
      "lon": -3.9612611,
      "direccion": "Avenida de Andalucía 14",
      "codigo_postal": null,
      "telefono": null,
      "web": null,
      "instagram": null,
      "horario": null,
      "terraza": false,
      "musica": null,
      "fuente": "openstreetmap"
    },
    {
      "id": "osm_node_1818850868",
      "nombre": "Esquina de Miguel",
      "tipo": "bar",
      "lat": 36.8328748,
      "lon": -3.976037,
      "direccion": null,
      "codigo_postal": null,
      "telefono": null,
      "web": null,
      "instagram": null,
      "horario": null,
      "terraza": false,
      "musica": null,
      "fuente": "openstreetmap"
    },
    {
      "id": "osm_node_1818851823",
      "nombre": "Cafe Competa",
      "tipo": "bar",
      "lat": 36.8324666,
      "lon": -3.9757547,
      "direccion": null,
      "codigo_postal": null,
      "telefono": null,
      "web": null,
      "instagram": null,
      "horario": null,
      "terraza": true,
      "musica": null,
      "fuente": "openstreetmap"
    },
    {
      "id": "osm_node_1818858482",
      "nombre": "Alicat Bar",
      "tipo": "bar",
      "lat": 36.8333511,
      "lon": -3.9753311,
      "direccion": null,
      "codigo_postal": null,
      "telefono": null,
      "web": null,
      "instagram": null,
      "horario": null,
      "terraza": false,
      "musica": null,
      "fuente": "openstreetmap"
    },
    {
      "id": "osm_node_1818867377",
      "nombre": "Despacho de Fernan",
      "tipo": "bar",
      "lat": 36.8330223,
      "lon": -3.9757382,
      "direccion": null,
      "codigo_postal": null,
      "telefono": null,
      "web": null,
      "instagram": null,
      "horario": null,
      "terraza": false,
      "musica": null,
      "fuente": "openstreetmap"
    },
    {
      "id": "osm_node_1845925207",
      "nombre": "Malibu Beach Bar",
      "tipo": "bar",
      "lat": 36.5804808,
      "lon": -4.5589749,
      "direccion": null,
      "codigo_postal": null,
      "telefono": null,
      "web": "http://www.malibu-beach-bar.es",
      "instagram": null,
      "horario": null,
      "terraza": true,
      "musica": null,
      "fuente": "openstreetmap"
    },
    {
      "id": "osm_node_1875763401",
      "nombre": "Cafe Mercado",
      "tipo": "cafe",
      "lat": 36.5080818,
      "lon": -4.8972136,
      "direccion": null,
      "codigo_postal": null,
      "telefono": null,
      "web": null,
      "instagram": null,
      "horario": null,
      "terraza": false,
      "musica": null,
      "fuente": "openstreetmap"
    },
    {
      "id": "osm_node_1881623652",
      "nombre": "Pup DCCO",
      "tipo": "bar",
      "lat": 36.5090759,
      "lon": -4.8976491,
      "direccion": null,
      "codigo_postal": null,
      "telefono": null,
      "web": null,
      "instagram": null,
      "horario": null,
      "terraza": false,
      "musica": null,
      "fuente": "openstreetmap"
    },
    {
      "id": "osm_node_1883607186",
      "nombre": "Cafetería Plaza",
      "tipo": "cafe",
      "lat": 36.7184077,
      "lon": -4.4210516,
      "direccion": null,
      "codigo_postal": null,
      "telefono": null,
      "web": null,
      "instagram": null,
      "horario": null,
      "terraza": false,
      "musica": null,
      "fuente": "openstreetmap"
    },
    {
      "id": "osm_node_1884633549",
      "nombre": "Cerveceria Simón",
      "tipo": "pub",
      "lat": 36.5089869,
      "lon": -4.8931766,
      "direccion": null,
      "codigo_postal": null,
      "telefono": null,
      "web": null,
      "instagram": null,
      "horario": null,
      "terraza": false,
      "musica": null,
      "fuente": "openstreetmap"
    },
    {
      "id": "osm_node_1884633554",
      "nombre": "Irish Pub",
      "tipo": "pub",
      "lat": 36.5077804,
      "lon": -4.8929942,
      "direccion": null,
      "codigo_postal": null,
      "telefono": null,
      "web": null,
      "instagram": null,
      "horario": null,
      "terraza": false,
      "musica": null,
      "fuente": "openstreetmap"
    },
    {
      "id": "osm_node_1887331748",
      "nombre": "Cafeteria Tulipan",
      "tipo": "cafe",
      "lat": 36.5105757,
      "lon": -4.8958831,
      "direccion": null,
      "codigo_postal": null,
      "telefono": null,
      "web": null,
      "instagram": null,
      "horario": null,
      "terraza": false,
      "musica": null,
      "fuente": "openstreetmap"
    },
    {
      "id": "osm_node_1887332747",
      "nombre": "Viña del Mar",
      "tipo": "bar",
      "lat": 36.5105895,
      "lon": -4.8955459,
      "direccion": null,
      "codigo_postal": null,
      "telefono": null,
      "web": null,
      "instagram": null,
      "horario": null,
      "terraza": false,
      "musica": null,
      "fuente": "openstreetmap"
    },
    {
      "id": "osm_node_1942867120",
      "nombre": "La Canasta",
      "tipo": "cafe",
      "lat": 36.7190158,
      "lon": -4.4214069,
      "direccion": "Calle Marqués de Larios 7",
      "codigo_postal": "29015",
      "telefono": null,
      "web": null,
      "instagram": null,
      "horario": null,
      "terraza": true,
      "musica": null,
      "fuente": "openstreetmap"
    },
    {
      "id": "osm_node_1979022132",
      "nombre": "Géminis",
      "tipo": "cafe",
      "lat": 36.7403727,
      "lon": -4.0915878,
      "direccion": null,
      "codigo_postal": null,
      "telefono": null,
      "web": null,
      "instagram": null,
      "horario": null,
      "terraza": false,
      "musica": null,
      "fuente": "openstreetmap"
    },
    {
      "id": "osm_node_1984991127",
      "nombre": "Pica&Pizza",
      "tipo": "bar",
      "lat": 36.5515426,
      "lon": -4.6188679,
      "direccion": "Avenida Acapulco 2",
      "codigo_postal": "29640",
      "telefono": null,
      "web": null,
      "instagram": null,
      "horario": null,
      "terraza": false,
      "musica": null,
      "fuente": "openstreetmap"
    },
    {
      "id": "osm_node_1984991128",
      "nombre": "Yano's",
      "tipo": "bar",
      "lat": 36.550625,
      "lon": -4.6180226,
      "direccion": null,
      "codigo_postal": null,
      "telefono": null,
      "web": null,
      "instagram": null,
      "horario": null,
      "terraza": false,
      "musica": null,
      "fuente": "openstreetmap"
    },
    {
      "id": "osm_node_1984991129",
      "nombre": "Yorkshire Lad",
      "tipo": "pub",
      "lat": 36.5430833,
      "lon": -4.6193131,
      "direccion": null,
      "codigo_postal": null,
      "telefono": null,
      "web": null,
      "instagram": null,
      "horario": null,
      "terraza": false,
      "musica": null,
      "fuente": "openstreetmap"
    },
    {
      "id": "osm_node_1984991176",
      "nombre": "Bar Cocina Witi",
      "tipo": "bar",
      "lat": 36.550261,
      "lon": -4.6175025,
      "direccion": null,
      "codigo_postal": null,
      "telefono": null,
      "web": null,
      "instagram": null,
      "horario": null,
      "terraza": false,
      "musica": null,
      "fuente": "openstreetmap"
    },
    {
      "id": "osm_node_2015625091",
      "nombre": "Bar Cafetería Ortigosa",
      "tipo": "cafe",
      "lat": 36.7433448,
      "lon": -5.1600872,
      "direccion": "Calle San Vicente de Paúl 4",
      "codigo_postal": "29400",
      "telefono": null,
      "web": "https://plus.google.com/u/0/116537766962615740249",
      "instagram": null,
      "horario": null,
      "terraza": false,
      "musica": null,
      "fuente": "openstreetmap"
    },
    {
      "id": "osm_node_2083959190",
      "nombre": "Los Turroneros",
      "tipo": "cafe",
      "lat": 36.721321,
      "lon": -4.4345534,
      "direccion": null,
      "codigo_postal": null,
      "telefono": null,
      "web": null,
      "instagram": null,
      "horario": null,
      "terraza": false,
      "musica": null,
      "fuente": "openstreetmap"
    },
    {
      "id": "osm_node_2087828222",
      "nombre": "Mesón Gibralfaro",
      "tipo": "bar",
      "lat": 36.7216918,
      "lon": -4.4197383,
      "direccion": null,
      "codigo_postal": null,
      "telefono": null,
      "web": null,
      "instagram": null,
      "horario": null,
      "terraza": false,
      "musica": null,
      "fuente": "openstreetmap"
    },
    {
      "id": "osm_node_2102551179",
      "nombre": "Bar Juanete",
      "tipo": "cafe",
      "lat": 36.8167181,
      "lon": -4.0463326,
      "direccion": "Avenida Fernandez Ramos",
      "codigo_postal": "29753",
      "telefono": "+34 952509086",
      "web": null,
      "instagram": null,
      "horario": null,
      "terraza": false,
      "musica": null,
      "fuente": "openstreetmap"
    },
    {
      "id": "osm_node_2104476251",
      "nombre": "Jocavi",
      "tipo": "cafe",
      "lat": 36.7979419,
      "lon": -4.0118813,
      "direccion": null,
      "codigo_postal": null,
      "telefono": null,
      "web": null,
      "instagram": null,
      "horario": null,
      "terraza": false,
      "musica": null,
      "fuente": "openstreetmap"
    },
    {
      "id": "osm_node_2105861084",
      "nombre": "Medel",
      "tipo": "cafe",
      "lat": 36.7400151,
      "lon": -4.0921627,
      "direccion": null,
      "codigo_postal": null,
      "telefono": "+34 952540557",
      "web": null,
      "instagram": null,
      "horario": null,
      "terraza": false,
      "musica": null,
      "fuente": "openstreetmap"
    },
    {
      "id": "osm_node_2110655735",
      "nombre": "Cónico",
      "tipo": "cafe",
      "lat": 36.7551763,
      "lon": -4.1011664,
      "direccion": null,
      "codigo_postal": null,
      "telefono": null,
      "web": null,
      "instagram": null,
      "horario": null,
      "terraza": false,
      "musica": null,
      "fuente": "openstreetmap"
    },
    {
      "id": "osm_node_2111982775",
      "nombre": "Cafe Centro",
      "tipo": "cafe",
      "lat": 36.7413009,
      "lon": -4.0946182,
      "direccion": null,
      "codigo_postal": null,
      "telefono": null,
      "web": null,
      "instagram": null,
      "horario": null,
      "terraza": false,
      "musica": null,
      "fuente": "openstreetmap"
    },
    {
      "id": "osm_node_2112235841",
      "nombre": "Sal & Pimienta",
      "tipo": "pub",
      "lat": 36.7432468,
      "lon": -3.8833748,
      "direccion": null,
      "codigo_postal": null,
      "telefono": null,
      "web": null,
      "instagram": null,
      "horario": null,
      "terraza": false,
      "musica": null,
      "fuente": "openstreetmap"
    },
    {
      "id": "osm_node_2112235845",
      "nombre": "The Ship",
      "tipo": "pub",
      "lat": 36.7432314,
      "lon": -3.883449,
      "direccion": null,
      "codigo_postal": null,
      "telefono": null,
      "web": null,
      "instagram": null,
      "horario": null,
      "terraza": false,
      "musica": null,
      "fuente": "openstreetmap"
    },
    {
      "id": "osm_node_2154168760",
      "nombre": "Bakers Bar",
      "tipo": "pub",
      "lat": 36.7512238,
      "lon": -3.8667489,
      "direccion": null,
      "codigo_postal": null,
      "telefono": null,
      "web": null,
      "instagram": null,
      "horario": null,
      "terraza": true,
      "musica": null,
      "fuente": "openstreetmap"
    },
    {
      "id": "osm_node_2154168766",
      "nombre": "Bruxelles",
      "tipo": "cafe",
      "lat": 36.7512621,
      "lon": -3.8666499,
      "direccion": null,
      "codigo_postal": null,
      "telefono": null,
      "web": null,
      "instagram": null,
      "horario": null,
      "terraza": true,
      "musica": null,
      "fuente": "openstreetmap"
    },
    {
      "id": "osm_node_2154168783",
      "nombre": "Paradise",
      "tipo": "pub",
      "lat": 36.7505241,
      "lon": -3.8682621,
      "direccion": null,
      "codigo_postal": null,
      "telefono": null,
      "web": null,
      "instagram": null,
      "horario": null,
      "terraza": true,
      "musica": null,
      "fuente": "openstreetmap"
    },
    {
      "id": "osm_node_2154168790",
      "nombre": "Tropy Sol",
      "tipo": "cafe",
      "lat": 36.7502847,
      "lon": -3.868671,
      "direccion": null,
      "codigo_postal": null,
      "telefono": null,
      "web": null,
      "instagram": null,
      "horario": null,
      "terraza": true,
      "musica": null,
      "fuente": "openstreetmap"
    },
    {
      "id": "osm_node_2209835709",
      "nombre": "Cafe Plaza",
      "tipo": "cafe",
      "lat": 36.4919451,
      "lon": -4.7051686,
      "direccion": null,
      "codigo_postal": null,
      "telefono": null,
      "web": null,
      "instagram": null,
      "horario": null,
      "terraza": false,
      "musica": null,
      "fuente": "openstreetmap"
    },
    {
      "id": "osm_node_2246425521",
      "nombre": "La Mirada",
      "tipo": "pub",
      "lat": 36.7328978,
      "lon": -4.5655696,
      "direccion": "Avenida Profesor García Rodeja 63",
      "codigo_postal": "29591",
      "telefono": "+34 952626575",
      "web": "https://www.cafeterialamirada.com",
      "instagram": null,
      "horario": "Mo-Th 06:00-12:30;Fr-Sa 06:00-17:00;Su 07:00-17:00",
      "terraza": false,
      "musica": null,
      "fuente": "openstreetmap"
    },
    {
      "id": "osm_node_2262670685",
      "nombre": "Candelaria",
      "tipo": "cafe",
      "lat": 36.7305193,
      "lon": -4.4393411,
      "direccion": "Calle Nuestra Señora de los Clarines 9",
      "codigo_postal": "29011",
      "telefono": null,
      "web": null,
      "instagram": null,
      "horario": null,
      "terraza": false,
      "musica": null,
      "fuente": "openstreetmap"
    },
    {
      "id": "osm_node_2275692163",
      "nombre": "El Traguillo",
      "tipo": "bar",
      "lat": 36.5941297,
      "lon": -4.5751072,
      "direccion": null,
      "codigo_postal": null,
      "telefono": null,
      "web": null,
      "instagram": null,
      "horario": null,
      "terraza": false,
      "musica": null,
      "fuente": "openstreetmap"
    },
    {
      "id": "osm_node_2293343133",
      "nombre": "Boca Boca",
      "tipo": "cafe",
      "lat": 36.7294406,
      "lon": -3.9646352,
      "direccion": "Avenida América",
      "codigo_postal": "29793",
      "telefono": "+34 608 48 45 88",
      "web": null,
      "instagram": null,
      "horario": "Mo-Tu 09:00-17:00; Th-Su 09:00-17:00; Tu[2,4] off",
      "terraza": true,
      "musica": null,
      "fuente": "openstreetmap"
    },
    {
      "id": "osm_node_2294156073",
      "nombre": "El Café",
      "tipo": "cafe",
      "lat": 36.4901772,
      "lon": -4.9882409,
      "direccion": null,
      "codigo_postal": null,
      "telefono": null,
      "web": null,
      "instagram": null,
      "horario": null,
      "terraza": false,
      "musica": null,
      "fuente": "openstreetmap"
    },
    {
      "id": "osm_node_2297517461",
      "nombre": "La Brasa",
      "tipo": "pub",
      "lat": 37.1291658,
      "lon": -4.6590724,
      "direccion": null,
      "codigo_postal": null,
      "telefono": null,
      "web": null,
      "instagram": null,
      "horario": null,
      "terraza": false,
      "musica": null,
      "fuente": "openstreetmap"
    },
    {
      "id": "osm_node_2297517945",
      "nombre": "Bar Reyes",
      "tipo": "pub",
      "lat": 37.1290766,
      "lon": -4.6587703,
      "direccion": null,
      "codigo_postal": null,
      "telefono": null,
      "web": null,
      "instagram": null,
      "horario": null,
      "terraza": false,
      "musica": null,
      "fuente": "openstreetmap"
    },
    {
      "id": "osm_node_2322371569",
      "nombre": "La Tetería",
      "tipo": "cafe",
      "lat": 36.72142,
      "lon": -4.418836,
      "direccion": null,
      "codigo_postal": null,
      "telefono": null,
      "web": null,
      "instagram": null,
      "horario": null,
      "terraza": false,
      "musica": null,
      "fuente": "openstreetmap"
    },
    {
      "id": "osm_node_2334240620",
      "nombre": "Café glassé",
      "tipo": "cafe",
      "lat": 36.663308,
      "lon": -4.562148,
      "direccion": null,
      "codigo_postal": null,
      "telefono": null,
      "web": null,
      "instagram": null,
      "horario": null,
      "terraza": false,
      "musica": null,
      "fuente": "openstreetmap"
    },
    {
      "id": "osm_node_2353752123",
      "nombre": "La Cuisine",
      "tipo": "bar",
      "lat": 36.5109412,
      "lon": -4.8853014,
      "direccion": null,
      "codigo_postal": null,
      "telefono": null,
      "web": null,
      "instagram": null,
      "horario": null,
      "terraza": true,
      "musica": null,
      "fuente": "openstreetmap"
    },
    {
      "id": "osm_node_2354534100",
      "nombre": "Café",
      "tipo": "cafe",
      "lat": 36.461887,
      "lon": -5.0522723,
      "direccion": null,
      "codigo_postal": null,
      "telefono": null,
      "web": null,
      "instagram": null,
      "horario": null,
      "terraza": false,
      "musica": null,
      "fuente": "openstreetmap"
    },
    {
      "id": "osm_node_2354556225",
      "nombre": "Santa Maria",
      "tipo": "bar",
      "lat": 36.461957,
      "lon": -5.053131,
      "direccion": null,
      "codigo_postal": null,
      "telefono": null,
      "web": null,
      "instagram": null,
      "horario": null,
      "terraza": false,
      "musica": null,
      "fuente": "openstreetmap"
    },
    {
      "id": "osm_node_2357789949",
      "nombre": "Bar La Bodega",
      "tipo": "pub",
      "lat": 36.8148109,
      "lon": -5.2976423,
      "direccion": null,
      "codigo_postal": null,
      "telefono": null,
      "web": null,
      "instagram": null,
      "horario": null,
      "terraza": false,
      "musica": null,
      "fuente": "openstreetmap"
    },
    {
      "id": "osm_node_2357789959",
      "nombre": "Bar La Parada",
      "tipo": "pub",
      "lat": 36.815436,
      "lon": -5.2969338,
      "direccion": null,
      "codigo_postal": null,
      "telefono": null,
      "web": null,
      "instagram": null,
      "horario": null,
      "terraza": false,
      "musica": null,
      "fuente": "openstreetmap"
    },
    {
      "id": "osm_node_2357789962",
      "nombre": "Bar Lobado",
      "tipo": "pub",
      "lat": 36.8149132,
      "lon": -5.2982573,
      "direccion": null,
      "codigo_postal": null,
      "telefono": null,
      "web": null,
      "instagram": null,
      "horario": null,
      "terraza": false,
      "musica": null,
      "fuente": "openstreetmap"
    },
    {
      "id": "osm_node_2357789995",
      "nombre": "Venta Bar \"El Hondon\"",
      "tipo": "pub",
      "lat": 36.7827372,
      "lon": -5.2374375,
      "direccion": null,
      "codigo_postal": null,
      "telefono": null,
      "web": null,
      "instagram": null,
      "horario": null,
      "terraza": false,
      "musica": null,
      "fuente": "openstreetmap"
    },
    {
      "id": "osm_node_2360365146",
      "nombre": "El Estrecho",
      "tipo": "pub",
      "lat": 36.5097676,
      "lon": -4.8859494,
      "direccion": "Calle de San Lazaro 12",
      "codigo_postal": "29600",
      "telefono": null,
      "web": null,
      "instagram": null,
      "horario": null,
      "terraza": false,
      "musica": null,
      "fuente": "openstreetmap"
    },
    {
      "id": "osm_node_2368321985",
      "nombre": "Jaime",
      "tipo": "cafe",
      "lat": 36.7457434,
      "lon": -3.880895,
      "direccion": null,
      "codigo_postal": null,
      "telefono": null,
      "web": null,
      "instagram": null,
      "horario": null,
      "terraza": false,
      "musica": null,
      "fuente": "openstreetmap"
    },
    {
      "id": "osm_node_2379193793",
      "nombre": "Heladería Valentino",
      "tipo": "cafe",
      "lat": 36.5484994,
      "lon": -4.6160934,
      "direccion": "Paseo Marítimo Rey de España 55",
      "codigo_postal": "29640",
      "telefono": null,
      "web": null,
      "instagram": null,
      "horario": null,
      "terraza": false,
      "musica": null,
      "fuente": "openstreetmap"
    },
    {
      "id": "osm_node_2418837341",
      "nombre": "Bar Antonio",
      "tipo": "bar",
      "lat": 36.5346456,
      "lon": -4.6597458,
      "direccion": null,
      "codigo_postal": null,
      "telefono": null,
      "web": null,
      "instagram": null,
      "horario": null,
      "terraza": false,
      "musica": null,
      "fuente": "openstreetmap"
    },
    {
      "id": "osm_node_2472137133",
      "nombre": "Forever Beach Club",
      "tipo": "pub",
      "lat": 36.5985269,
      "lon": -4.5108913,
      "direccion": "Avenida del Puerto 3",
      "codigo_postal": "29630",
      "telefono": "+34 686 06 31 73",
      "web": null,
      "instagram": null,
      "horario": null,
      "terraza": false,
      "musica": null,
      "fuente": "openstreetmap"
    },
    {
      "id": "osm_node_2480425221",
      "nombre": "La Bodega bei Rainer",
      "tipo": "pub",
      "lat": 36.7296302,
      "lon": -3.9602968,
      "direccion": "Avenida García Peñalver",
      "codigo_postal": "29793",
      "telefono": "+34 603184273",
      "web": "https://torrox-costa.de/info/la-bodega-bei-rainer",
      "instagram": null,
      "horario": "Tu,Fr 18:00+,We,Sa,Su 15:00+",
      "terraza": false,
      "musica": null,
      "fuente": "openstreetmap"
    },
    {
      "id": "osm_node_2500543881",
      "nombre": "El Tropezón",
      "tipo": "bar",
      "lat": 36.4843178,
      "lon": -4.9917441,
      "direccion": null,
      "codigo_postal": null,
      "telefono": null,
      "web": null,
      "instagram": null,
      "horario": null,
      "terraza": false,
      "musica": null,
      "fuente": "openstreetmap"
    },
    {
      "id": "osm_node_2500543882",
      "nombre": "Magnolia",
      "tipo": "cafe",
      "lat": 36.4840554,
      "lon": -4.9916956,
      "direccion": null,
      "codigo_postal": null,
      "telefono": null,
      "web": null,
      "instagram": null,
      "horario": null,
      "terraza": false,
      "musica": null,
      "fuente": "openstreetmap"
    },
    {
      "id": "osm_node_2500543883",
      "nombre": "Moka",
      "tipo": "cafe",
      "lat": 36.4842871,
      "lon": -4.9913096,
      "direccion": null,
      "codigo_postal": null,
      "telefono": null,
      "web": null,
      "instagram": null,
      "horario": null,
      "terraza": false,
      "musica": null,
      "fuente": "openstreetmap"
    },
    {
      "id": "osm_node_2507293795",
      "nombre": "Croissant",
      "tipo": "cafe",
      "lat": 36.7180172,
      "lon": -4.4239192,
      "direccion": "Calle Atarazanas 13",
      "codigo_postal": "29005",
      "telefono": null,
      "web": null,
      "instagram": null,
      "horario": null,
      "terraza": false,
      "musica": null,
      "fuente": "openstreetmap"
    },
    {
      "id": "osm_node_2514488836",
      "nombre": "Starbucks",
      "tipo": "cafe",
      "lat": 36.677096,
      "lon": -4.4940389,
      "direccion": null,
      "codigo_postal": null,
      "telefono": null,
      "web": null,
      "instagram": null,
      "horario": null,
      "terraza": false,
      "musica": null,
      "fuente": "openstreetmap"
    },
    {
      "id": "osm_node_2527543041",
      "nombre": "El madrugón",
      "tipo": "bar",
      "lat": 36.8229264,
      "lon": -4.7065278,
      "direccion": null,
      "codigo_postal": null,
      "telefono": null,
      "web": null,
      "instagram": null,
      "horario": null,
      "terraza": false,
      "musica": null,
      "fuente": "openstreetmap"
    },
    {
      "id": "osm_node_2576579160",
      "nombre": "Tetería El Pequeño Buda",
      "tipo": "cafe",
      "lat": 36.7208794,
      "lon": -4.4763865,
      "direccion": "Calle Antígona 8",
      "codigo_postal": "29010",
      "telefono": "+34 685 84 71 04",
      "web": null,
      "instagram": null,
      "horario": "Mo-Th 15:00-22:00; Fr-Sa 15:00-1:30; Su 15:00-22:00",
      "terraza": true,
      "musica": null,
      "fuente": "openstreetmap"
    },
    {
      "id": "osm_node_2620144421",
      "nombre": "Robin Hood",
      "tipo": "bar",
      "lat": 36.5964608,
      "lon": -4.5261644,
      "direccion": null,
      "codigo_postal": null,
      "telefono": null,
      "web": null,
      "instagram": null,
      "horario": null,
      "terraza": false,
      "musica": null,
      "fuente": "openstreetmap"
    },
    {
      "id": "osm_node_2622079774",
      "nombre": "Cafetería Teide",
      "tipo": "cafe",
      "lat": 36.6609032,
      "lon": -4.5615906,
      "direccion": null,
      "codigo_postal": null,
      "telefono": null,
      "web": null,
      "instagram": null,
      "horario": null,
      "terraza": false,
      "musica": null,
      "fuente": "openstreetmap"
    },
    {
      "id": "osm_node_2622085852",
      "nombre": "Las Tres María",
      "tipo": "cafe",
      "lat": 36.6606901,
      "lon": -4.5651491,
      "direccion": null,
      "codigo_postal": null,
      "telefono": null,
      "web": null,
      "instagram": null,
      "horario": null,
      "terraza": false,
      "musica": null,
      "fuente": "openstreetmap"
    },
    {
      "id": "osm_node_2622093276",
      "nombre": "Heladería Inma",
      "tipo": "cafe",
      "lat": 36.6613253,
      "lon": -4.5376571,
      "direccion": null,
      "codigo_postal": null,
      "telefono": null,
      "web": null,
      "instagram": null,
      "horario": null,
      "terraza": false,
      "musica": null,
      "fuente": "openstreetmap"
    },
    {
      "id": "osm_node_2622101636",
      "nombre": "Bar A La Fuerza",
      "tipo": "cafe",
      "lat": 37.0215378,
      "lon": -4.5649227,
      "direccion": "Calle Alameda 32",
      "codigo_postal": "29200",
      "telefono": null,
      "web": null,
      "instagram": null,
      "horario": null,
      "terraza": false,
      "musica": null,
      "fuente": "openstreetmap"
    },
    {
      "id": "osm_node_2622101815",
      "nombre": "La Plaza",
      "tipo": "cafe",
      "lat": 37.021001,
      "lon": -4.5660936,
      "direccion": null,
      "codigo_postal": null,
      "telefono": null,
      "web": null,
      "instagram": null,
      "horario": null,
      "terraza": false,
      "musica": null,
      "fuente": "openstreetmap"
    },
    {
      "id": "osm_node_2643579427",
      "nombre": "Bar Pulgarin",
      "tipo": "bar",
      "lat": 36.9526901,
      "lon": -4.2457537,
      "direccion": null,
      "codigo_postal": null,
      "telefono": null,
      "web": null,
      "instagram": null,
      "horario": null,
      "terraza": false,
      "musica": null,
      "fuente": "openstreetmap"
    },
    {
      "id": "osm_node_2643980145",
      "nombre": "La Parada",
      "tipo": "bar",
      "lat": 36.9942845,
      "lon": -4.2592821,
      "direccion": null,
      "codigo_postal": null,
      "telefono": null,
      "web": null,
      "instagram": null,
      "horario": null,
      "terraza": false,
      "musica": null,
      "fuente": "openstreetmap"
    },
    {
      "id": "osm_node_2644136709",
      "nombre": "La Clave",
      "tipo": "bar",
      "lat": 36.997785,
      "lon": -4.3658084,
      "direccion": null,
      "codigo_postal": null,
      "telefono": null,
      "web": null,
      "instagram": null,
      "horario": null,
      "terraza": false,
      "musica": null,
      "fuente": "openstreetmap"
    },
    {
      "id": "osm_node_2657311374",
      "nombre": "Bodegas Agustín",
      "tipo": "bar",
      "lat": 36.3758653,
      "lon": -5.2464506,
      "direccion": null,
      "codigo_postal": null,
      "telefono": null,
      "web": null,
      "instagram": null,
      "horario": null,
      "terraza": false,
      "musica": null,
      "fuente": "openstreetmap"
    },
    {
      "id": "osm_node_2702236820",
      "nombre": "Poppins",
      "tipo": "cafe",
      "lat": 36.660258,
      "lon": -4.5394196,
      "direccion": null,
      "codigo_postal": null,
      "telefono": null,
      "web": null,
      "instagram": null,
      "horario": null,
      "terraza": false,
      "musica": null,
      "fuente": "openstreetmap"
    },
    {
      "id": "osm_node_2761475070",
      "nombre": "Sala Casarte Azul",
      "tipo": "bar",
      "lat": 36.7734277,
      "lon": -4.1033886,
      "direccion": "Avenida Camino Viejo de Málaga 22",
      "codigo_postal": "29700",
      "telefono": null,
      "web": null,
      "instagram": null,
      "horario": null,
      "terraza": false,
      "musica": null,
      "fuente": "openstreetmap"
    },
    {
      "id": "osm_node_2766723080",
      "nombre": "Tiffany's",
      "tipo": "bar",
      "lat": 36.7222969,
      "lon": -4.4171951,
      "direccion": "Calle Alcazabilla 11",
      "codigo_postal": "29015",
      "telefono": null,
      "web": null,
      "instagram": null,
      "horario": "Mo-Su 11:00-01:30",
      "terraza": true,
      "musica": null,
      "fuente": "openstreetmap"
    },
    {
      "id": "osm_node_2766723102",
      "nombre": "Birras Deluxe",
      "tipo": "pub",
      "lat": 36.7230628,
      "lon": -4.4181729,
      "direccion": "5",
      "codigo_postal": null,
      "telefono": "+34 620 21 87 65",
      "web": "https://www.birrasdeluxe.com/",
      "instagram": null,
      "horario": "Mo 17:00-23:00;We 18:00-23:00;Th 17:00-24:00;Fr-Sa 13:00-24:00;Tu off",
      "terraza": false,
      "musica": null,
      "fuente": "openstreetmap"
    },
    {
      "id": "osm_node_2766723117",
      "nombre": "Cafe Merced",
      "tipo": "cafe",
      "lat": 36.723792,
      "lon": -4.4177981,
      "direccion": "14",
      "codigo_postal": "29012",
      "telefono": null,
      "web": null,
      "instagram": null,
      "horario": null,
      "terraza": false,
      "musica": null,
      "fuente": "openstreetmap"
    },
    {
      "id": "osm_node_2766723130",
      "nombre": "El Clan",
      "tipo": "bar",
      "lat": 36.7238327,
      "lon": -4.4173332,
      "direccion": "17",
      "codigo_postal": "29012",
      "telefono": "+34 692 06 43 80",
      "web": null,
      "instagram": null,
      "horario": "Mo-Su 09:00-24:00",
      "terraza": false,
      "musica": null,
      "fuente": "openstreetmap"
    },
    {
      "id": "osm_node_2766723133",
      "nombre": "Picasso Bar Tapas",
      "tipo": "bar",
      "lat": 36.7235877,
      "lon": -4.4169704,
      "direccion": "20",
      "codigo_postal": "29012",
      "telefono": "+34 951 92 53 66",
      "web": "https://www.restaurantepicasso.com/",
      "instagram": null,
      "horario": "Mo-Su 09:00-24:00",
      "terraza": false,
      "musica": null,
      "fuente": "openstreetmap"
    },
    {
      "id": "osm_node_2766723134",
      "nombre": "Cafe Con Libros",
      "tipo": "cafe",
      "lat": 36.7236167,
      "lon": -4.4170232,
      "direccion": "20",
      "codigo_postal": "29012",
      "telefono": null,
      "web": null,
      "instagram": null,
      "horario": null,
      "terraza": false,
      "musica": null,
      "fuente": "openstreetmap"
    },
    {
      "id": "osm_node_2766723136",
      "nombre": "Re-pitta",
      "tipo": "bar",
      "lat": 36.7235511,
      "lon": -4.4169338,
      "direccion": "20",
      "codigo_postal": "29012",
      "telefono": "+34 952 60 28 96",
      "web": null,
      "instagram": null,
      "horario": "Mo-Su 13:00-16:30, 20:30-01:00",
      "terraza": false,
      "musica": null,
      "fuente": "openstreetmap"
    },
    {
      "id": "osm_node_2766723138",
      "nombre": "El Carmen",
      "tipo": "bar",
      "lat": 36.7234443,
      "lon": -4.4167667,
      "direccion": "21",
      "codigo_postal": "29012",
      "telefono": "+34 952 21 09 24",
      "web": null,
      "instagram": null,
      "horario": "Mo-Fr 09:00-02:00; Sa-Su 09:00-03:00",
      "terraza": false,
      "musica": null,
      "fuente": "openstreetmap"
    },
    {
      "id": "osm_node_2766723143",
      "nombre": "El Pescaito",
      "tipo": "bar",
      "lat": 36.7239132,
      "lon": -4.4188245,
      "direccion": null,
      "codigo_postal": null,
      "telefono": null,
      "web": null,
      "instagram": null,
      "horario": null,
      "terraza": false,
      "musica": null,
      "fuente": "openstreetmap"
    },
    {
      "id": "osm_node_2766723150",
      "nombre": "El Palco",
      "tipo": "bar",
      "lat": 36.7242402,
      "lon": -4.4191681,
      "direccion": null,
      "codigo_postal": null,
      "telefono": null,
      "web": null,
      "instagram": null,
      "horario": null,
      "terraza": false,
      "musica": null,
      "fuente": "openstreetmap"
    },
    {
      "id": "osm_node_2766723153",
      "nombre": "Bar Cervantes",
      "tipo": "bar",
      "lat": 36.7244546,
      "lon": -4.4191627,
      "direccion": null,
      "codigo_postal": null,
      "telefono": null,
      "web": null,
      "instagram": null,
      "horario": null,
      "terraza": false,
      "musica": null,
      "fuente": "openstreetmap"
    },
    {
      "id": "osm_node_2766723156",
      "nombre": "Vino Mio",
      "tipo": "bar",
      "lat": 36.7245414,
      "lon": -4.419058,
      "direccion": "2",
      "codigo_postal": null,
      "telefono": null,
      "web": null,
      "instagram": null,
      "horario": null,
      "terraza": false,
      "musica": null,
      "fuente": "openstreetmap"
    },
    {
      "id": "osm_node_2767096016",
      "nombre": "Morrissey's",
      "tipo": "pub",
      "lat": 36.7229048,
      "lon": -4.4207244,
      "direccion": null,
      "codigo_postal": null,
      "telefono": null,
      "web": null,
      "instagram": null,
      "horario": null,
      "terraza": false,
      "musica": null,
      "fuente": "openstreetmap"
    },
    {
      "id": "osm_node_2767096017",
      "nombre": "Palacio Nazari",
      "tipo": "cafe",
      "lat": 36.7230022,
      "lon": -4.4208299,
      "direccion": null,
      "codigo_postal": null,
      "telefono": null,
      "web": null,
      "instagram": null,
      "horario": null,
      "terraza": false,
      "musica": null,
      "fuente": "openstreetmap"
    },
    {
      "id": "osm_node_2767096019",
      "nombre": "Tejeringo's",
      "tipo": "cafe",
      "lat": 36.7230495,
      "lon": -4.4206932,
      "direccion": null,
      "codigo_postal": null,
      "telefono": null,
      "web": null,
      "instagram": null,
      "horario": null,
      "terraza": false,
      "musica": null,
      "fuente": "openstreetmap"
    },
    {
      "id": "osm_node_2767096021",
      "nombre": "Neptuno",
      "tipo": "bar",
      "lat": 36.7224974,
      "lon": -4.4204796,
      "direccion": null,
      "codigo_postal": null,
      "telefono": null,
      "web": null,
      "instagram": null,
      "horario": null,
      "terraza": false,
      "musica": null,
      "fuente": "openstreetmap"
    },
    {
      "id": "osm_node_2767096023",
      "nombre": "La Tasca",
      "tipo": "bar",
      "lat": 36.7223867,
      "lon": -4.4204803,
      "direccion": null,
      "codigo_postal": null,
      "telefono": null,
      "web": null,
      "instagram": null,
      "horario": null,
      "terraza": false,
      "musica": null,
      "fuente": "openstreetmap"
    },
    {
      "id": "osm_node_2767096025",
      "nombre": "La Piconera",
      "tipo": "bar",
      "lat": 36.7222235,
      "lon": -4.4204919,
      "direccion": null,
      "codigo_postal": null,
      "telefono": null,
      "web": null,
      "instagram": null,
      "horario": null,
      "terraza": false,
      "musica": null,
      "fuente": "openstreetmap"
    },
    {
      "id": "osm_node_2767096028",
      "nombre": "Metro-Copas",
      "tipo": "bar",
      "lat": 36.7222362,
      "lon": -4.4210275,
      "direccion": null,
      "codigo_postal": null,
      "telefono": null,
      "web": null,
      "instagram": null,
      "horario": null,
      "terraza": false,
      "musica": null,
      "fuente": "openstreetmap"
    },
    {
      "id": "osm_node_2767096030",
      "nombre": "Soho",
      "tipo": "bar",
      "lat": 36.7218772,
      "lon": -4.4213628,
      "direccion": null,
      "codigo_postal": null,
      "telefono": null,
      "web": null,
      "instagram": null,
      "horario": null,
      "terraza": false,
      "musica": null,
      "fuente": "openstreetmap"
    },
    {
      "id": "osm_node_2767135837",
      "nombre": "Cafe Moka",
      "tipo": "cafe",
      "lat": 36.7189708,
      "lon": -4.4210857,
      "direccion": null,
      "codigo_postal": null,
      "telefono": null,
      "web": null,
      "instagram": null,
      "horario": null,
      "terraza": false,
      "musica": null,
      "fuente": "openstreetmap"
    },
    {
      "id": "osm_node_2767135874",
      "nombre": "La Cocotte",
      "tipo": "bar",
      "lat": 36.7196692,
      "lon": -4.4210731,
      "direccion": null,
      "codigo_postal": null,
      "telefono": null,
      "web": null,
      "instagram": null,
      "horario": null,
      "terraza": false,
      "musica": null,
      "fuente": "openstreetmap"
    },
    {
      "id": "osm_node_2767135899",
      "nombre": "La Taberna del Obispo",
      "tipo": "pub",
      "lat": 36.71991,
      "lon": -4.4202041,
      "direccion": null,
      "codigo_postal": null,
      "telefono": null,
      "web": null,
      "instagram": null,
      "horario": null,
      "terraza": false,
      "musica": null,
      "fuente": "openstreetmap"
    },
    {
      "id": "osm_node_2767135904",
      "nombre": "L'experience",
      "tipo": "bar",
      "lat": 36.7200218,
      "lon": -4.4205232,
      "direccion": null,
      "codigo_postal": null,
      "telefono": null,
      "web": null,
      "instagram": null,
      "horario": "Mo-Su 09:00-02:00",
      "terraza": true,
      "musica": null,
      "fuente": "openstreetmap"
    },
    {
      "id": "osm_node_2767135909",
      "nombre": "La Malagueña",
      "tipo": "bar",
      "lat": 36.7201723,
      "lon": -4.4205527,
      "direccion": null,
      "codigo_postal": null,
      "telefono": null,
      "web": null,
      "instagram": null,
      "horario": null,
      "terraza": true,
      "musica": null,
      "fuente": "openstreetmap"
    },
    {
      "id": "osm_node_2802573686",
      "nombre": "Casa Aranda",
      "tipo": "cafe",
      "lat": 36.7187929,
      "lon": -4.4234163,
      "direccion": "Calle de la Alhóndiga 1",
      "codigo_postal": "29005",
      "telefono": "+34 952222812",
      "web": "http://www.casa-aranda.net",
      "instagram": null,
      "horario": null,
      "terraza": false,
      "musica": null,
      "fuente": "openstreetmap"
    },
    {
      "id": "osm_node_2804870801",
      "nombre": "Bar Mesón Las Flores",
      "tipo": "pub",
      "lat": 36.5399161,
      "lon": -5.3875293,
      "direccion": null,
      "codigo_postal": null,
      "telefono": null,
      "web": null,
      "instagram": null,
      "horario": null,
      "terraza": false,
      "musica": null,
      "fuente": "openstreetmap"
    },
    {
      "id": "osm_node_2815726436",
      "nombre": "cafestore",
      "tipo": "cafe",
      "lat": 36.6136141,
      "lon": -4.5278287,
      "direccion": null,
      "codigo_postal": "29620",
      "telefono": null,
      "web": null,
      "instagram": null,
      "horario": null,
      "terraza": false,
      "musica": null,
      "fuente": "openstreetmap"
    },
    {
      "id": "osm_node_2831615930",
      "nombre": "Bodegas Quitapenas",
      "tipo": "bar",
      "lat": 36.7211928,
      "lon": -4.3599599,
      "direccion": null,
      "codigo_postal": null,
      "telefono": null,
      "web": null,
      "instagram": null,
      "horario": null,
      "terraza": false,
      "musica": null,
      "fuente": "openstreetmap"
    },
    {
      "id": "osm_node_2833110267",
      "nombre": "Cuatro Esquinas",
      "tipo": "cafe",
      "lat": 36.7210572,
      "lon": -4.3588865,
      "direccion": null,
      "codigo_postal": null,
      "telefono": null,
      "web": null,
      "instagram": null,
      "horario": null,
      "terraza": false,
      "musica": null,
      "fuente": "openstreetmap"
    },
    {
      "id": "osm_node_2833110268",
      "nombre": "Salón Florido",
      "tipo": "cafe",
      "lat": 36.720926,
      "lon": -4.3590815,
      "direccion": null,
      "codigo_postal": null,
      "telefono": null,
      "web": null,
      "instagram": null,
      "horario": null,
      "terraza": false,
      "musica": null,
      "fuente": "openstreetmap"
    },
    {
      "id": "osm_node_2833110276",
      "nombre": "Migui",
      "tipo": "cafe",
      "lat": 36.721033,
      "lon": -4.358742,
      "direccion": null,
      "codigo_postal": null,
      "telefono": null,
      "web": null,
      "instagram": null,
      "horario": null,
      "terraza": false,
      "musica": null,
      "fuente": "openstreetmap"
    },
    {
      "id": "osm_node_2833110280",
      "nombre": "La Oficina",
      "tipo": "bar",
      "lat": 36.7218352,
      "lon": -4.3646303,
      "direccion": null,
      "codigo_postal": null,
      "telefono": null,
      "web": null,
      "instagram": null,
      "horario": null,
      "terraza": false,
      "musica": null,
      "fuente": "openstreetmap"
    },
    {
      "id": "osm_node_2834229783",
      "nombre": "Locutorio",
      "tipo": "cafe",
      "lat": 36.7166378,
      "lon": -4.4234132,
      "direccion": null,
      "codigo_postal": null,
      "telefono": null,
      "web": null,
      "instagram": null,
      "horario": null,
      "terraza": false,
      "musica": null,
      "fuente": "openstreetmap"
    },
    {
      "id": "osm_node_2855128749",
      "nombre": "\" cafestore\"",
      "tipo": "cafe",
      "lat": 36.6114197,
      "lon": -4.528578,
      "direccion": null,
      "codigo_postal": null,
      "telefono": null,
      "web": null,
      "instagram": null,
      "horario": null,
      "terraza": false,
      "musica": null,
      "fuente": "openstreetmap"
    },
    {
      "id": "osm_node_2883807001",
      "nombre": "Café Molière",
      "tipo": "cafe",
      "lat": 36.6887762,
      "lon": -4.455462,
      "direccion": "Calle Palma del Río 19",
      "codigo_postal": "29004",
      "telefono": null,
      "web": null,
      "instagram": null,
      "horario": null,
      "terraza": false,
      "musica": null,
      "fuente": "openstreetmap"
    },
    {
      "id": "osm_node_2883807603",
      "nombre": "Sherlock Holmes",
      "tipo": "pub",
      "lat": 36.7210285,
      "lon": -4.4202071,
      "direccion": "Calle Molina Lario 4",
      "codigo_postal": "29015",
      "telefono": null,
      "web": null,
      "instagram": "https://www.instagram.com/sherlockholmesmalaga/",
      "horario": null,
      "terraza": false,
      "musica": null,
      "fuente": "openstreetmap"
    },
    {
      "id": "osm_node_2883807901",
      "nombre": "Café Bar La Giralda",
      "tipo": "pub",
      "lat": 36.7117997,
      "lon": -4.4421918,
      "direccion": "Avenida José Ortega y Gasset 5-7",
      "codigo_postal": "29006",
      "telefono": null,
      "web": "https://barlagiralda.negocio.site",
      "instagram": null,
      "horario": null,
      "terraza": false,
      "musica": null,
      "fuente": "openstreetmap"
    },
    {
      "id": "osm_node_2885782484",
      "nombre": "La Campana",
      "tipo": "bar",
      "lat": 36.7150091,
      "lon": -4.4421382,
      "direccion": null,
      "codigo_postal": null,
      "telefono": null,
      "web": null,
      "instagram": null,
      "horario": null,
      "terraza": false,
      "musica": null,
      "fuente": "openstreetmap"
    },
    {
      "id": "osm_node_2952732095",
      "nombre": "Bar Diamante",
      "tipo": "bar",
      "lat": 36.5451523,
      "lon": -4.6182423,
      "direccion": null,
      "codigo_postal": null,
      "telefono": null,
      "web": null,
      "instagram": null,
      "horario": "Mo-Su 13:00-16:00, 21:00-24:00",
      "terraza": false,
      "musica": null,
      "fuente": "openstreetmap"
    },
    {
      "id": "osm_node_2952732098",
      "nombre": "Inga's café",
      "tipo": "cafe",
      "lat": 36.5413869,
      "lon": -4.6216787,
      "direccion": null,
      "codigo_postal": null,
      "telefono": null,
      "web": null,
      "instagram": null,
      "horario": null,
      "terraza": false,
      "musica": null,
      "fuente": "openstreetmap"
    },
    {
      "id": "osm_node_2952735545",
      "nombre": "Tapas Bar El Río",
      "tipo": "bar",
      "lat": 36.552642,
      "lon": -4.6143286,
      "direccion": null,
      "codigo_postal": null,
      "telefono": null,
      "web": null,
      "instagram": null,
      "horario": null,
      "terraza": false,
      "musica": null,
      "fuente": "openstreetmap"
    },
    {
      "id": "osm_node_2953578598",
      "nombre": "Cappuccino's",
      "tipo": "cafe",
      "lat": 36.5488067,
      "lon": -4.6159243,
      "direccion": null,
      "codigo_postal": null,
      "telefono": null,
      "web": null,
      "instagram": null,
      "horario": null,
      "terraza": false,
      "musica": null,
      "fuente": "openstreetmap"
    },
    {
      "id": "osm_node_2954727884",
      "nombre": "Churrería Amanecer",
      "tipo": "cafe",
      "lat": 36.6004295,
      "lon": -4.5286989,
      "direccion": null,
      "codigo_postal": null,
      "telefono": null,
      "web": null,
      "instagram": null,
      "horario": null,
      "terraza": false,
      "musica": null,
      "fuente": "openstreetmap"
    },
    {
      "id": "osm_node_3023135116",
      "nombre": "Bamboleo",
      "tipo": "bar",
      "lat": 37.1331491,
      "lon": -4.7255412,
      "direccion": null,
      "codigo_postal": null,
      "telefono": null,
      "web": null,
      "instagram": null,
      "horario": null,
      "terraza": false,
      "musica": null,
      "fuente": "openstreetmap"
    },
    {
      "id": "osm_node_3036955053",
      "nombre": "Pub El Otro Lado",
      "tipo": "bar",
      "lat": 36.5197326,
      "lon": -5.3177081,
      "direccion": null,
      "codigo_postal": null,
      "telefono": null,
      "web": null,
      "instagram": null,
      "horario": null,
      "terraza": false,
      "musica": null,
      "fuente": "openstreetmap"
    },
    {
      "id": "osm_node_3053205414",
      "nombre": "El Fuego",
      "tipo": "bar",
      "lat": 36.7507528,
      "lon": -3.8694585,
      "direccion": null,
      "codigo_postal": null,
      "telefono": null,
      "web": null,
      "instagram": null,
      "horario": null,
      "terraza": true,
      "musica": null,
      "fuente": "openstreetmap"
    },
    {
      "id": "osm_node_3065334249",
      "nombre": "Nuevo Miramar",
      "tipo": "pub",
      "lat": 36.7202292,
      "lon": -4.4082033,
      "direccion": "Calle Keromnes 4",
      "codigo_postal": "29016",
      "telefono": null,
      "web": null,
      "instagram": null,
      "horario": null,
      "terraza": false,
      "musica": null,
      "fuente": "openstreetmap"
    },
    {
      "id": "osm_node_3067574446",
      "nombre": "Café Simone",
      "tipo": "cafe",
      "lat": 36.5109817,
      "lon": -4.8861606,
      "direccion": null,
      "codigo_postal": null,
      "telefono": null,
      "web": null,
      "instagram": null,
      "horario": null,
      "terraza": false,
      "musica": null,
      "fuente": "openstreetmap"
    },
    {
      "id": "osm_node_3084258925",
      "nombre": "Bar",
      "tipo": "bar",
      "lat": 36.9520362,
      "lon": -5.0248439,
      "direccion": "Calle Cardenal Espínola",
      "codigo_postal": "29340",
      "telefono": null,
      "web": null,
      "instagram": null,
      "horario": null,
      "terraza": false,
      "musica": null,
      "fuente": "openstreetmap"
    },
    {
      "id": "osm_node_3084260012",
      "nombre": "El Tarugo",
      "tipo": "bar",
      "lat": 36.9519719,
      "lon": -5.0248037,
      "direccion": "Calle Cardenal Espínola",
      "codigo_postal": "29340",
      "telefono": null,
      "web": null,
      "instagram": null,
      "horario": null,
      "terraza": false,
      "musica": null,
      "fuente": "openstreetmap"
    },
    {
      "id": "osm_node_3084261813",
      "nombre": "Nicolas",
      "tipo": "bar",
      "lat": 36.9521733,
      "lon": -5.0241707,
      "direccion": "La berbena",
      "codigo_postal": "29340",
      "telefono": null,
      "web": null,
      "instagram": null,
      "horario": null,
      "terraza": false,
      "musica": null,
      "fuente": "openstreetmap"
    },
    {
      "id": "osm_node_3084334036",
      "nombre": "Tetería",
      "tipo": "cafe",
      "lat": 36.9516804,
      "lon": -5.0257934,
      "direccion": "Calle Porras",
      "codigo_postal": "29340",
      "telefono": null,
      "web": null,
      "instagram": null,
      "horario": null,
      "terraza": false,
      "musica": null,
      "fuente": "openstreetmap"
    },
    {
      "id": "osm_node_3084369714",
      "nombre": "Taberna Ríos",
      "tipo": "bar",
      "lat": 36.9504994,
      "lon": -5.0262118,
      "direccion": "El plao",
      "codigo_postal": "29340",
      "telefono": null,
      "web": null,
      "instagram": null,
      "horario": null,
      "terraza": false,
      "musica": null,
      "fuente": "openstreetmap"
    },
    {
      "id": "osm_node_3085466034",
      "nombre": "Tejeringos",
      "tipo": "cafe",
      "lat": 36.5409437,
      "lon": -4.6247587,
      "direccion": null,
      "codigo_postal": null,
      "telefono": null,
      "web": null,
      "instagram": null,
      "horario": null,
      "terraza": false,
      "musica": null,
      "fuente": "openstreetmap"
    },
    {
      "id": "osm_node_3148117729",
      "nombre": "Cónico",
      "tipo": "cafe",
      "lat": 36.7213969,
      "lon": -4.4214484,
      "direccion": null,
      "codigo_postal": null,
      "telefono": null,
      "web": null,
      "instagram": null,
      "horario": null,
      "terraza": false,
      "musica": null,
      "fuente": "openstreetmap"
    },
    {
      "id": "osm_node_3158072362",
      "nombre": "El Pan de Eric",
      "tipo": "cafe",
      "lat": 36.5041192,
      "lon": -4.9782849,
      "direccion": null,
      "codigo_postal": null,
      "telefono": null,
      "web": null,
      "instagram": null,
      "horario": null,
      "terraza": false,
      "musica": null,
      "fuente": "openstreetmap"
    },
    {
      "id": "osm_node_3161747300",
      "nombre": "Tetería Nirvana",
      "tipo": "cafe",
      "lat": 36.6989224,
      "lon": -4.4480015,
      "direccion": null,
      "codigo_postal": null,
      "telefono": null,
      "web": null,
      "instagram": null,
      "horario": null,
      "terraza": false,
      "musica": null,
      "fuente": "openstreetmap"
    },
    {
      "id": "osm_node_3171240998",
      "nombre": "Troyano",
      "tipo": "cafe",
      "lat": 36.4913065,
      "lon": -4.9916507,
      "direccion": null,
      "codigo_postal": null,
      "telefono": null,
      "web": null,
      "instagram": null,
      "horario": null,
      "terraza": false,
      "musica": null,
      "fuente": "openstreetmap"
    },
    {
      "id": "osm_node_3174571777",
      "nombre": "Cafeteria Amistad",
      "tipo": "cafe",
      "lat": 36.4914324,
      "lon": -4.987044,
      "direccion": null,
      "codigo_postal": null,
      "telefono": null,
      "web": null,
      "instagram": null,
      "horario": null,
      "terraza": false,
      "musica": null,
      "fuente": "openstreetmap"
    },
    {
      "id": "osm_node_3188802152",
      "nombre": "Betis - Hnos Moreno",
      "tipo": "bar",
      "lat": 36.4871271,
      "lon": -4.988585,
      "direccion": null,
      "codigo_postal": null,
      "telefono": null,
      "web": null,
      "instagram": null,
      "horario": null,
      "terraza": false,
      "musica": null,
      "fuente": "openstreetmap"
    },
    {
      "id": "osm_node_3196976363",
      "nombre": "Cafetería La Pausa",
      "tipo": "cafe",
      "lat": 36.4876315,
      "lon": -4.9889647,
      "direccion": null,
      "codigo_postal": null,
      "telefono": null,
      "web": null,
      "instagram": null,
      "horario": null,
      "terraza": false,
      "musica": null,
      "fuente": "openstreetmap"
    },
    {
      "id": "osm_node_3205842861",
      "nombre": "BOLERO",
      "tipo": "cafe",
      "lat": 36.4835995,
      "lon": -4.9901567,
      "direccion": null,
      "codigo_postal": null,
      "telefono": null,
      "web": null,
      "instagram": null,
      "horario": null,
      "terraza": false,
      "musica": null,
      "fuente": "openstreetmap"
    },
    {
      "id": "osm_node_3274291545",
      "nombre": "Los Pescadores",
      "tipo": "bar",
      "lat": 36.7436989,
      "lon": -4.0871561,
      "direccion": null,
      "codigo_postal": null,
      "telefono": null,
      "web": null,
      "instagram": null,
      "horario": null,
      "terraza": true,
      "musica": null,
      "fuente": "openstreetmap"
    },
    {
      "id": "osm_node_3312059076",
      "nombre": "La Cantina",
      "tipo": "bar",
      "lat": 36.8330408,
      "lon": -3.9747576,
      "direccion": "Plaza Almijara",
      "codigo_postal": null,
      "telefono": null,
      "web": null,
      "instagram": null,
      "horario": null,
      "terraza": false,
      "musica": null,
      "fuente": "openstreetmap"
    },
    {
      "id": "osm_node_3312194690",
      "nombre": "Soyahy",
      "tipo": "pub",
      "lat": 36.8725586,
      "lon": -4.0822612,
      "direccion": null,
      "codigo_postal": null,
      "telefono": null,
      "web": null,
      "instagram": null,
      "horario": null,
      "terraza": false,
      "musica": null,
      "fuente": "openstreetmap"
    },
    {
      "id": "osm_node_3359565192",
      "nombre": "Cuatro Esquinas",
      "tipo": "cafe",
      "lat": 36.7481877,
      "lon": -3.8765267,
      "direccion": "Calle Pintada 55",
      "codigo_postal": null,
      "telefono": null,
      "web": null,
      "instagram": null,
      "horario": null,
      "terraza": true,
      "musica": null,
      "fuente": "openstreetmap"
    },
    {
      "id": "osm_node_3361908102",
      "nombre": "En Pa Ca",
      "tipo": "cafe",
      "lat": 36.713002,
      "lon": -4.4319151,
      "direccion": "Calle Mendívil 6",
      "codigo_postal": "29002",
      "telefono": null,
      "web": null,
      "instagram": null,
      "horario": null,
      "terraza": false,
      "musica": null,
      "fuente": "openstreetmap"
    },
    {
      "id": "osm_node_3398087230",
      "nombre": "Churros & Noodles",
      "tipo": "cafe",
      "lat": 36.5535325,
      "lon": -4.6158486,
      "direccion": "Calle Santa Gema 2",
      "codigo_postal": null,
      "telefono": "+34 952 58 37 33",
      "web": "http://www.churrosynoodles.es",
      "instagram": null,
      "horario": null,
      "terraza": false,
      "musica": null,
      "fuente": "openstreetmap"
    },
    {
      "id": "osm_node_3399792167",
      "nombre": "Bar Didi",
      "tipo": "bar",
      "lat": 36.6001171,
      "lon": -4.5313081,
      "direccion": null,
      "codigo_postal": null,
      "telefono": null,
      "web": null,
      "instagram": null,
      "horario": null,
      "terraza": false,
      "musica": null,
      "fuente": "openstreetmap"
    },
    {
      "id": "osm_node_3399792168",
      "nombre": "New Carambola",
      "tipo": "bar",
      "lat": 36.6020884,
      "lon": -4.5330676,
      "direccion": null,
      "codigo_postal": null,
      "telefono": null,
      "web": null,
      "instagram": null,
      "horario": null,
      "terraza": false,
      "musica": null,
      "fuente": "openstreetmap"
    },
    {
      "id": "osm_node_3399795149",
      "nombre": "La Canasta",
      "tipo": "cafe",
      "lat": 36.5997299,
      "lon": -4.5315272,
      "direccion": null,
      "codigo_postal": null,
      "telefono": null,
      "web": null,
      "instagram": null,
      "horario": null,
      "terraza": false,
      "musica": null,
      "fuente": "openstreetmap"
    },
    {
      "id": "osm_node_3399795151",
      "nombre": "Casa Luciano",
      "tipo": "bar",
      "lat": 36.6020024,
      "lon": -4.5332454,
      "direccion": null,
      "codigo_postal": null,
      "telefono": null,
      "web": null,
      "instagram": null,
      "horario": null,
      "terraza": false,
      "musica": null,
      "fuente": "openstreetmap"
    },
    {
      "id": "osm_node_3404002165",
      "nombre": "Granier",
      "tipo": "cafe",
      "lat": 36.5986317,
      "lon": -4.5349804,
      "direccion": "Calle Blas Infante 3",
      "codigo_postal": "29631",
      "telefono": "+34 952 44 05 55",
      "web": null,
      "instagram": null,
      "horario": "Mo-Su 07:00-21:00",
      "terraza": false,
      "musica": null,
      "fuente": "openstreetmap"
    },
    {
      "id": "osm_node_3404002917",
      "nombre": "El Filósofo Mudo",
      "tipo": "bar",
      "lat": 36.5989132,
      "lon": -4.5343777,
      "direccion": null,
      "codigo_postal": null,
      "telefono": null,
      "web": null,
      "instagram": null,
      "horario": null,
      "terraza": false,
      "musica": null,
      "fuente": "openstreetmap"
    },
    {
      "id": "osm_node_3404003136",
      "nombre": "Bar Sin Nombre",
      "tipo": "bar",
      "lat": 36.6012227,
      "lon": -4.5328231,
      "direccion": null,
      "codigo_postal": null,
      "telefono": null,
      "web": null,
      "instagram": null,
      "horario": null,
      "terraza": false,
      "musica": null,
      "fuente": "openstreetmap"
    },
    {
      "id": "osm_node_3405332517",
      "nombre": "Bar La Taberna",
      "tipo": "bar",
      "lat": 36.5501685,
      "lon": -4.6158715,
      "direccion": null,
      "codigo_postal": null,
      "telefono": null,
      "web": null,
      "instagram": null,
      "horario": null,
      "terraza": false,
      "musica": null,
      "fuente": "openstreetmap"
    },
    {
      "id": "osm_node_3406875326",
      "nombre": "Café Churreria El Parque",
      "tipo": "cafe",
      "lat": 36.5993604,
      "lon": -4.5318158,
      "direccion": null,
      "codigo_postal": null,
      "telefono": null,
      "web": null,
      "instagram": null,
      "horario": null,
      "terraza": false,
      "musica": null,
      "fuente": "openstreetmap"
    },
    {
      "id": "osm_node_3408710930",
      "nombre": "La Esquina de Chinorros",
      "tipo": "bar",
      "lat": 36.538139,
      "lon": -4.6233481,
      "direccion": null,
      "codigo_postal": null,
      "telefono": null,
      "web": null,
      "instagram": null,
      "horario": null,
      "terraza": false,
      "musica": null,
      "fuente": "openstreetmap"
    },
    {
      "id": "osm_node_3408710933",
      "nombre": "La Terraza",
      "tipo": "cafe",
      "lat": 36.6051003,
      "lon": -4.5334642,
      "direccion": null,
      "codigo_postal": null,
      "telefono": null,
      "web": null,
      "instagram": null,
      "horario": null,
      "terraza": false,
      "musica": null,
      "fuente": "openstreetmap"
    },
    {
      "id": "osm_node_3413800521",
      "nombre": "Bar Piilo",
      "tipo": "bar",
      "lat": 36.5983928,
      "lon": -4.5304139,
      "direccion": null,
      "codigo_postal": null,
      "telefono": null,
      "web": null,
      "instagram": null,
      "horario": null,
      "terraza": false,
      "musica": null,
      "fuente": "openstreetmap"
    },
    {
      "id": "osm_node_3413800523",
      "nombre": "Bar Gamonal",
      "tipo": "bar",
      "lat": 36.5979671,
      "lon": -4.5302972,
      "direccion": null,
      "codigo_postal": null,
      "telefono": null,
      "web": null,
      "instagram": null,
      "horario": null,
      "terraza": false,
      "musica": null,
      "fuente": "openstreetmap"
    },
    {
      "id": "osm_node_3415541796",
      "nombre": "Thelman baari",
      "tipo": "cafe",
      "lat": 36.5544696,
      "lon": -4.6143688,
      "direccion": null,
      "codigo_postal": null,
      "telefono": null,
      "web": null,
      "instagram": null,
      "horario": null,
      "terraza": false,
      "musica": null,
      "fuente": "openstreetmap"
    },
    {
      "id": "osm_node_3417397740",
      "nombre": "La Canasta",
      "tipo": "cafe",
      "lat": 36.6133016,
      "lon": -4.512192,
      "direccion": null,
      "codigo_postal": null,
      "telefono": null,
      "web": null,
      "instagram": null,
      "horario": null,
      "terraza": false,
      "musica": null,
      "fuente": "openstreetmap"
    },
    {
      "id": "osm_node_3417397745",
      "nombre": "Ikaros Café",
      "tipo": "cafe",
      "lat": 36.6068706,
      "lon": -4.5170003,
      "direccion": null,
      "codigo_postal": null,
      "telefono": null,
      "web": null,
      "instagram": null,
      "horario": null,
      "terraza": false,
      "musica": null,
      "fuente": "openstreetmap"
    },
    {
      "id": "osm_node_3417397747",
      "nombre": "Cafetería-Bar Emmi",
      "tipo": "cafe",
      "lat": 36.600668,
      "lon": -4.5277833,
      "direccion": null,
      "codigo_postal": null,
      "telefono": null,
      "web": null,
      "instagram": null,
      "horario": null,
      "terraza": false,
      "musica": null,
      "fuente": "openstreetmap"
    },
    {
      "id": "osm_node_3417397748",
      "nombre": "Bar Arjona",
      "tipo": "bar",
      "lat": 36.6002402,
      "lon": -4.5295981,
      "direccion": null,
      "codigo_postal": null,
      "telefono": null,
      "web": null,
      "instagram": null,
      "horario": null,
      "terraza": false,
      "musica": null,
      "fuente": "openstreetmap"
    },
    {
      "id": "osm_node_3419504218",
      "nombre": "El Jazzy Bar",
      "tipo": "bar",
      "lat": 36.5575007,
      "lon": -4.612934,
      "direccion": null,
      "codigo_postal": null,
      "telefono": null,
      "web": null,
      "instagram": null,
      "horario": null,
      "terraza": false,
      "musica": null,
      "fuente": "openstreetmap"
    },
    {
      "id": "osm_node_3419505445",
      "nombre": "LULU’S",
      "tipo": "bar",
      "lat": 36.5998595,
      "lon": -4.532354,
      "direccion": "Avenida de la Constitución 35",
      "codigo_postal": null,
      "telefono": null,
      "web": null,
      "instagram": null,
      "horario": null,
      "terraza": false,
      "musica": null,
      "fuente": "openstreetmap"
    },
    {
      "id": "osm_node_3423373018",
      "nombre": "Kardemumma café & restaurante",
      "tipo": "cafe",
      "lat": 36.5559061,
      "lon": -4.6134057,
      "direccion": null,
      "codigo_postal": null,
      "telefono": null,
      "web": null,
      "instagram": null,
      "horario": "Mo-Fr 09:00-17:00; Sa 10:00-15:00",
      "terraza": false,
      "musica": null,
      "fuente": "openstreetmap"
    },
    {
      "id": "osm_node_3423373019",
      "nombre": "Jupiter Bar",
      "tipo": "bar",
      "lat": 36.5555815,
      "lon": -4.6136188,
      "direccion": null,
      "codigo_postal": null,
      "telefono": null,
      "web": "http://www.jupiterbar.com",
      "instagram": null,
      "horario": null,
      "terraza": false,
      "musica": null,
      "fuente": "openstreetmap"
    },
    {
      "id": "osm_node_3424651111",
      "nombre": "Cafetería Antonio",
      "tipo": "cafe",
      "lat": 36.5987899,
      "lon": -4.5358947,
      "direccion": null,
      "codigo_postal": null,
      "telefono": null,
      "web": null,
      "instagram": null,
      "horario": null,
      "terraza": false,
      "musica": null,
      "fuente": "openstreetmap"
    },
    {
      "id": "osm_node_3428296650",
      "nombre": "Lola's Bar",
      "tipo": "bar",
      "lat": 36.5395195,
      "lon": -4.6243025,
      "direccion": null,
      "codigo_postal": null,
      "telefono": null,
      "web": null,
      "instagram": null,
      "horario": null,
      "terraza": false,
      "musica": null,
      "fuente": "openstreetmap"
    },
    {
      "id": "osm_node_3428581061",
      "nombre": "Cafetería Francisco",
      "tipo": "cafe",
      "lat": 36.6010727,
      "lon": -4.532868,
      "direccion": null,
      "codigo_postal": null,
      "telefono": null,
      "web": null,
      "instagram": null,
      "horario": null,
      "terraza": false,
      "musica": null,
      "fuente": "openstreetmap"
    },
    {
      "id": "osm_node_3428581549",
      "nombre": "Artesanos del Jamón",
      "tipo": "cafe",
      "lat": 36.5993672,
      "lon": -4.53637,
      "direccion": null,
      "codigo_postal": null,
      "telefono": null,
      "web": null,
      "instagram": null,
      "horario": null,
      "terraza": false,
      "musica": null,
      "fuente": "openstreetmap"
    },
    {
      "id": "osm_node_3428581841",
      "nombre": "Bar Carilles",
      "tipo": "bar",
      "lat": 36.5987585,
      "lon": -4.5361404,
      "direccion": null,
      "codigo_postal": null,
      "telefono": null,
      "web": null,
      "instagram": null,
      "horario": null,
      "terraza": false,
      "musica": null,
      "fuente": "openstreetmap"
    },
    {
      "id": "osm_node_3428906755",
      "nombre": "Euro Cafe (Cafe Bar)",
      "tipo": "cafe",
      "lat": 36.6136694,
      "lon": -4.5024484,
      "direccion": "C/ Decano Higueras del Castillo 49",
      "codigo_postal": "29620",
      "telefono": "+34 647674659",
      "web": null,
      "instagram": null,
      "horario": "Mo-Su 10:00-24:00",
      "terraza": false,
      "musica": null,
      "fuente": "openstreetmap"
    },
    {
      "id": "osm_node_3430534668",
      "nombre": "Bar Cafetería Las Gemelas",
      "tipo": "bar",
      "lat": 36.5955427,
      "lon": -4.5315949,
      "direccion": null,
      "codigo_postal": null,
      "telefono": null,
      "web": null,
      "instagram": null,
      "horario": null,
      "terraza": false,
      "musica": null,
      "fuente": "openstreetmap"
    },
    {
      "id": "osm_node_3430896878",
      "nombre": "The 19th Hole",
      "tipo": "bar",
      "lat": 36.5957961,
      "lon": -4.5328378,
      "direccion": null,
      "codigo_postal": null,
      "telefono": null,
      "web": null,
      "instagram": null,
      "horario": null,
      "terraza": false,
      "musica": null,
      "fuente": "openstreetmap"
    },
    {
      "id": "osm_node_3431319650",
      "nombre": "Bar Casa Mata",
      "tipo": "bar",
      "lat": 36.6000134,
      "lon": -4.5328671,
      "direccion": null,
      "codigo_postal": null,
      "telefono": null,
      "web": null,
      "instagram": null,
      "horario": null,
      "terraza": false,
      "musica": null,
      "fuente": "openstreetmap"
    },
    {
      "id": "osm_node_3431319651",
      "nombre": "Cafetería Cervecería Casa Miguel",
      "tipo": "bar",
      "lat": 36.5998249,
      "lon": -4.5353198,
      "direccion": null,
      "codigo_postal": null,
      "telefono": null,
      "web": null,
      "instagram": null,
      "horario": null,
      "terraza": false,
      "musica": null,
      "fuente": "openstreetmap"
    },
    {
      "id": "osm_node_3434675398",
      "nombre": "Triana Churrería Tapería",
      "tipo": "cafe",
      "lat": 36.5992618,
      "lon": -4.5363722,
      "direccion": null,
      "codigo_postal": null,
      "telefono": null,
      "web": null,
      "instagram": null,
      "horario": null,
      "terraza": false,
      "musica": null,
      "fuente": "openstreetmap"
    },
    {
      "id": "osm_node_3434676679",
      "nombre": "Cervecería Arroyo",
      "tipo": "bar",
      "lat": 36.5994462,
      "lon": -4.5334524,
      "direccion": null,
      "codigo_postal": null,
      "telefono": null,
      "web": null,
      "instagram": null,
      "horario": null,
      "terraza": false,
      "musica": null,
      "fuente": "openstreetmap"
    },
    {
      "id": "osm_node_3434676683",
      "nombre": "Pappys",
      "tipo": "cafe",
      "lat": 36.5916039,
      "lon": -4.525039,
      "direccion": null,
      "codigo_postal": null,
      "telefono": null,
      "web": null,
      "instagram": null,
      "horario": null,
      "terraza": false,
      "musica": null,
      "fuente": "openstreetmap"
    },
    {
      "id": "osm_node_3434676685",
      "nombre": "The Bus Stop",
      "tipo": "bar",
      "lat": 36.5926409,
      "lon": -4.5248173,
      "direccion": null,
      "codigo_postal": null,
      "telefono": null,
      "web": null,
      "instagram": null,
      "horario": null,
      "terraza": false,
      "musica": null,
      "fuente": "openstreetmap"
    },