{
  "ciudad": "Marbella",
  "total": 117,
  "locales": [
    {
      "id": "osm_node_561299048",
      "nombre": "Zoya",
      "tipo": "cafe",
      "lat": 36.486953,
      "lon": -4.9905994,
      "direccion": null,
      "codigo_postal": null,
      "telefono": null,
      "web": null,
      "instagram": null,
      "horario": null,
      "terraza": false
    },
    {
      "id": "osm_node_1400465800",
      "nombre": "Mr. You Coffee",
      "tipo": "cafe",
      "lat": 36.5196138,
      "lon": -4.8921312,
      "direccion": null,
      "codigo_postal": null,
      "telefono": null,
      "web": null,
      "instagram": null,
      "horario": "06:30-21:30",
      "terraza": false
    },
    {
      "id": "osm_node_1731337597",
      "nombre": "Los cano loft",
      "tipo": "bar",
      "lat": 36.5037418,
      "lon": -4.8107355,
      "direccion": null,
      "codigo_postal": null,
      "telefono": null,
      "web": null,
      "instagram": null,
      "horario": null,
      "terraza": false
    },
    {
      "id": "osm_node_1731346075",
      "nombre": "Tibu",
      "tipo": "bar",
      "lat": 36.4880572,
      "lon": -4.9535028,
      "direccion": null,
      "codigo_postal": null,
      "telefono": null,
      "web": null,
      "instagram": null,
      "horario": null,
      "terraza": false
    },
    {
      "id": "osm_node_1749164286",
      "nombre": "Seven",
      "tipo": "bar",
      "lat": 36.4888405,
      "lon": -4.9510461,
      "direccion": null,
      "codigo_postal": null,
      "telefono": null,
      "web": null,
      "instagram": null,
      "horario": null,
      "terraza": false
    },
    {
      "id": "osm_node_1875763401",
      "nombre": "Cafe Mercado",
      "tipo": "cafe",
      "lat": 36.5080818,
      "lon": -4.8972136,
      "direccion": null,
      "codigo_postal": null,
      "telefono": null,
      "web": null,
      "instagram": null,
      "horario": null,
      "terraza": false
    },
    {
      "id": "osm_node_1881623652",
      "nombre": "Pup DCCO",
      "tipo": "bar",
      "lat": 36.5090759,
      "lon": -4.8976491,
      "direccion": null,
      "codigo_postal": null,
      "telefono": null,
      "web": null,
      "instagram": null,
      "horario": null,
      "terraza": false
    },
    {
      "id": "osm_node_1884633549",
      "nombre": "Cerveceria Simón",
      "tipo": "pub",
      "lat": 36.5089869,
      "lon": -4.8931766,
      "direccion": null,
      "codigo_postal": null,
      "telefono": null,
      "web": null,
      "instagram": null,
      "horario": null,
      "terraza": false
    },
    {
      "id": "osm_node_1884633554",
      "nombre": "Irish Pub",
      "tipo": "pub",
      "lat": 36.5077804,
      "lon": -4.8929942,
      "direccion": null,
      "codigo_postal": null,
      "telefono": null,
      "web": null,
      "instagram": null,
      "horario": null,
      "terraza": false
    },
    {
      "id": "osm_node_1887331748",
      "nombre": "Cafeteria Tulipan",
      "tipo": "cafe",
      "lat": 36.5105757,
      "lon": -4.8958831,
      "direccion": null,
      "codigo_postal": null,
      "telefono": null,
      "web": null,
      "instagram": null,
      "horario": null,
      "terraza": false
    },
    {
      "id": "osm_node_1887332747",
      "nombre": "Viña del Mar",
      "tipo": "bar",
      "lat": 36.5105895,
      "lon": -4.8955459,
      "direccion": null,
      "codigo_postal": null,
      "telefono": null,
      "web": null,
      "instagram": null,
      "horario": null,
      "terraza": false
    },
    {
      "id": "osm_node_2294156073",
      "nombre": "El Café",
      "tipo": "cafe",
      "lat": 36.4901772,
      "lon": -4.9882409,
      "direccion": null,
      "codigo_postal": null,
      "telefono": null,
      "web": null,
      "instagram": null,
      "horario": null,
      "terraza": false
    },
    {
      "id": "osm_node_2353752123",
      "nombre": "La Cuisine",
      "tipo": "bar",
      "lat": 36.5109412,
      "lon": -4.8853014,
      "direccion": null,
      "codigo_postal": null,
      "telefono": null,
      "web": null,
      "instagram": null,
      "horario": null,
      "terraza": true
    },
    {
      "id": "osm_node_2360365146",
      "nombre": "El Estrecho",
      "tipo": "pub",
      "lat": 36.5097676,
      "lon": -4.8859494,
      "direccion": "Calle de San Lazaro 12",
      "codigo_postal": "29600",
      "telefono": null,
      "web": null,
      "instagram": null,
      "horario": null,
      "terraza": false
    },
    {
      "id": "osm_node_2500543881",
      "nombre": "El Tropezón",
      "tipo": "bar",
      "lat": 36.4843178,
      "lon": -4.9917441,
      "direccion": null,
      "codigo_postal": null,
      "telefono": null,
      "web": null,
      "instagram": null,
      "horario": null,
      "terraza": false
    },
    {
      "id": "osm_node_2500543882",
      "nombre": "Magnolia",
      "tipo": "cafe",
      "lat": 36.4840554,
      "lon": -4.9916956,
      "direccion": null,
      "codigo_postal": null,
      "telefono": null,
      "web": null,
      "instagram": null,
      "horario": null,
      "terraza": false
    },
    {
      "id": "osm_node_2500543883",
      "nombre": "Moka",
      "tipo": "cafe",
      "lat": 36.4842871,
      "lon": -4.9913096,
      "direccion": null,
      "codigo_postal": null,
      "telefono": null,
      "web": null,
      "instagram": null,
      "horario": null,
      "terraza": false
    },
    {
      "id": "osm_node_3067574446",
      "nombre": "Café Simone",
      "tipo": "cafe",
      "lat": 36.5109817,
      "lon": -4.8861606,
      "direccion": null,
      "codigo_postal": null,
      "telefono": null,
      "web": null,
      "instagram": null,
      "horario": null,
      "terraza": false
    },
    {
      "id": "osm_node_3158072362",
      "nombre": "El Pan de Eric",
      "tipo": "cafe",
      "lat": 36.5041192,
      "lon": -4.9782849,
      "direccion": null,
      "codigo_postal": null,
      "telefono": null,
      "web": null,
      "instagram": null,
      "horario": null,
      "terraza": false
    },
    {
      "id": "osm_node_3171240998",
      "nombre": "Troyano",
      "tipo": "cafe",
      "lat": 36.4913065,
      "lon": -4.9916507,
      "direccion": null,
      "codigo_postal": null,
      "telefono": null,
      "web": null,
      "instagram": null,
      "horario": null,
      "terraza": false
    },
    {
      "id": "osm_node_3174571777",
      "nombre": "Cafeteria Amistad",
      "tipo": "cafe",
      "lat": 36.4914324,
      "lon": -4.987044,
      "direccion": null,
      "codigo_postal": null,
      "telefono": null,
      "web": null,
      "instagram": null,
      "horario": null,
      "terraza": false
    },
    {
      "id": "osm_node_3188802152",
      "nombre": "Betis - Hnos Moreno",
      "tipo": "bar",
      "lat": 36.4871271,
      "lon": -4.988585,
      "direccion": null,
      "codigo_postal": null,
      "telefono": null,
      "web": null,
      "instagram": null,
      "horario": null,
      "terraza": false
    },
    {
      "id": "osm_node_3196976363",
      "nombre": "Cafetería La Pausa",
      "tipo": "cafe",
      "lat": 36.4876315,
      "lon": -4.9889647,
      "direccion": null,
      "codigo_postal": null,
      "telefono": null,
      "web": null,
      "instagram": null,
      "horario": null,
      "terraza": false
    },
    {
      "id": "osm_node_3205842861",
      "nombre": "BOLERO",
      "tipo": "cafe",
      "lat": 36.4835995,
      "lon": -4.9901567,
      "direccion": null,
      "codigo_postal": null,
      "telefono": null,
      "web": null,
      "instagram": null,
      "horario": null,
      "terraza": false
    },
    {
      "id": "osm_node_3463553107",
      "nombre": "Patrick's 19th",
      "tipo": "bar",
      "lat": 36.4876377,
      "lon": -4.9524036,
      "direccion": null,
      "codigo_postal": null,
      "telefono": null,
      "web": null,
      "instagram": null,
      "horario": null,
      "terraza": false
    },
    {
      "id": "osm_node_3463553108",
      "nombre": "La Habana de Hemingway",
      "tipo": "bar",
      "lat": 36.4887507,
      "lon": -4.9499622,
      "direccion": null,
      "codigo_postal": null,
      "telefono": null,
      "web": null,
      "instagram": null,
      "horario": null,
      "terraza": true
    },
    {
      "id": "osm_node_3463553111",
      "nombre": "Joy's Live",
      "tipo": "bar",
      "lat": 36.4877484,
      "lon": -4.9522396,
      "direccion": null,
      "codigo_postal": null,
      "telefono": null,
      "web": null,
      "instagram": null,
      "horario": null,
      "terraza": false
    },
    {
      "id": "osm_node_3463553114",
      "nombre": "Babilonia Banus",
      "tipo": "bar",
      "lat": 36.4878414,
      "lon": -4.9520918,
      "direccion": null,
      "codigo_postal": null,
      "telefono": null,
      "web": null,
      "instagram": null,
      "horario": null,
      "terraza": false
    },
    {
      "id": "osm_node_3463553123",
      "nombre": "Port Side",
      "tipo": "bar",
      "lat": 36.4884169,
      "lon": -4.9511556,
      "direccion": null,
      "codigo_postal": null,
      "telefono": null,
      "web": null,
      "instagram": null,
      "horario": null,
      "terraza": false
    },
    {
      "id": "osm_node_3463553125",
      "nombre": "Salduba Pub",
      "tipo": "pub",
      "lat": 36.4860703,
      "lon": -4.9544534,
      "direccion": null,
      "codigo_postal": null,
      "telefono": null,
      "web": null,
      "instagram": null,
      "horario": null,
      "terraza": false
    },
    {
      "id": "osm_node_3463553128",
      "nombre": "Sinatra Bar",
      "tipo": "bar",
      "lat": 36.4861547,
      "lon": -4.9542963,
      "direccion": null,
      "codigo_postal": null,
      "telefono": null,
      "web": null,
      "instagram": null,
      "horario": null,
      "terraza": false
    },
    {
      "id": "osm_node_3463553132",
      "nombre": "News Cafe",
      "tipo": "bar",
      "lat": 36.4864297,
      "lon": -4.9538499,
      "direccion": null,
      "codigo_postal": null,
      "telefono": null,
      "web": null,
      "instagram": null,
      "horario": null,
      "terraza": false
    },
    {
      "id": "osm_node_3463619077",
      "nombre": "Cafe de Ogaret",
      "tipo": "cafe",
      "lat": 36.4848569,
      "lon": -4.9553408,
      "direccion": null,
      "codigo_postal": null,
      "telefono": null,
      "web": null,
      "instagram": null,
      "horario": null,
      "terraza": false
    },
    {
      "id": "osm_node_3463619081",
      "nombre": "El Gran Gatsby",
      "tipo": "bar",
      "lat": 36.4846768,
      "lon": -4.9537578,
      "direccion": null,
      "codigo_postal": null,
      "telefono": null,
      "web": null,
      "instagram": null,
      "horario": null,
      "terraza": false
    },
    {
      "id": "osm_node_3463619088",
      "nombre": "Deli del Mar",
      "tipo": "cafe",
      "lat": 36.4848988,
      "lon": -4.9548486,
      "direccion": null,
      "codigo_postal": null,
      "telefono": null,
      "web": null,
      "instagram": null,
      "horario": null,
      "terraza": false
    },
    {
      "id": "osm_node_3463619896",
      "nombre": "Natural Juice Bar",
      "tipo": "cafe",
      "lat": 36.4871229,
      "lon": -4.9532848,
      "direccion": null,
      "codigo_postal": null,
      "telefono": null,
      "web": null,
      "instagram": null,
      "horario": null,
      "terraza": false
    },
    {
      "id": "osm_node_3463619897",
      "nombre": "Shicha Lounge",
      "tipo": "bar",
      "lat": 36.48569,
      "lon": -4.9557377,
      "direccion": null,
      "codigo_postal": null,
      "telefono": null,
      "web": null,
      "instagram": null,
      "horario": null,
      "terraza": false
    },
    {
      "id": "osm_node_3463636046",
      "nombre": "O'Grady's Corner",
      "tipo": "pub",
      "lat": 36.4889295,
      "lon": -4.9506566,
      "direccion": null,
      "codigo_postal": null,
      "telefono": null,
      "web": null,
      "instagram": null,
      "horario": null,
      "terraza": false
    },
    {
      "id": "osm_node_3463636048",
      "nombre": "O'Grady's Irish Pub",
      "tipo": "pub",
      "lat": 36.4890267,
      "lon": -4.9507529,
      "direccion": null,
      "codigo_postal": null,
      "telefono": null,
      "web": null,
      "instagram": null,
      "horario": null,
      "terraza": false
    },
    {
      "id": "osm_node_3463636050",
      "nombre": "Linekers Bar",
      "tipo": "bar",
      "lat": 36.4886484,
      "lon": -4.9513409,
      "direccion": null,
      "codigo_postal": null,
      "telefono": null,
      "web": null,
      "instagram": null,
      "horario": null,
      "terraza": false
    },
    {
      "id": "osm_node_3463636051",
      "nombre": "The Lounge",
      "tipo": "bar",
      "lat": 36.4885823,
      "lon": -4.9514956,
      "direccion": null,
      "codigo_postal": null,
      "telefono": null,
      "web": null,
      "instagram": null,
      "horario": null,
      "terraza": false
    },
    {
      "id": "osm_node_3465467942",
      "nombre": "La Bodeguita",
      "tipo": "bar",
      "lat": 36.4879169,
      "lon": -4.9525064,
      "direccion": null,
      "codigo_postal": null,
      "telefono": null,
      "web": null,
      "instagram": null,
      "horario": null,
      "terraza": false
    },
    {
      "id": "osm_node_3465467947",
      "nombre": "Tequila",
      "tipo": "bar",
      "lat": 36.4889814,
      "lon": -4.9508579,
      "direccion": null,
      "codigo_postal": null,
      "telefono": null,
      "web": null,
      "instagram": null,
      "horario": null,
      "terraza": false
    },
    {
      "id": "osm_node_3465804095",
      "nombre": "Horseshoe Pub",
      "tipo": "pub",
      "lat": 36.4886029,
      "lon": -4.963182,
      "direccion": null,
      "codigo_postal": null,
      "telefono": null,
      "web": null,
      "instagram": null,
      "horario": null,
      "terraza": false
    },
    {
      "id": "osm_node_4062414861",
      "nombre": "Sylt",
      "tipo": "bar",
      "lat": 36.4951331,
      "lon": -4.7975012,
      "direccion": null,
      "codigo_postal": null,
      "telefono": "+34 951170979",
      "web": "https://sites.google.com/view/sylt-marbella/home",
      "instagram": null,
      "horario": null,
      "terraza": false
    },
    {
      "id": "osm_node_4292874907",
      "nombre": "The Barber Club",
      "tipo": "cafe",
      "lat": 36.4892464,
      "lon": -4.9599957,
      "direccion": null,
      "codigo_postal": null,
      "telefono": "+34952907203",
      "web": "http://thebarberclubmarbella.com/",
      "instagram": null,
      "horario": null,
      "terraza": false
    },
    {
      "id": "osm_node_4361657789",
      "nombre": "El Candil",
      "tipo": "cafe",
      "lat": 36.4826788,
      "lon": -4.9913453,
      "direccion": "Calle Andalucía",
      "codigo_postal": "29670",
      "telefono": null,
      "web": null,
      "instagram": null,
      "horario": null,
      "terraza": false
    },
    {
      "id": "osm_node_4361659489",
      "nombre": "Pub Charles",
      "tipo": "pub",
      "lat": 36.4826584,
      "lon": -4.990997,
      "direccion": "calle Andalucía y Avda. constitución",
      "codigo_postal": null,
      "telefono": null,
      "web": null,
      "instagram": null,
      "horario": null,
      "terraza": false
    },
    {
      "id": "osm_node_4509679605",
      "nombre": "Links Bar and Kitchen",
      "tipo": "pub",
      "lat": 36.5106673,
      "lon": -4.9644237,
      "direccion": null,
      "codigo_postal": null,
      "telefono": null,
      "web": null,
      "instagram": null,
      "horario": null,
      "terraza": false
    },
    {
      "id": "osm_node_4510684726",
      "nombre": "Yanx",
      "tipo": "cafe",
      "lat": 36.4931667,
      "lon": -4.959847,
      "direccion": null,
      "codigo_postal": null,
      "telefono": null,
      "web": null,
      "instagram": null,
      "horario": null,
      "terraza": false
    },
    {
      "id": "osm_node_4510684729",
      "nombre": "Zest",
      "tipo": "cafe",
      "lat": 36.4931344,
      "lon": -4.9604257,
      "direccion": null,
      "codigo_postal": null,
      "telefono": null,
      "web": null,
      "instagram": null,
      "horario": null,
      "terraza": false
    },
    {
      "id": "osm_node_4736305233",
      "nombre": "Naô Pool Club",
      "tipo": "bar",
      "lat": 36.4955285,
      "lon": -4.9640853,
      "direccion": "Calle Los Tilos",
      "codigo_postal": "29660",
      "telefono": null,
      "web": "https://naopoolclub.com",
      "instagram": null,
      "horario": "Mo-Su 12:00-20:00",
      "terraza": false
    },
    {
      "id": "osm_node_5010150622",
      "nombre": "The Cafe II American Bistro",
      "tipo": "cafe",
      "lat": 36.5074775,
      "lon": -4.8873294,
      "direccion": null,
      "codigo_postal": null,
      "telefono": null,
      "web": null,
      "instagram": null,
      "horario": null,
      "terraza": false
    },
    {
      "id": "osm_node_5039838561",
      "nombre": "Cafetería Sarria",
      "tipo": "cafe",
      "lat": 36.514129,
      "lon": -4.8748566,
      "direccion": "Calle Alfredo Palma",
      "codigo_postal": null,
      "telefono": null,
      "web": null,
      "instagram": null,
      "horario": null,
      "terraza": false
    },
    {
      "id": "osm_node_5042583268",
      "nombre": "La Fontanella",
      "tipo": "cafe",
      "lat": 36.4954666,
      "lon": -4.7512913,
      "direccion": null,
      "codigo_postal": null,
      "telefono": null,
      "web": null,
      "instagram": null,
      "horario": null,
      "terraza": false
    },
    {
      "id": "osm_node_5046071400",
      "nombre": "Le Bash",
      "tipo": "bar",
      "lat": 36.4857062,
      "lon": -4.740698,
      "direccion": null,
      "codigo_postal": null,
      "telefono": null,
      "web": null,
      "instagram": null,
      "horario": null,
      "terraza": false
    },
    {
      "id": "osm_node_5046071824",
      "nombre": "Jorges's Diner",
      "tipo": "cafe",
      "lat": 36.4852867,
      "lon": -4.7413162,
      "direccion": null,
      "codigo_postal": null,
      "telefono": null,
      "web": null,
      "instagram": null,
      "horario": null,
      "terraza": true
    },
    {
      "id": "osm_node_5046072989",
      "nombre": "Chiringuito La Lonja",
      "tipo": "bar",
      "lat": 36.4847854,
      "lon": -4.7411002,
      "direccion": null,
      "codigo_postal": null,
      "telefono": null,
      "web": null,
      "instagram": null,
      "horario": null,
      "terraza": true
    },
    {
      "id": "osm_node_5124345266",
      "nombre": "Café Luz de Luna",
      "tipo": "cafe",
      "lat": 36.5221661,
      "lon": -4.8727401,
      "direccion": null,
      "codigo_postal": null,
      "telefono": null,
      "web": null,
      "instagram": null,
      "horario": null,
      "terraza": false
    },
    {
      "id": "osm_node_5176687275",
      "nombre": "Friûl",
      "tipo": "cafe",
      "lat": 36.5071062,
      "lon": -4.8915358,
      "direccion": "Avenida Duque de Ahumada",
      "codigo_postal": "29602",
      "telefono": null,
      "web": null,
      "instagram": null,
      "horario": null,
      "terraza": false
    },
    {
      "id": "osm_node_5176687277",
      "nombre": "Oasis",
      "tipo": "cafe",
      "lat": 36.5071186,
      "lon": -4.8914161,
      "direccion": "Avenida Duque de Ahumada",
      "codigo_postal": "29602",
      "telefono": null,
      "web": null,
      "instagram": null,
      "horario": null,
      "terraza": false
    },
    {
      "id": "osm_node_5211117522",
      "nombre": "la taberna",
      "tipo": "bar",
      "lat": 36.5088622,
      "lon": -4.8828341,
      "direccion": "Avenida de Nabeul 19",
      "codigo_postal": null,
      "telefono": null,
      "web": null,
      "instagram": null,
      "horario": null,
      "terraza": false
    },
    {
      "id": "osm_node_5654525358",
      "nombre": "Semarango",
      "tipo": "cafe",
      "lat": 36.5101363,
      "lon": -4.8976136,
      "direccion": null,
      "codigo_postal": null,
      "telefono": null,
      "web": null,
      "instagram": null,
      "horario": null,
      "terraza": false
    },
    {
      "id": "osm_node_5680031326",
      "nombre": "Bar La Cueva",
      "tipo": "bar",
      "lat": 36.5138633,
      "lon": -4.876563,
      "direccion": null,
      "codigo_postal": null,
      "telefono": null,
      "web": null,
      "instagram": null,
      "horario": null,
      "terraza": false
    },
    {
      "id": "osm_node_5680031327",
      "nombre": "Bar Gaucín",
      "tipo": "bar",
      "lat": 36.5141774,
      "lon": -4.8765562,
      "direccion": null,
      "codigo_postal": null,
      "telefono": null,
      "web": null,
      "instagram": null,
      "horario": null,
      "terraza": false
    },
    {
      "id": "osm_node_5682856325",
      "nombre": "Indiano",
      "tipo": "bar",
      "lat": 36.5067803,
      "lon": -4.8882668,
      "direccion": null,
      "codigo_postal": null,
      "telefono": null,
      "web": null,
      "instagram": null,
      "horario": null,
      "terraza": false
    },
    {
      "id": "osm_node_5744406992",
      "nombre": "Bar O Moment",
      "tipo": "bar",
      "lat": 36.5261073,
      "lon": -4.8948919,
      "direccion": "Calle León 112",
      "codigo_postal": "29602",
      "telefono": null,
      "web": null,
      "instagram": null,
      "horario": null,
      "terraza": false
    },
    {
      "id": "osm_node_5912442956",
      "nombre": "El cable",
      "tipo": "pub",
      "lat": 36.5084899,
      "lon": -4.869438,
      "direccion": null,
      "codigo_postal": null,
      "telefono": null,
      "web": null,
      "instagram": null,
      "horario": null,
      "terraza": false
    },
    {
      "id": "osm_node_5981311511",
      "nombre": "Psycho - fusión café_bar",
      "tipo": "bar",
      "lat": 36.5074886,
      "lon": -4.8861941,
      "direccion": "Avenida del Mar 7",
      "codigo_postal": null,
      "telefono": "+34689000305",
      "web": null,
      "instagram": null,
      "horario": null,
      "terraza": false
    },
    {
      "id": "osm_node_6080002979",
      "nombre": "Ranchón Cubano",
      "tipo": "bar",
      "lat": 36.4946298,
      "lon": -4.7949765,
      "direccion": null,
      "codigo_postal": null,
      "telefono": "+34 662 643 411",
      "web": null,
      "instagram": null,
      "horario": null,
      "terraza": true
    },
    {
      "id": "osm_node_6342128385",
      "nombre": "Le Bar Bier",
      "tipo": "bar",
      "lat": 36.5232265,
      "lon": -4.8918477,
      "direccion": null,
      "codigo_postal": null,
      "telefono": null,
      "web": null,
      "instagram": null,
      "horario": null,
      "terraza": false
    },
    {
      "id": "osm_node_6345226785",
      "nombre": "Marley's cafe",
      "tipo": "cafe",
      "lat": 36.5179951,
      "lon": -4.8890262,
      "direccion": null,
      "codigo_postal": null,
      "telefono": null,
      "web": null,
      "instagram": null,
      "horario": null,
      "terraza": false
    },
    {
      "id": "osm_node_6578418179",
      "nombre": "Emerald Sports Bar",
      "tipo": "bar",
      "lat": 36.4849871,
      "lon": -4.9772289,
      "direccion": null,
      "codigo_postal": null,
      "telefono": null,
      "web": null,
      "instagram": null,
      "horario": null,
      "terraza": false
    },
    {
      "id": "osm_node_6852664905",
      "nombre": "Churrería Generalife",
      "tipo": "cafe",
      "lat": 36.5100805,
      "lon": -4.8826764,
      "direccion": "Plaza Puente Málaga 3",
      "codigo_postal": null,
      "telefono": "+34 692 22 53 86",
      "web": null,
      "instagram": null,
      "horario": "07:00-13:00,16:30-20:30",
      "terraza": true
    },
    {
      "id": "osm_node_8566895178",
      "nombre": "Chiringuito Macaao Beach Club",
      "tipo": "pub",
      "lat": 36.4695148,
      "lon": -4.9913925,
      "direccion": null,
      "codigo_postal": null,
      "telefono": "+34 952 113 618",
      "web": null,
      "instagram": null,
      "horario": null,
      "terraza": false
    },
    {
      "id": "osm_node_8566895180",
      "nombre": "Chiringuito Guayaba Beach",
      "tipo": "pub",
      "lat": 36.471435,
      "lon": -4.9884195,
      "direccion": null,
      "codigo_postal": null,
      "telefono": "+34 952 78 49 69",
      "web": null,
      "instagram": null,
      "horario": null,
      "terraza": false
    },
    {
      "id": "osm_node_9001016033",
      "nombre": "Darkoum lounge",
      "tipo": "pub",
      "lat": 36.5096534,
      "lon": -4.8934248,
      "direccion": null,
      "codigo_postal": null,
      "telefono": null,
      "web": null,
      "instagram": null,
      "horario": null,
      "terraza": false
    },
    {
      "id": "osm_node_9120315559",
      "nombre": "La casa del té",
      "tipo": "cafe",
      "lat": 36.5112498,
      "lon": -4.885371,
      "direccion": null,
      "codigo_postal": null,
      "telefono": null,
      "web": null,
      "instagram": null,
      "horario": null,
      "terraza": false
    },
    {
      "id": "osm_node_9122779186",
      "nombre": "Café de Ronda",
      "tipo": "cafe",
      "lat": 36.5095749,
      "lon": -4.8995465,
      "direccion": null,
      "codigo_postal": null,
      "telefono": null,
      "web": null,
      "instagram": null,
      "horario": null,
      "terraza": true
    },
    {
      "id": "osm_node_9282711236",
      "nombre": "Barroco",
      "tipo": "bar",
      "lat": 36.5071381,
      "lon": -4.8877422,
      "direccion": null,
      "codigo_postal": null,
      "telefono": null,
      "web": null,
      "instagram": null,
      "horario": null,
      "terraza": false
    },
    {
      "id": "osm_node_9356605422",
      "nombre": "Acapulco",
      "tipo": "cafe",
      "lat": 36.5095111,
      "lon": -4.8910189,
      "direccion": null,
      "codigo_postal": null,
      "telefono": null,
      "web": null,
      "instagram": null,
      "horario": null,
      "terraza": false
    },
    {
      "id": "osm_node_9378601176",
      "nombre": "Café para ti",
      "tipo": "cafe",
      "lat": 36.5105408,
      "lon": -4.8966047,
      "direccion": null,
      "codigo_postal": null,
      "telefono": null,
      "web": null,
      "instagram": null,
      "horario": null,
      "terraza": false
    },
    {
      "id": "osm_node_9391947729",
      "nombre": "Cripan",
      "tipo": "cafe",
      "lat": 36.509694,
      "lon": -4.8916494,
      "direccion": null,
      "codigo_postal": null,
      "telefono": null,
      "web": null,
      "instagram": null,
      "horario": null,
      "terraza": false
    },
    {
      "id": "osm_node_9394378995",
      "nombre": "Coco café",
      "tipo": "cafe",
      "lat": 36.5102595,
      "lon": -4.8925226,
      "direccion": null,
      "codigo_postal": null,
      "telefono": null,
      "web": null,
      "instagram": null,
      "horario": null,
      "terraza": false
    },
    {
      "id": "osm_node_9497799459",
      "nombre": "Cripán",
      "tipo": "cafe",
      "lat": 36.5151667,
      "lon": -4.8878108,
      "direccion": null,
      "codigo_postal": null,
      "telefono": null,
      "web": null,
      "instagram": null,
      "horario": null,
      "terraza": false
    },
    {
      "id": "osm_node_9517332919",
      "nombre": "La Librería",
      "tipo": "bar",
      "lat": 36.5073888,
      "lon": -4.8894252,
      "direccion": null,
      "codigo_postal": null,
      "telefono": null,
      "web": null,
      "instagram": null,
      "horario": null,
      "terraza": false
    },
    {
      "id": "osm_node_10168516759",
      "nombre": "La Cantina",
      "tipo": "bar",
      "lat": 36.4742749,
      "lon": -5.0026817,
      "direccion": null,
      "codigo_postal": null,
      "telefono": null,
      "web": null,
      "instagram": null,
      "horario": null,
      "terraza": false
    },
    {
      "id": "osm_node_10260845788",
      "nombre": "Urban Bistro-Bar",
      "tipo": "cafe",
      "lat": 36.4807449,
      "lon": -4.9881629,
      "direccion": "Ed. Los Arqueros Beach 6",
      "codigo_postal": null,
      "telefono": "+34951518105",
      "web": "https://www.urbanbistrobar.com/",
      "instagram": null,
      "horario": "Mo-Th, Su 11:00-00:00; Fr, Sa 11:00-01:00",
      "terraza": false
    },
    {
      "id": "osm_node_10763962807",
      "nombre": "Boracay",
      "tipo": "bar",
      "lat": 36.5073389,
      "lon": -4.8982644,
      "direccion": null,
      "codigo_postal": null,
      "telefono": null,
      "web": null,
      "instagram": null,
      "horario": null,
      "terraza": false
    },
    {
      "id": "osm_node_10830775012",
      "nombre": "Se B-B",
      "tipo": "cafe",
      "lat": 36.4953556,
      "lon": -4.7742405,
      "direccion": null,
      "codigo_postal": null,
      "telefono": null,
      "web": null,
      "instagram": null,
      "horario": null,
      "terraza": true
    },
    {
      "id": "osm_node_10830775013",
      "nombre": "Uno Sports Bar",
      "tipo": "bar",
      "lat": 36.4953583,
      "lon": -4.7742879,
      "direccion": null,
      "codigo_postal": null,
      "telefono": null,
      "web": null,
      "instagram": null,
      "horario": null,
      "terraza": false
    },
    {
      "id": "osm_node_10855907461",
      "nombre": "Café del Sol",
      "tipo": "cafe",
      "lat": 36.4959262,
      "lon": -4.7761797,
      "direccion": null,
      "codigo_postal": null,
      "telefono": null,
      "web": null,
      "instagram": null,
      "horario": null,
      "terraza": false
    },
    {
      "id": "osm_node_10855907469",
      "nombre": "Casi Casi",
      "tipo": "cafe",
      "lat": 36.4955848,
      "lon": -4.7759446,
      "direccion": null,
      "codigo_postal": null,
      "telefono": null,
      "web": null,
      "instagram": null,
      "horario": null,
      "terraza": true
    },
    {
      "id": "osm_node_10914217456",
      "nombre": "Peaky Blunt",
      "tipo": "bar",
      "lat": 36.4854172,
      "lon": -4.9929045,
      "direccion": "Calle Doctor Esteban San Mateo 10",
      "codigo_postal": "29670",
      "telefono": null,
      "web": null,
      "instagram": null,
      "horario": "Mo-Su 11:00-23:00",
      "terraza": false
    },
    {
      "id": "osm_node_10966079326",
      "nombre": "Boötes cafés to go!",
      "tipo": "cafe",
      "lat": 36.5091403,
      "lon": -4.8841883,
      "direccion": "Calle Caridad 10",
      "codigo_postal": "29601",
      "telefono": "+34 629 58 26 84",
      "web": null,
      "instagram": "the_bootes_cafe",
      "horario": "Mo-Fr 10:00-20:00; Sa 10:00-19:00",
      "terraza": false
    },
    {
      "id": "osm_node_11097695205",
      "nombre": "Churrería Ramón (Desde 1941)",
      "tipo": "cafe",
      "lat": 36.5100213,
      "lon": -4.8851346,
      "direccion": "Plaza de los Naranjos 8",
      "codigo_postal": "29601",
      "telefono": "+34952778546",
      "web": "https://churreriaramon.es/",
      "instagram": null,
      "horario": "Mo-Su 09:00-23:00",
      "terraza": false
    },
    {
      "id": "osm_node_11821525711",
      "nombre": "Kookento Café",
      "tipo": "cafe",
      "lat": 36.4815438,
      "lon": -4.9882997,
      "direccion": null,
      "codigo_postal": null,
      "telefono": null,
      "web": "https://www.kookento.com/",
      "instagram": null,
      "horario": null,
      "terraza": true
    },
    {
      "id": "osm_node_11910062063",
      "nombre": "Le Ciel Marbella",
      "tipo": "bar",
      "lat": 36.4887874,
      "lon": -4.9542533,
      "direccion": "Plaza Antonio Banderas 30",
      "codigo_postal": "29660",
      "telefono": null,
      "web": null,
      "instagram": null,
      "horario": null,
      "terraza": false
    },
    {
      "id": "osm_node_11977768154",
      "nombre": "Imperial Lounge Marbella",
      "tipo": "cafe",
      "lat": 36.4932468,
      "lon": -4.7493823,
      "direccion": null,
      "codigo_postal": "29604",
      "telefono": "+34602652648",
      "web": "https://imperiallounge.es/",
      "instagram": null,
      "horario": "Mo off; Tu-Su 12:00-22:00",
      "terraza": false
    },
    {
      "id": "osm_node_12058000169",
      "nombre": "La Taberna de Marbesa",
      "tipo": "bar",
      "lat": 36.4910276,
      "lon": -4.7627996,
      "direccion": null,
      "codigo_postal": null,
      "telefono": null,
      "web": null,
      "instagram": null,
      "horario": null,
      "terraza": false
    },
    {
      "id": "osm_node_12452724367",
      "nombre": "La Siesta",
      "tipo": "bar",
      "lat": 36.4850326,
      "lon": -4.9577015,
      "direccion": null,
      "codigo_postal": null,
      "telefono": null,
      "web": null,
      "instagram": null,
      "horario": null,
      "terraza": true
    },
    {
      "id": "osm_node_12778602401",
      "nombre": "Mia Cafe",
      "tipo": "cafe",
      "lat": 36.5108811,
      "lon": -4.8852305,
      "direccion": null,
      "codigo_postal": null,
      "telefono": null,
      "web": null,
      "instagram": null,
      "horario": null,
      "terraza": false
    },
    {
      "id": "osm_node_12809594064",
      "nombre": "Los Amigos",
      "tipo": "bar",
      "lat": 36.4742418,
      "lon": -5.0027842,
      "direccion": null,
      "codigo_postal": null,
      "telefono": null,
      "web": null,
      "instagram": null,
      "horario": null,
      "terraza": false
    },
    {
      "id": "osm_node_12809670872",
      "nombre": "d'Alicia",
      "tipo": "cafe",
      "lat": 36.4741911,
      "lon": -5.0040698,
      "direccion": null,
      "codigo_postal": null,
      "telefono": null,
      "web": "https://dealicia.es/",
      "instagram": null,
      "horario": null,
      "terraza": false
    },
    {
      "id": "osm_node_13055727851",
      "nombre": "Starbucks",
      "tipo": "cafe",
      "lat": 36.521681,
      "lon": -4.8740646,
      "direccion": null,
      "codigo_postal": null,
      "telefono": null,
      "web": null,
      "instagram": null,
      "horario": null,
      "terraza": false
    },
    {
      "id": "osm_way_322396767",
      "nombre": "Noa Gastrobar",
      "tipo": "cafe",
      "lat": 36.481193,
      "lon": -4.989837,
      "direccion": null,
      "codigo_postal": null,
      "telefono": null,
      "web": null,
      "instagram": null,
      "horario": null,
      "terraza": false
    },
    {
      "id": "osm_way_322434482",
      "nombre": "In da Food",
      "tipo": "cafe",
      "lat": 36.479543,
      "lon": -4.992486,
      "direccion": null,
      "codigo_postal": null,
      "telefono": null,
      "web": null,
      "instagram": null,
      "horario": null,
      "terraza": false
    },
    {
      "id": "osm_way_322434487",
      "nombre": "El Guiño",
      "tipo": "cafe",
      "lat": 36.482681,
      "lon": -4.987549,
      "direccion": null,
      "codigo_postal": null,
      "telefono": null,
      "web": null,
      "instagram": null,
      "horario": null,
      "terraza": false
    },
    {
      "id": "osm_way_322589808",
      "nombre": "Calderón",
      "tipo": "cafe",
      "lat": 36.482365,
      "lon": -4.989613,
      "direccion": null,
      "codigo_postal": null,
      "telefono": null,
      "web": null,
      "instagram": null,
      "horario": null,
      "terraza": false
    },
    {
      "id": "osm_way_323574235",
      "nombre": "IKRA Gastrobar",
      "tipo": "cafe",
      "lat": 36.484938,
      "lon": -4.984348,
      "direccion": "Av. Luis Braille",
      "codigo_postal": "29670",
      "telefono": "+34 673 28 38 93",
      "web": null,
      "instagram": "https://instagram.com/ikragastrobar?igshid=ZDc4ODBmNjlmNQ%3D%3D",
      "horario": "13:00-22:00",
      "terraza": true
    },
    {
      "id": "osm_way_473855130",
      "nombre": "Cocoa Beach",
      "tipo": "cafe",
      "lat": 36.485315,
      "lon": -4.73858,
      "direccion": null,
      "codigo_postal": null,
      "telefono": null,
      "web": null,
      "instagram": null,
      "horario": null,
      "terraza": true
    },
    {
      "id": "osm_way_473855131",
      "nombre": "Las Dunas",
      "tipo": "cafe",
      "lat": 36.486078,
      "lon": -4.735647,
      "direccion": null,
      "codigo_postal": null,
      "telefono": null,
      "web": null,
      "instagram": null,
      "horario": null,
      "terraza": true
    },
    {
      "id": "osm_way_474508785",
      "nombre": "Levante Beach",
      "tipo": "cafe",
      "lat": 36.488919,
      "lon": -4.949428,
      "direccion": null,
      "codigo_postal": null,
      "telefono": "+34 609 284816",
      "web": null,
      "instagram": null,
      "horario": null,
      "terraza": false
    },
    {
      "id": "osm_way_482884386",
      "nombre": "Hot Dog Beach",
      "tipo": "bar",
      "lat": 36.491248,
      "lon": -4.948079,
      "direccion": null,
      "codigo_postal": null,
      "telefono": null,
      "web": null,
      "instagram": null,
      "horario": null,
      "terraza": false
    },
    {
      "id": "osm_way_669951650",
      "nombre": "Mario's Hut Bar",
      "tipo": "cafe",
      "lat": 36.489496,
      "lon": -4.744198,
      "direccion": null,
      "codigo_postal": null,
      "telefono": null,
      "web": null,
      "instagram": null,
      "horario": null,
      "terraza": true
    },
    {
      "id": "osm_way_779855024",
      "nombre": "Trocadero Beach Bar",
      "tipo": "bar",
      "lat": 36.505465,
      "lon": -4.913895,
      "direccion": null,
      "codigo_postal": null,
      "telefono": null,
      "web": "https://grupotrocadero.com/restaurantes/trocadero-playa/",
      "instagram": null,
      "horario": "Mo-Su 11:00-19:00",
      "terraza": false
    },
    {
      "id": "osm_way_1302050580",
      "nombre": "Siroko Beach",
      "tipo": "bar",
      "lat": 36.496074,
      "lon": -4.800603,
      "direccion": null,
      "codigo_postal": null,
      "telefono": null,
      "web": "https://sirokobeach.com",
      "instagram": null,
      "horario": null,
      "terraza": false
    }
  ]
}