{
  "ciudad": "Mataró",
  "total": 32,
  "locales": [
    {
      "id": "osm_node_391095223",
      "nombre": "Leymar",
      "tipo": "cafe",
      "lat": 41.5448773,
      "lon": 2.4304095,
      "direccion": null,
      "codigo_postal": null,
      "telefono": null,
      "web": null,
      "instagram": null,
      "horario": null,
      "terraza": false,
      "musica": null,
      "fuente": "openstreetmap"
    },
    {
      "id": "osm_node_567776764",
      "nombre": "The Ugly Mug",
      "tipo": "pub",
      "lat": 41.5330164,
      "lon": 2.4239091,
      "direccion": null,
      "codigo_postal": null,
      "telefono": null,
      "web": null,
      "instagram": null,
      "horario": null,
      "terraza": false,
      "musica": null,
      "fuente": "openstreetmap"
    },
    {
      "id": "osm_node_738618456",
      "nombre": "dragon de oro",
      "tipo": "bar",
      "lat": 41.5371237,
      "lon": 2.4392586,
      "direccion": null,
      "codigo_postal": null,
      "telefono": null,
      "web": null,
      "instagram": null,
      "horario": null,
      "terraza": false,
      "musica": null,
      "fuente": "openstreetmap"
    },
    {
      "id": "osm_node_827291525",
      "nombre": "La Pausa",
      "tipo": "cafe",
      "lat": 41.5393743,
      "lon": 2.4428336,
      "direccion": "Carrer de Sant Josep 42",
      "codigo_postal": "08302",
      "telefono": null,
      "web": "https://lapausamataro.metro.bar/",
      "instagram": null,
      "horario": null,
      "terraza": false,
      "musica": null,
      "fuente": "openstreetmap"
    },
    {
      "id": "osm_node_1233192629",
      "nombre": "Cerveseria Belga Drunk Monk",
      "tipo": "pub",
      "lat": 41.5417225,
      "lon": 2.4353493,
      "direccion": "Vía Europa 30",
      "codigo_postal": "08303",
      "telefono": null,
      "web": "http://www.cervezabelga.com/",
      "instagram": null,
      "horario": null,
      "terraza": false,
      "musica": null,
      "fuente": "openstreetmap"
    },
    {
      "id": "osm_node_1527054291",
      "nombre": "Taverna Atzucac",
      "tipo": "bar",
      "lat": 41.5401822,
      "lon": 2.4458541,
      "direccion": "El Carreró",
      "codigo_postal": "08301",
      "telefono": null,
      "web": "http://www.atzucac.net/",
      "instagram": null,
      "horario": null,
      "terraza": false,
      "musica": null,
      "fuente": "openstreetmap"
    },
    {
      "id": "osm_node_2897662420",
      "nombre": "Cafetería Colón",
      "tipo": "cafe",
      "lat": 41.5337034,
      "lon": 2.4451395,
      "direccion": null,
      "codigo_postal": null,
      "telefono": null,
      "web": null,
      "instagram": null,
      "horario": null,
      "terraza": false,
      "musica": null,
      "fuente": "openstreetmap"
    },
    {
      "id": "osm_node_3095309544",
      "nombre": "Bar Cal Sepe",
      "tipo": "bar",
      "lat": 41.5413981,
      "lon": 2.4265479,
      "direccion": "Carrer Major 31",
      "codigo_postal": "08303",
      "telefono": null,
      "web": null,
      "instagram": null,
      "horario": null,
      "terraza": false,
      "musica": null,
      "fuente": "openstreetmap"
    },
    {
      "id": "osm_node_3341068740",
      "nombre": "Bar El Toboso",
      "tipo": "pub",
      "lat": 41.5326042,
      "lon": 2.4354379,
      "direccion": "Carrer de Sant Valentí 41",
      "codigo_postal": null,
      "telefono": "+34 937980219",
      "web": null,
      "instagram": null,
      "horario": null,
      "terraza": false,
      "musica": null,
      "fuente": "openstreetmap"
    },
    {
      "id": "osm_node_4147230343",
      "nombre": "Flori's",
      "tipo": "pub",
      "lat": 41.53826,
      "lon": 2.4329164,
      "direccion": null,
      "codigo_postal": null,
      "telefono": null,
      "web": null,
      "instagram": null,
      "horario": null,
      "terraza": false,
      "musica": null,
      "fuente": "openstreetmap"
    },
    {
      "id": "osm_node_4147231605",
      "nombre": "Day Day Up",
      "tipo": "pub",
      "lat": 41.5379446,
      "lon": 2.432071,
      "direccion": null,
      "codigo_postal": null,
      "telefono": null,
      "web": null,
      "instagram": null,
      "horario": null,
      "terraza": false,
      "musica": null,
      "fuente": "openstreetmap"
    },
    {
      "id": "osm_node_4148870928",
      "nombre": "Black White Café",
      "tipo": "cafe",
      "lat": 41.534473,
      "lon": 2.4398297,
      "direccion": null,
      "codigo_postal": null,
      "telefono": null,
      "web": null,
      "instagram": null,
      "horario": null,
      "terraza": false,
      "musica": null,
      "fuente": "openstreetmap"
    },
    {
      "id": "osm_node_4482952352",
      "nombre": "Bar Can Salinas",
      "tipo": "pub",
      "lat": 41.5356957,
      "lon": 2.4459076,
      "direccion": "Carrer de Sant Agustí 57",
      "codigo_postal": null,
      "telefono": null,
      "web": null,
      "instagram": null,
      "horario": null,
      "terraza": false,
      "musica": null,
      "fuente": "openstreetmap"
    },
    {
      "id": "osm_node_4482976942",
      "nombre": "Uqbar",
      "tipo": "pub",
      "lat": 41.5354587,
      "lon": 2.4459513,
      "direccion": null,
      "codigo_postal": null,
      "telefono": null,
      "web": null,
      "instagram": null,
      "horario": null,
      "terraza": false,
      "musica": null,
      "fuente": "openstreetmap"
    },
    {
      "id": "osm_node_6173329385",
      "nombre": "Pastisseria Mataró",
      "tipo": "cafe",
      "lat": 41.5442456,
      "lon": 2.4408659,
      "direccion": null,
      "codigo_postal": null,
      "telefono": null,
      "web": null,
      "instagram": null,
      "horario": null,
      "terraza": false,
      "musica": null,
      "fuente": "openstreetmap"
    },
    {
      "id": "osm_node_6176088485",
      "nombre": "Luz De Luna",
      "tipo": "cafe",
      "lat": 41.5453518,
      "lon": 2.4470912,
      "direccion": null,
      "codigo_postal": null,
      "telefono": null,
      "web": null,
      "instagram": null,
      "horario": null,
      "terraza": false,
      "musica": null,
      "fuente": "openstreetmap"
    },
    {
      "id": "osm_node_6634324488",
      "nombre": "La Lola",
      "tipo": "bar",
      "lat": 41.5395517,
      "lon": 2.4482327,
      "direccion": "Plaça de Can Xammar",
      "codigo_postal": "08301",
      "telefono": "+34 674 62 50 82",
      "web": "https://www.lalolamataro.com/",
      "instagram": null,
      "horario": null,
      "terraza": false,
      "musica": null,
      "fuente": "openstreetmap"
    },
    {
      "id": "osm_node_6634324489",
      "nombre": "La Plaça",
      "tipo": "bar",
      "lat": 41.5373012,
      "lon": 2.440355,
      "direccion": "Carrer de Cuba 40",
      "codigo_postal": "08302",
      "telefono": "+34 937 41 26 24",
      "web": null,
      "instagram": null,
      "horario": null,
      "terraza": false,
      "musica": null,
      "fuente": "openstreetmap"
    },
    {
      "id": "osm_node_7728494932",
      "nombre": "La Branca",
      "tipo": "bar",
      "lat": 41.5449389,
      "lon": 2.4471178,
      "direccion": null,
      "codigo_postal": null,
      "telefono": null,
      "web": null,
      "instagram": null,
      "horario": null,
      "terraza": false,
      "musica": null,
      "fuente": "openstreetmap"
    },
    {
      "id": "osm_node_7834973878",
      "nombre": "La Gofreria",
      "tipo": "pub",
      "lat": 41.5399068,
      "lon": 2.4440944,
      "direccion": "Carrer de Sant Josep 4",
      "codigo_postal": "08302",
      "telefono": "+34 937907417",
      "web": "https://lagofreria.com/",
      "instagram": null,
      "horario": null,
      "terraza": false,
      "musica": null,
      "fuente": "openstreetmap"
    },
    {
      "id": "osm_node_8051275763",
      "nombre": "Caffè il Forno Brunch",
      "tipo": "cafe",
      "lat": 41.5375794,
      "lon": 2.4443064,
      "direccion": null,
      "codigo_postal": null,
      "telefono": null,
      "web": null,
      "instagram": null,
      "horario": null,
      "terraza": false,
      "musica": null,
      "fuente": "openstreetmap"
    },
    {
      "id": "osm_node_8347175217",
      "nombre": "El Jardí Vegan Bar",
      "tipo": "bar",
      "lat": 41.5382356,
      "lon": 2.4469235,
      "direccion": "Camí Ral 334",
      "codigo_postal": null,
      "telefono": null,
      "web": null,
      "instagram": null,
      "horario": null,
      "terraza": false,
      "musica": null,
      "fuente": "openstreetmap"
    },
    {
      "id": "osm_node_8504144158",
      "nombre": "Macxipa",
      "tipo": "cafe",
      "lat": 41.5405888,
      "lon": 2.4525079,
      "direccion": null,
      "codigo_postal": null,
      "telefono": null,
      "web": null,
      "instagram": null,
      "horario": null,
      "terraza": false,
      "musica": null,
      "fuente": "openstreetmap"
    },
    {
      "id": "osm_node_8827010017",
      "nombre": "Balú",
      "tipo": "cafe",
      "lat": 41.5406949,
      "lon": 2.4460854,
      "direccion": "Pl.Santa Maria 6",
      "codigo_postal": null,
      "telefono": "+34 93 232 9901",
      "web": null,
      "instagram": null,
      "horario": null,
      "terraza": true,
      "musica": null,
      "fuente": "openstreetmap"
    },
    {
      "id": "osm_node_9573716409",
      "nombre": "El Xarrupet",
      "tipo": "bar",
      "lat": 41.5336052,
      "lon": 2.4297727,
      "direccion": "Carrer de Manuel Carrasco i Formiguera 17",
      "codigo_postal": "08302",
      "telefono": null,
      "web": null,
      "instagram": null,
      "horario": null,
      "terraza": false,
      "musica": null,
      "fuente": "openstreetmap"
    },
    {
      "id": "osm_node_9846030318",
      "nombre": "Café Nou",
      "tipo": "cafe",
      "lat": 41.5419923,
      "lon": 2.4431821,
      "direccion": null,
      "codigo_postal": null,
      "telefono": null,
      "web": null,
      "instagram": null,
      "horario": null,
      "terraza": false,
      "musica": null,
      "fuente": "openstreetmap"
    },
    {
      "id": "osm_node_11278468469",
      "nombre": "El Portalet",
      "tipo": "bar",
      "lat": 41.5403356,
      "lon": 2.4396438,
      "direccion": "Carrer de Francesc Milans 26",
      "codigo_postal": "08302",
      "telefono": null,
      "web": null,
      "instagram": null,
      "horario": null,
      "terraza": false,
      "musica": null,
      "fuente": "openstreetmap"
    },
    {
      "id": "osm_node_12382788060",
      "nombre": "Frankfurt's",
      "tipo": "pub",
      "lat": 41.5543466,
      "lon": 2.4338557,
      "direccion": null,
      "codigo_postal": null,
      "telefono": null,
      "web": null,
      "instagram": null,
      "horario": null,
      "terraza": false,
      "musica": null,
      "fuente": "openstreetmap"
    },
    {
      "id": "osm_node_12603925858",
      "nombre": "Milbana",
      "tipo": "cafe",
      "lat": 41.5328117,
      "lon": 2.4464894,
      "direccion": "Passeig Marítim 250",
      "codigo_postal": "08302",
      "telefono": null,
      "web": null,
      "instagram": "https://www.instagram.com/milbana_mataro/",
      "horario": "Mo-Th 09:00-22:00; Fr-Sa 09:00-23:00; Su 09:00-22:00",
      "terraza": false,
      "musica": null,
      "fuente": "openstreetmap"
    },
    {
      "id": "osm_node_13252253301",
      "nombre": "Kahiki mataró",
      "tipo": "bar",
      "lat": 41.5326897,
      "lon": 2.4283032,
      "direccion": "35 Carrer Carrasco I Formiguera",
      "codigo_postal": "08302",
      "telefono": "+34 930 29 67 94",
      "web": "https://www.privateaser.es/local/51825-kahiki-mataro",
      "instagram": null,
      "horario": null,
      "terraza": false,
      "musica": null,
      "fuente": "openstreetmap"
    },
    {
      "id": "osm_node_13440286741",
      "nombre": "Cafeteria Luana",
      "tipo": "cafe",
      "lat": 41.5365244,
      "lon": 2.4489021,
      "direccion": "Av. del Maresme 315",
      "codigo_postal": "08301",
      "telefono": null,
      "web": null,
      "instagram": null,
      "horario": null,
      "terraza": false,
      "musica": null,
      "fuente": "openstreetmap"
    },
    {
      "id": "osm_node_13714874501",
      "nombre": "Casa Paco",
      "tipo": "bar",
      "lat": 41.5398616,
      "lon": 2.4466467,
      "direccion": "Carrer de Sant Cristòfor 16",
      "codigo_postal": "08301",
      "telefono": null,
      "web": null,
      "instagram": null,
      "horario": null,
      "terraza": false,
      "musica": null,
      "fuente": "openstreetmap"
    }
  ]
}