{
  "ciudad": "Murcia",
  "total": 216,
  "locales": [
    {
      "id": "osm_node_253508225",
      "nombre": "La Puerta Falsa",
      "tipo": "pub",
      "lat": 37.9890668,
      "lon": -1.1260761,
      "direccion": null,
      "codigo_postal": null,
      "telefono": null,
      "web": null,
      "instagram": null,
      "horario": null,
      "terraza": false,
      "musica": null,
      "fuente": "openstreetmap"
    },
    {
      "id": "osm_node_675896463",
      "nombre": "30 Barra",
      "tipo": "cafe",
      "lat": 37.9320147,
      "lon": -1.2099323,
      "direccion": null,
      "codigo_postal": null,
      "telefono": null,
      "web": null,
      "instagram": null,
      "horario": null,
      "terraza": false,
      "musica": null,
      "fuente": "openstreetmap"
    },
    {
      "id": "osm_node_675896488",
      "nombre": "Sueños",
      "tipo": "cafe",
      "lat": 37.9320824,
      "lon": -1.2096212,
      "direccion": null,
      "codigo_postal": null,
      "telefono": null,
      "web": null,
      "instagram": null,
      "horario": null,
      "terraza": false,
      "musica": null,
      "fuente": "openstreetmap"
    },
    {
      "id": "osm_node_676663774",
      "nombre": "La Cábala",
      "tipo": "cafe",
      "lat": 37.9331918,
      "lon": -1.2042992,
      "direccion": null,
      "codigo_postal": null,
      "telefono": null,
      "web": null,
      "instagram": null,
      "horario": null,
      "terraza": false,
      "musica": null,
      "fuente": "openstreetmap"
    },
    {
      "id": "osm_node_676663775",
      "nombre": "Europa",
      "tipo": "cafe",
      "lat": 37.9337935,
      "lon": -1.2056944,
      "direccion": null,
      "codigo_postal": null,
      "telefono": null,
      "web": null,
      "instagram": null,
      "horario": null,
      "terraza": false,
      "musica": null,
      "fuente": "openstreetmap"
    },
    {
      "id": "osm_node_693356350",
      "nombre": "Bar Kenedy",
      "tipo": "pub",
      "lat": 37.987889,
      "lon": -1.1346127,
      "direccion": null,
      "codigo_postal": null,
      "telefono": null,
      "web": null,
      "instagram": null,
      "horario": null,
      "terraza": false,
      "musica": null,
      "fuente": "openstreetmap"
    },
    {
      "id": "osm_node_700738366",
      "nombre": "El ahorcado feliz",
      "tipo": "pub",
      "lat": 37.9846658,
      "lon": -1.1251123,
      "direccion": null,
      "codigo_postal": null,
      "telefono": null,
      "web": null,
      "instagram": null,
      "horario": null,
      "terraza": false,
      "musica": null,
      "fuente": "openstreetmap"
    },
    {
      "id": "osm_node_906981906",
      "nombre": "Taberna Teodoro",
      "tipo": "pub",
      "lat": 37.9920104,
      "lon": -1.1371357,
      "direccion": null,
      "codigo_postal": null,
      "telefono": null,
      "web": null,
      "instagram": null,
      "horario": null,
      "terraza": false,
      "musica": null,
      "fuente": "openstreetmap"
    },
    {
      "id": "osm_node_923971606",
      "nombre": "El Portón",
      "tipo": "pub",
      "lat": 37.8290694,
      "lon": -1.158325,
      "direccion": null,
      "codigo_postal": null,
      "telefono": null,
      "web": null,
      "instagram": null,
      "horario": null,
      "terraza": false,
      "musica": null,
      "fuente": "openstreetmap"
    },
    {
      "id": "osm_node_924017499",
      "nombre": "Teleclub",
      "tipo": "pub",
      "lat": 37.827068,
      "lon": -1.2119304,
      "direccion": null,
      "codigo_postal": null,
      "telefono": null,
      "web": null,
      "instagram": null,
      "horario": null,
      "terraza": false,
      "musica": null,
      "fuente": "openstreetmap"
    },
    {
      "id": "osm_node_924207400",
      "nombre": "Centro De Mayores",
      "tipo": "pub",
      "lat": 37.82999,
      "lon": -1.160626,
      "direccion": null,
      "codigo_postal": null,
      "telefono": null,
      "web": null,
      "instagram": null,
      "horario": null,
      "terraza": false,
      "musica": null,
      "fuente": "openstreetmap"
    },
    {
      "id": "osm_node_925180292",
      "nombre": "Bar Julián",
      "tipo": "pub",
      "lat": 37.8285123,
      "lon": -1.1603761,
      "direccion": null,
      "codigo_postal": null,
      "telefono": null,
      "web": null,
      "instagram": null,
      "horario": null,
      "terraza": false,
      "musica": null,
      "fuente": "openstreetmap"
    },
    {
      "id": "osm_node_1051438446",
      "nombre": "Willow",
      "tipo": "cafe",
      "lat": 37.9422836,
      "lon": -1.1316232,
      "direccion": null,
      "codigo_postal": null,
      "telefono": null,
      "web": null,
      "instagram": null,
      "horario": null,
      "terraza": false,
      "musica": null,
      "fuente": "openstreetmap"
    },
    {
      "id": "osm_node_1065541270",
      "nombre": "Bar Avenida",
      "tipo": "bar",
      "lat": 38.0078572,
      "lon": -1.1508676,
      "direccion": null,
      "codigo_postal": null,
      "telefono": null,
      "web": null,
      "instagram": null,
      "horario": null,
      "terraza": false,
      "musica": null,
      "fuente": "openstreetmap"
    },
    {
      "id": "osm_node_1070524183",
      "nombre": "La Casa Lonja",
      "tipo": "bar",
      "lat": 37.9850482,
      "lon": -1.1330581,
      "direccion": null,
      "codigo_postal": null,
      "telefono": null,
      "web": null,
      "instagram": null,
      "horario": null,
      "terraza": false,
      "musica": null,
      "fuente": "openstreetmap"
    },
    {
      "id": "osm_node_1189998797",
      "nombre": "Bar El Mellizo",
      "tipo": "bar",
      "lat": 37.9395028,
      "lon": -1.1596451,
      "direccion": null,
      "codigo_postal": null,
      "telefono": null,
      "web": null,
      "instagram": null,
      "horario": null,
      "terraza": false,
      "musica": null,
      "fuente": "openstreetmap"
    },
    {
      "id": "osm_node_1205748298",
      "nombre": "Cariño",
      "tipo": "bar",
      "lat": 37.9408564,
      "lon": -1.162374,
      "direccion": null,
      "codigo_postal": null,
      "telefono": null,
      "web": null,
      "instagram": null,
      "horario": null,
      "terraza": false,
      "musica": null,
      "fuente": "openstreetmap"
    },
    {
      "id": "osm_node_1209508631",
      "nombre": "Cajón Desastre",
      "tipo": "pub",
      "lat": 37.9392036,
      "lon": -1.1569334,
      "direccion": null,
      "codigo_postal": null,
      "telefono": null,
      "web": null,
      "instagram": null,
      "horario": null,
      "terraza": false,
      "musica": null,
      "fuente": "openstreetmap"
    },
    {
      "id": "osm_node_1216273287",
      "nombre": "El Refugio",
      "tipo": "bar",
      "lat": 37.9856276,
      "lon": -1.1257575,
      "direccion": null,
      "codigo_postal": null,
      "telefono": null,
      "web": null,
      "instagram": null,
      "horario": null,
      "terraza": false,
      "musica": null,
      "fuente": "openstreetmap"
    },
    {
      "id": "osm_node_1216273336",
      "nombre": "Trébol",
      "tipo": "bar",
      "lat": 37.9853506,
      "lon": -1.1270466,
      "direccion": null,
      "codigo_postal": null,
      "telefono": null,
      "web": null,
      "instagram": null,
      "horario": null,
      "terraza": false,
      "musica": null,
      "fuente": "openstreetmap"
    },
    {
      "id": "osm_node_1216273366",
      "nombre": "Río",
      "tipo": "cafe",
      "lat": 37.9844121,
      "lon": -1.1270889,
      "direccion": null,
      "codigo_postal": null,
      "telefono": null,
      "web": null,
      "instagram": null,
      "horario": null,
      "terraza": false,
      "musica": null,
      "fuente": "openstreetmap"
    },
    {
      "id": "osm_node_1216273372",
      "nombre": "Segura",
      "tipo": "cafe",
      "lat": 37.9827585,
      "lon": -1.1273331,
      "direccion": null,
      "codigo_postal": null,
      "telefono": null,
      "web": null,
      "instagram": null,
      "horario": null,
      "terraza": false,
      "musica": null,
      "fuente": "openstreetmap"
    },
    {
      "id": "osm_node_1216273438",
      "nombre": "El Albergue",
      "tipo": "bar",
      "lat": 37.9856563,
      "lon": -1.1260704,
      "direccion": null,
      "codigo_postal": null,
      "telefono": null,
      "web": null,
      "instagram": null,
      "horario": null,
      "terraza": false,
      "musica": null,
      "fuente": "openstreetmap"
    },
    {
      "id": "osm_node_1216273470",
      "nombre": "Makura",
      "tipo": "bar",
      "lat": 37.9854865,
      "lon": -1.126108,
      "direccion": null,
      "codigo_postal": null,
      "telefono": null,
      "web": null,
      "instagram": null,
      "horario": null,
      "terraza": false,
      "musica": null,
      "fuente": "openstreetmap"
    },
    {
      "id": "osm_node_1216273535",
      "nombre": "Origen",
      "tipo": "cafe",
      "lat": 37.9852967,
      "lon": -1.1272017,
      "direccion": null,
      "codigo_postal": null,
      "telefono": null,
      "web": null,
      "instagram": null,
      "horario": null,
      "terraza": false,
      "musica": null,
      "fuente": "openstreetmap"
    },
    {
      "id": "osm_node_1216273550",
      "nombre": "Pórtico",
      "tipo": "bar",
      "lat": 37.9831064,
      "lon": -1.1268621,
      "direccion": null,
      "codigo_postal": null,
      "telefono": null,
      "web": null,
      "instagram": null,
      "horario": null,
      "terraza": false,
      "musica": null,
      "fuente": "openstreetmap"
    },
    {
      "id": "osm_node_1216273678",
      "nombre": "Tropical",
      "tipo": "bar",
      "lat": 37.9854483,
      "lon": -1.1262007,
      "direccion": null,
      "codigo_postal": null,
      "telefono": null,
      "web": null,
      "instagram": null,
      "horario": null,
      "terraza": false,
      "musica": null,
      "fuente": "openstreetmap"
    },
    {
      "id": "osm_node_1216273767",
      "nombre": "La Troya",
      "tipo": "bar",
      "lat": 37.985522,
      "lon": -1.1260461,
      "direccion": null,
      "codigo_postal": null,
      "telefono": null,
      "web": null,
      "instagram": null,
      "horario": null,
      "terraza": false,
      "musica": null,
      "fuente": "openstreetmap"
    },
    {
      "id": "osm_node_1216755309",
      "nombre": "La Rue",
      "tipo": "bar",
      "lat": 37.9878319,
      "lon": -1.1276797,
      "direccion": null,
      "codigo_postal": null,
      "telefono": null,
      "web": null,
      "instagram": null,
      "horario": null,
      "terraza": false,
      "musica": null,
      "fuente": "openstreetmap"
    },
    {
      "id": "osm_node_1216755437",
      "nombre": "Tomás",
      "tipo": "cafe",
      "lat": 37.9893969,
      "lon": -1.1231589,
      "direccion": null,
      "codigo_postal": null,
      "telefono": null,
      "web": null,
      "instagram": null,
      "horario": null,
      "terraza": false,
      "musica": null,
      "fuente": "openstreetmap"
    },
    {
      "id": "osm_node_1216755488",
      "nombre": "La Rockera",
      "tipo": "bar",
      "lat": 37.987768,
      "lon": -1.1278012,
      "direccion": null,
      "codigo_postal": null,
      "telefono": null,
      "web": null,
      "instagram": null,
      "horario": null,
      "terraza": false,
      "musica": null,
      "fuente": "openstreetmap"
    },
    {
      "id": "osm_node_1216755531",
      "nombre": "Café del Sol",
      "tipo": "cafe",
      "lat": 37.9860254,
      "lon": -1.1272518,
      "direccion": null,
      "codigo_postal": null,
      "telefono": null,
      "web": null,
      "instagram": null,
      "horario": null,
      "terraza": false,
      "musica": null,
      "fuente": "openstreetmap"
    },
    {
      "id": "osm_node_1216755683",
      "nombre": "Caravijo",
      "tipo": "bar",
      "lat": 37.9876584,
      "lon": -1.1279785,
      "direccion": null,
      "codigo_postal": null,
      "telefono": null,
      "web": null,
      "instagram": null,
      "horario": null,
      "terraza": false,
      "musica": null,
      "fuente": "openstreetmap"
    },
    {
      "id": "osm_node_1274675088",
      "nombre": "Temperatura Ambiente",
      "tipo": "pub",
      "lat": 37.985836,
      "lon": -1.1255064,
      "direccion": null,
      "codigo_postal": null,
      "telefono": null,
      "web": null,
      "instagram": null,
      "horario": null,
      "terraza": false,
      "musica": null,
      "fuente": "openstreetmap"
    },
    {
      "id": "osm_node_1277066534",
      "nombre": "Huerta Mar",
      "tipo": "bar",
      "lat": 37.9716982,
      "lon": -1.1371285,
      "direccion": null,
      "codigo_postal": null,
      "telefono": null,
      "web": null,
      "instagram": null,
      "horario": null,
      "terraza": false,
      "musica": null,
      "fuente": "openstreetmap"
    },
    {
      "id": "osm_node_1277066854",
      "nombre": "Nito's",
      "tipo": "pub",
      "lat": 37.9725046,
      "lon": -1.1364551,
      "direccion": null,
      "codigo_postal": null,
      "telefono": null,
      "web": null,
      "instagram": null,
      "horario": null,
      "terraza": false,
      "musica": null,
      "fuente": "openstreetmap"
    },
    {
      "id": "osm_node_1356576272",
      "nombre": "Franc-Louise",
      "tipo": "bar",
      "lat": 37.8904841,
      "lon": -0.9420016,
      "direccion": null,
      "codigo_postal": null,
      "telefono": null,
      "web": null,
      "instagram": null,
      "horario": null,
      "terraza": false,
      "musica": null,
      "fuente": "openstreetmap"
    },
    {
      "id": "osm_node_1356576298",
      "nombre": "La Vereda",
      "tipo": "bar",
      "lat": 37.8920472,
      "lon": -0.9456386,
      "direccion": null,
      "codigo_postal": null,
      "telefono": null,
      "web": null,
      "instagram": null,
      "horario": null,
      "terraza": false,
      "musica": null,
      "fuente": "openstreetmap"
    },
    {
      "id": "osm_node_1356576299",
      "nombre": "Mansfield",
      "tipo": "bar",
      "lat": 37.8922149,
      "lon": -0.9466152,
      "direccion": null,
      "codigo_postal": null,
      "telefono": null,
      "web": null,
      "instagram": null,
      "horario": null,
      "terraza": false,
      "musica": null,
      "fuente": "openstreetmap"
    },
    {
      "id": "osm_node_1362051896",
      "nombre": "Donde Ayer",
      "tipo": "bar",
      "lat": 37.8892448,
      "lon": -0.941696,
      "direccion": null,
      "codigo_postal": null,
      "telefono": null,
      "web": null,
      "instagram": null,
      "horario": null,
      "terraza": false,
      "musica": null,
      "fuente": "openstreetmap"
    },
    {
      "id": "osm_node_1362051898",
      "nombre": "Café Paula",
      "tipo": "cafe",
      "lat": 37.8896981,
      "lon": -0.9411115,
      "direccion": null,
      "codigo_postal": null,
      "telefono": null,
      "web": null,
      "instagram": null,
      "horario": null,
      "terraza": false,
      "musica": null,
      "fuente": "openstreetmap"
    },
    {
      "id": "osm_node_1362132130",
      "nombre": "bar la plaza",
      "tipo": "bar",
      "lat": 37.8898107,
      "lon": -0.9419577,
      "direccion": null,
      "codigo_postal": null,
      "telefono": null,
      "web": null,
      "instagram": null,
      "horario": null,
      "terraza": false,
      "musica": null,
      "fuente": "openstreetmap"
    },
    {
      "id": "osm_node_1362132131",
      "nombre": "Cafetería Arco",
      "tipo": "cafe",
      "lat": 37.8901808,
      "lon": -0.9416926,
      "direccion": null,
      "codigo_postal": null,
      "telefono": null,
      "web": null,
      "instagram": null,
      "horario": null,
      "terraza": false,
      "musica": null,
      "fuente": "openstreetmap"
    },
    {
      "id": "osm_node_1400260744",
      "nombre": "Quitapesares",
      "tipo": "bar",
      "lat": 37.9383786,
      "lon": -1.1184485,
      "direccion": null,
      "codigo_postal": null,
      "telefono": null,
      "web": null,
      "instagram": null,
      "horario": null,
      "terraza": false,
      "musica": null,
      "fuente": "openstreetmap"
    },
    {
      "id": "osm_node_1450982520",
      "nombre": "El Templo",
      "tipo": "pub",
      "lat": 38.0225614,
      "lon": -1.1390299,
      "direccion": null,
      "codigo_postal": null,
      "telefono": null,
      "web": null,
      "instagram": null,
      "horario": null,
      "terraza": false,
      "musica": null,
      "fuente": "openstreetmap"
    },
    {
      "id": "osm_node_1628538130",
      "nombre": "Venta los Pinos",
      "tipo": "bar",
      "lat": 37.9715123,
      "lon": -0.969298,
      "direccion": null,
      "codigo_postal": null,
      "telefono": null,
      "web": null,
      "instagram": null,
      "horario": null,
      "terraza": false,
      "musica": null,
      "fuente": "openstreetmap"
    },
    {
      "id": "osm_node_1658017431",
      "nombre": "El Sombrero",
      "tipo": "bar",
      "lat": 37.931245,
      "lon": -1.2140705,
      "direccion": null,
      "codigo_postal": null,
      "telefono": null,
      "web": null,
      "instagram": null,
      "horario": null,
      "terraza": false,
      "musica": null,
      "fuente": "openstreetmap"
    },
    {
      "id": "osm_node_1676676320",
      "nombre": "El Jardín",
      "tipo": "cafe",
      "lat": 37.9424528,
      "lon": -1.1316635,
      "direccion": null,
      "codigo_postal": null,
      "telefono": null,
      "web": null,
      "instagram": null,
      "horario": null,
      "terraza": false,
      "musica": null,
      "fuente": "openstreetmap"
    },
    {
      "id": "osm_node_1708189109",
      "nombre": "La Taberna de Joven Futura",
      "tipo": "bar",
      "lat": 38.003913,
      "lon": -1.1572971,
      "direccion": null,
      "codigo_postal": null,
      "telefono": null,
      "web": null,
      "instagram": null,
      "horario": "10:00-23:59",
      "terraza": false,
      "musica": null,
      "fuente": "openstreetmap"
    },
    {
      "id": "osm_node_1708322006",
      "nombre": "Lunatic Terra Natura",
      "tipo": "pub",
      "lat": 38.0096528,
      "lon": -1.1646016,
      "direccion": null,
      "codigo_postal": null,
      "telefono": null,
      "web": null,
      "instagram": null,
      "horario": null,
      "terraza": false,
      "musica": null,
      "fuente": "openstreetmap"
    },
    {
      "id": "osm_node_1732731270",
      "nombre": "Bar Oriente",
      "tipo": "bar",
      "lat": 37.9846642,
      "lon": -1.1358895,
      "direccion": null,
      "codigo_postal": null,
      "telefono": null,
      "web": null,
      "instagram": null,
      "horario": null,
      "terraza": false,
      "musica": null,
      "fuente": "openstreetmap"
    },
    {
      "id": "osm_node_1734135314",
      "nombre": "Churrería Futura",
      "tipo": "cafe",
      "lat": 38.0077557,
      "lon": -1.1511242,
      "direccion": null,
      "codigo_postal": null,
      "telefono": null,
      "web": null,
      "instagram": null,
      "horario": "Sa-Su 07:00-12:00",
      "terraza": false,
      "musica": null,
      "fuente": "openstreetmap"
    },
    {
      "id": "osm_node_1932550700",
      "nombre": "525",
      "tipo": "pub",
      "lat": 37.9419091,
      "lon": -1.1466718,
      "direccion": null,
      "codigo_postal": null,
      "telefono": null,
      "web": null,
      "instagram": null,
      "horario": null,
      "terraza": false,
      "musica": null,
      "fuente": "openstreetmap"
    },
    {
      "id": "osm_node_1932550725",
      "nombre": "Siena",
      "tipo": "cafe",
      "lat": 37.9412746,
      "lon": -1.1471975,
      "direccion": null,
      "codigo_postal": null,
      "telefono": null,
      "web": null,
      "instagram": null,
      "horario": null,
      "terraza": false,
      "musica": null,
      "fuente": "openstreetmap"
    },
    {
      "id": "osm_node_1939131766",
      "nombre": "Café-Bar Gala",
      "tipo": "pub",
      "lat": 37.9413787,
      "lon": -1.1404494,
      "direccion": null,
      "codigo_postal": null,
      "telefono": null,
      "web": null,
      "instagram": null,
      "horario": null,
      "terraza": false,
      "musica": null,
      "fuente": "openstreetmap"
    },
    {
      "id": "osm_node_1986216336",
      "nombre": "Victors",
      "tipo": "cafe",
      "lat": 37.8914897,
      "lon": -0.9439701,
      "direccion": null,
      "codigo_postal": null,
      "telefono": null,
      "web": null,
      "instagram": null,
      "horario": null,
      "terraza": false,
      "musica": null,
      "fuente": "openstreetmap"
    },
    {
      "id": "osm_node_1986216348",
      "nombre": "el Artesano",
      "tipo": "cafe",
      "lat": 37.8900375,
      "lon": -0.941985,
      "direccion": null,
      "codigo_postal": null,
      "telefono": "+34 691525525",
      "web": "http://www.panaderiaelartesano.com/",
      "instagram": null,
      "horario": null,
      "terraza": false,
      "musica": null,
      "fuente": "openstreetmap"
    },
    {
      "id": "osm_node_2296540043",
      "nombre": "Los Pájaros Ateneo Huertano",
      "tipo": "bar",
      "lat": 37.98359,
      "lon": -1.1567175,
      "direccion": "Carril de los Chornos 65",
      "codigo_postal": "30009",
      "telefono": "+34 868 81 34 40",
      "web": "https://lospajaros.org/",
      "instagram": null,
      "horario": null,
      "terraza": false,
      "musica": null,
      "fuente": "openstreetmap"
    },
    {
      "id": "osm_node_2318280084",
      "nombre": "La Famosa",
      "tipo": "bar",
      "lat": 37.9902627,
      "lon": -1.125095,
      "direccion": "Avenida Rector José Loustau 8",
      "codigo_postal": "30006",
      "telefono": "+34 614145213",
      "web": null,
      "instagram": null,
      "horario": null,
      "terraza": false,
      "musica": null,
      "fuente": "openstreetmap"
    },
    {
      "id": "osm_node_2318309000",
      "nombre": "Arrow",
      "tipo": "pub",
      "lat": 37.9898488,
      "lon": -1.1280785,
      "direccion": null,
      "codigo_postal": null,
      "telefono": null,
      "web": null,
      "instagram": null,
      "horario": null,
      "terraza": false,
      "musica": null,
      "fuente": "openstreetmap"
    },
    {
      "id": "osm_node_2318310295",
      "nombre": "Boutique",
      "tipo": "pub",
      "lat": 37.9900348,
      "lon": -1.1277889,
      "direccion": null,
      "codigo_postal": null,
      "telefono": null,
      "web": null,
      "instagram": null,
      "horario": null,
      "terraza": false,
      "musica": null,
      "fuente": "openstreetmap"
    },
    {
      "id": "osm_node_2318314803",
      "nombre": "El Churra",
      "tipo": "cafe",
      "lat": 37.9930026,
      "lon": -1.1280464,
      "direccion": null,
      "codigo_postal": null,
      "telefono": null,
      "web": null,
      "instagram": null,
      "horario": null,
      "terraza": false,
      "musica": null,
      "fuente": "openstreetmap"
    },
    {
      "id": "osm_node_2318318065",
      "nombre": "Café-Bar Krys",
      "tipo": "bar",
      "lat": 37.9925756,
      "lon": -1.1262171,
      "direccion": null,
      "codigo_postal": null,
      "telefono": null,
      "web": null,
      "instagram": null,
      "horario": null,
      "terraza": false,
      "musica": null,
      "fuente": "openstreetmap"
    },
    {
      "id": "osm_node_2318319273",
      "nombre": "Gran Vía",
      "tipo": "bar",
      "lat": 37.9921825,
      "lon": -1.1273436,
      "direccion": null,
      "codigo_postal": null,
      "telefono": null,
      "web": null,
      "instagram": null,
      "horario": null,
      "terraza": false,
      "musica": null,
      "fuente": "openstreetmap"
    },
    {
      "id": "osm_node_2321601583",
      "nombre": "El Charlatán",
      "tipo": "bar",
      "lat": 37.9935516,
      "lon": -1.1267366,
      "direccion": "Calle Arquitecto Emilio Pérez Piñero",
      "codigo_postal": "30007",
      "telefono": "+34637777704",
      "web": null,
      "instagram": null,
      "horario": null,
      "terraza": false,
      "musica": null,
      "fuente": "openstreetmap"
    },
    {
      "id": "osm_node_2321601738",
      "nombre": "La Bohème",
      "tipo": "bar",
      "lat": 37.9936172,
      "lon": -1.126632,
      "direccion": null,
      "codigo_postal": null,
      "telefono": null,
      "web": null,
      "instagram": null,
      "horario": null,
      "terraza": false,
      "musica": null,
      "fuente": "openstreetmap"
    },
    {
      "id": "osm_node_2321610940",
      "nombre": "Marife III",
      "tipo": "cafe",
      "lat": 37.9960057,
      "lon": -1.1194919,
      "direccion": null,
      "codigo_postal": null,
      "telefono": null,
      "web": null,
      "instagram": null,
      "horario": null,
      "terraza": false,
      "musica": null,
      "fuente": "openstreetmap"
    },
    {
      "id": "osm_node_2635020707",
      "nombre": "Bar Avenida",
      "tipo": "bar",
      "lat": 37.9399079,
      "lon": -1.1619625,
      "direccion": null,
      "codigo_postal": null,
      "telefono": null,
      "web": null,
      "instagram": null,
      "horario": null,
      "terraza": false,
      "musica": null,
      "fuente": "openstreetmap"
    },
    {
      "id": "osm_node_2726693205",
      "nombre": "Bajo cero",
      "tipo": "cafe",
      "lat": 37.9701689,
      "lon": -1.1338137,
      "direccion": null,
      "codigo_postal": null,
      "telefono": null,
      "web": null,
      "instagram": null,
      "horario": null,
      "terraza": false,
      "musica": null,
      "fuente": "openstreetmap"
    },
    {
      "id": "osm_node_2776951395",
      "nombre": "Cantina",
      "tipo": "bar",
      "lat": 37.9643841,
      "lon": -1.1312334,
      "direccion": null,
      "codigo_postal": null,
      "telefono": null,
      "web": null,
      "instagram": null,
      "horario": null,
      "terraza": false,
      "musica": null,
      "fuente": "openstreetmap"
    },
    {
      "id": "osm_node_3354366965",
      "nombre": "Impasse",
      "tipo": "bar",
      "lat": 37.9843259,
      "lon": -1.1254097,
      "direccion": "Calle Cánovas del Castillo 20",
      "codigo_postal": null,
      "telefono": null,
      "web": null,
      "instagram": null,
      "horario": null,
      "terraza": false,
      "musica": null,
      "fuente": "openstreetmap"
    },
    {
      "id": "osm_node_3400865806",
      "nombre": "Quiosco El Valle Perdido",
      "tipo": "bar",
      "lat": 37.9278323,
      "lon": -1.1479644,
      "direccion": null,
      "codigo_postal": null,
      "telefono": "+34 968 20 67 02",
      "web": "https://www.elvalleperdido.es/",
      "instagram": null,
      "horario": null,
      "terraza": false,
      "musica": null,
      "fuente": "openstreetmap"
    },
    {
      "id": "osm_node_3414754722",
      "nombre": "Bar Iris",
      "tipo": "bar",
      "lat": 37.9687799,
      "lon": -1.0814074,
      "direccion": null,
      "codigo_postal": null,
      "telefono": null,
      "web": null,
      "instagram": null,
      "horario": null,
      "terraza": false,
      "musica": null,
      "fuente": "openstreetmap"
    },
    {
      "id": "osm_node_3435786854",
      "nombre": "El Perro Azul",
      "tipo": "pub",
      "lat": 37.9840532,
      "lon": -1.1253153,
      "direccion": null,
      "codigo_postal": null,
      "telefono": null,
      "web": null,
      "instagram": null,
      "horario": null,
      "terraza": false,
      "musica": null,
      "fuente": "openstreetmap"
    },
    {
      "id": "osm_node_3435786856",
      "nombre": "La Terraza Del Perro Azul",
      "tipo": "biergarten",
      "lat": 37.9835785,
      "lon": -1.1259345,
      "direccion": null,
      "codigo_postal": null,
      "telefono": null,
      "web": null,
      "instagram": null,
      "horario": null,
      "terraza": false,
      "musica": null,
      "fuente": "openstreetmap"
    },
    {
      "id": "osm_node_3435796136",
      "nombre": "Valor",
      "tipo": "cafe",
      "lat": 37.9841006,
      "lon": -1.1295104,
      "direccion": null,
      "codigo_postal": null,
      "telefono": null,
      "web": null,
      "instagram": null,
      "horario": null,
      "terraza": true,
      "musica": null,
      "fuente": "openstreetmap"
    },
    {
      "id": "osm_node_3571588409",
      "nombre": "El Ágape",
      "tipo": "bar",
      "lat": 37.9405892,
      "lon": -1.1618689,
      "direccion": null,
      "codigo_postal": null,
      "telefono": null,
      "web": null,
      "instagram": null,
      "horario": null,
      "terraza": false,
      "musica": null,
      "fuente": "openstreetmap"
    },
    {
      "id": "osm_node_3878150593",
      "nombre": "Los Velázquez",
      "tipo": "bar",
      "lat": 37.940983,
      "lon": -1.1697398,
      "direccion": null,
      "codigo_postal": null,
      "telefono": null,
      "web": null,
      "instagram": null,
      "horario": null,
      "terraza": true,
      "musica": null,
      "fuente": "openstreetmap"
    },
    {
      "id": "osm_node_3953375766",
      "nombre": "Confitería Roses",
      "tipo": "cafe",
      "lat": 37.9799483,
      "lon": -1.1289217,
      "direccion": null,
      "codigo_postal": null,
      "telefono": null,
      "web": null,
      "instagram": null,
      "horario": null,
      "terraza": false,
      "musica": null,
      "fuente": "openstreetmap"
    },
    {
      "id": "osm_node_3980856258",
      "nombre": "Pepe de los jamones",
      "tipo": "bar",
      "lat": 37.9766869,
      "lon": -1.1296827,
      "direccion": null,
      "codigo_postal": null,
      "telefono": null,
      "web": null,
      "instagram": null,
      "horario": null,
      "terraza": false,
      "musica": null,
      "fuente": "openstreetmap"
    },
    {
      "id": "osm_node_4041807766",
      "nombre": "Socolá",
      "tipo": "cafe",
      "lat": 37.9857576,
      "lon": -1.1248148,
      "direccion": "Calle Mariano Vergara 5",
      "codigo_postal": null,
      "telefono": null,
      "web": "https://www.socola.es/",
      "instagram": null,
      "horario": "Mo-Su 09:00-21:00",
      "terraza": false,
      "musica": null,
      "fuente": "openstreetmap"
    },
    {
      "id": "osm_node_4043601619",
      "nombre": "El bosque animado",
      "tipo": "bar",
      "lat": 37.9835955,
      "lon": -1.1254465,
      "direccion": null,
      "codigo_postal": null,
      "telefono": "+34 968901342",
      "web": "https://www.elbosqueanimado.es",
      "instagram": null,
      "horario": null,
      "terraza": false,
      "musica": null,
      "fuente": "openstreetmap"
    },
    {
      "id": "osm_node_4277506392",
      "nombre": "Chaké",
      "tipo": "bar",
      "lat": 37.979118,
      "lon": -1.1221894,
      "direccion": "Calle de Ramón del Valle-Inclán",
      "codigo_postal": null,
      "telefono": null,
      "web": null,
      "instagram": null,
      "horario": null,
      "terraza": false,
      "musica": null,
      "fuente": "openstreetmap"
    },
    {
      "id": "osm_node_4350855771",
      "nombre": "Caffè Alhama",
      "tipo": "cafe",
      "lat": 38.0055483,
      "lon": -1.07134,
      "direccion": null,
      "codigo_postal": null,
      "telefono": null,
      "web": null,
      "instagram": null,
      "horario": null,
      "terraza": false,
      "musica": null,
      "fuente": "openstreetmap"
    },
    {
      "id": "osm_node_4352476796",
      "nombre": "El Guiti",
      "tipo": "bar",
      "lat": 38.0131081,
      "lon": -1.0340736,
      "direccion": null,
      "codigo_postal": null,
      "telefono": null,
      "web": null,
      "instagram": null,
      "horario": null,
      "terraza": false,
      "musica": null,
      "fuente": "openstreetmap"
    },
    {
      "id": "osm_node_4352476813",
      "nombre": "Anita",
      "tipo": "bar",
      "lat": 38.0160371,
      "lon": -1.0369006,
      "direccion": null,
      "codigo_postal": null,
      "telefono": null,
      "web": null,
      "instagram": null,
      "horario": null,
      "terraza": false,
      "musica": null,
      "fuente": "openstreetmap"
    },
    {
      "id": "osm_node_4487453135",
      "nombre": "BeerShooter",
      "tipo": "bar",
      "lat": 37.9870474,
      "lon": -1.1280661,
      "direccion": "Calle de Alejandro Seiquer 22",
      "codigo_postal": "30001",
      "telefono": null,
      "web": null,
      "instagram": null,
      "horario": null,
      "terraza": false,
      "musica": null,
      "fuente": "openstreetmap"
    },
    {
      "id": "osm_node_4650911890",
      "nombre": "Las Tapas de Santiago",
      "tipo": "cafe",
      "lat": 38.0013733,
      "lon": -1.1450706,
      "direccion": "Avenida Miguel de Cervantes 45a",
      "codigo_postal": "30009",
      "telefono": null,
      "web": null,
      "instagram": null,
      "horario": null,
      "terraza": false,
      "musica": null,
      "fuente": "openstreetmap"
    },
    {
      "id": "osm_node_4814174214",
      "nombre": "Confitería Maritere",
      "tipo": "cafe",
      "lat": 37.9870014,
      "lon": -1.134402,
      "direccion": null,
      "codigo_postal": null,
      "telefono": null,
      "web": null,
      "instagram": null,
      "horario": null,
      "terraza": true,
      "musica": null,
      "fuente": "openstreetmap"
    },
    {
      "id": "osm_node_4814174215",
      "nombre": "Nukka Gastro Beer",
      "tipo": "cafe",
      "lat": 37.9870119,
      "lon": -1.1345512,
      "direccion": null,
      "codigo_postal": null,
      "telefono": null,
      "web": null,
      "instagram": null,
      "horario": null,
      "terraza": false,
      "musica": null,
      "fuente": "openstreetmap"
    },
    {
      "id": "osm_node_4908694807",
      "nombre": "Starbucks",
      "tipo": "cafe",
      "lat": 37.9879018,
      "lon": -1.1319284,
      "direccion": "Calle Maestro Alonso 6",
      "codigo_postal": null,
      "telefono": null,
      "web": null,
      "instagram": null,
      "horario": null,
      "terraza": false,
      "musica": null,
      "fuente": "openstreetmap"
    },
    {
      "id": "osm_node_4947482725",
      "nombre": "Bangles",
      "tipo": "cafe",
      "lat": 37.9778926,
      "lon": -1.1045759,
      "direccion": null,
      "codigo_postal": null,
      "telefono": null,
      "web": null,
      "instagram": null,
      "horario": null,
      "terraza": false,
      "musica": null,
      "fuente": "openstreetmap"
    },
    {
      "id": "osm_node_4947482734",
      "nombre": "Panadería Isabel",
      "tipo": "cafe",
      "lat": 37.9782552,
      "lon": -1.1056434,
      "direccion": null,
      "codigo_postal": null,
      "telefono": null,
      "web": null,
      "instagram": null,
      "horario": null,
      "terraza": false,
      "musica": null,
      "fuente": "openstreetmap"
    },
    {
      "id": "osm_node_4947482758",
      "nombre": "Paraíso",
      "tipo": "cafe",
      "lat": 37.9762857,
      "lon": -1.1039986,
      "direccion": null,
      "codigo_postal": null,
      "telefono": null,
      "web": null,
      "instagram": null,
      "horario": null,
      "terraza": false,
      "musica": null,
      "fuente": "openstreetmap"
    },
    {
      "id": "osm_node_5234680716",
      "nombre": "Miriamar",
      "tipo": "cafe",
      "lat": 37.977155,
      "lon": -1.1187132,
      "direccion": null,
      "codigo_postal": null,
      "telefono": null,
      "web": null,
      "instagram": null,
      "horario": "Mo-Su 08:00-23:00",
      "terraza": true,
      "musica": null,
      "fuente": "openstreetmap"
    },
    {
      "id": "osm_node_5234680717",
      "nombre": "Cafe Bar Thisis",
      "tipo": "cafe",
      "lat": 37.9772401,
      "lon": -1.1186964,
      "direccion": null,
      "codigo_postal": null,
      "telefono": null,
      "web": null,
      "instagram": null,
      "horario": null,
      "terraza": true,
      "musica": null,
      "fuente": "openstreetmap"
    },
    {
      "id": "osm_node_5235134480",
      "nombre": "Cervemur",
      "tipo": "pub",
      "lat": 37.9703157,
      "lon": -1.1346575,
      "direccion": "Carril de la Condesa 30",
      "codigo_postal": "30010",
      "telefono": "+34 968 34 69 98",
      "web": "https://www.cervemur.es/",
      "instagram": null,
      "horario": "Mo-Sa 09:30-00:30",
      "terraza": true,
      "musica": null,
      "fuente": "openstreetmap"
    },
    {
      "id": "osm_node_5329740572",
      "nombre": "Cafetería Tuenty",
      "tipo": "cafe",
      "lat": 37.9696723,
      "lon": -1.127606,
      "direccion": "Paseo de Florencia 7",
      "codigo_postal": "30010",
      "telefono": null,
      "web": null,
      "instagram": null,
      "horario": null,
      "terraza": true,
      "musica": null,
      "fuente": "openstreetmap"
    },
    {
      "id": "osm_node_5370219905",
      "nombre": "Café de las Tres Hadas",
      "tipo": "cafe",
      "lat": 37.9386635,
      "lon": -1.1421398,
      "direccion": null,
      "codigo_postal": null,
      "telefono": null,
      "web": null,
      "instagram": null,
      "horario": null,
      "terraza": false,
      "musica": null,
      "fuente": "openstreetmap"
    },
    {
      "id": "osm_node_5426237577",
      "nombre": "Café-Bar Rubens",
      "tipo": "cafe",
      "lat": 37.9775001,
      "lon": -1.1783179,
      "direccion": null,
      "codigo_postal": null,
      "telefono": null,
      "web": null,
      "instagram": null,
      "horario": null,
      "terraza": false,
      "musica": null,
      "fuente": "openstreetmap"
    },
    {
      "id": "osm_node_5479185299",
      "nombre": "Cafetería Gollum",
      "tipo": "cafe",
      "lat": 38.0085621,
      "lon": -1.0912109,
      "direccion": null,
      "codigo_postal": null,
      "telefono": null,
      "web": null,
      "instagram": null,
      "horario": null,
      "terraza": false,
      "musica": null,
      "fuente": "openstreetmap"
    },
    {
      "id": "osm_node_5670003293",
      "nombre": "La Farmacia",
      "tipo": "bar",
      "lat": 37.9772397,
      "lon": -1.1792511,
      "direccion": null,
      "codigo_postal": null,
      "telefono": null,
      "web": null,
      "instagram": null,
      "horario": null,
      "terraza": false,
      "musica": null,
      "fuente": "openstreetmap"
    },
    {
      "id": "osm_node_5670003296",
      "nombre": "El Molino",
      "tipo": "bar",
      "lat": 37.9765675,
      "lon": -1.177824,
      "direccion": null,
      "codigo_postal": null,
      "telefono": null,
      "web": null,
      "instagram": null,
      "horario": null,
      "terraza": false,
      "musica": null,
      "fuente": "openstreetmap"
    },
    {
      "id": "osm_node_5677898125",
      "nombre": "Hogar del Pensionista",
      "tipo": "bar",
      "lat": 37.9782386,
      "lon": -1.1782981,
      "direccion": null,
      "codigo_postal": null,
      "telefono": null,
      "web": null,
      "instagram": null,
      "horario": null,
      "terraza": false,
      "musica": null,
      "fuente": "openstreetmap"
    },
    {
      "id": "osm_node_5763126353",
      "nombre": "Café del Arco",
      "tipo": "cafe",
      "lat": 37.9869158,
      "lon": -1.1301248,
      "direccion": "Calle Arco de Santo Domingo",
      "codigo_postal": null,
      "telefono": null,
      "web": null,
      "instagram": null,
      "horario": null,
      "terraza": false,
      "musica": null,
      "fuente": "openstreetmap"
    },
    {
      "id": "osm_node_5763126553",
      "nombre": "Fitzpatricks Irish Pub",
      "tipo": "bar",
      "lat": 37.9854535,
      "lon": -1.1278849,
      "direccion": null,
      "codigo_postal": null,
      "telefono": null,
      "web": null,
      "instagram": null,
      "horario": null,
      "terraza": false,
      "musica": null,
      "fuente": "openstreetmap"
    },
    {
      "id": "osm_node_5792961599",
      "nombre": "Bar El Puri",
      "tipo": "bar",
      "lat": 38.0056466,
      "lon": -1.0712127,
      "direccion": null,
      "codigo_postal": null,
      "telefono": null,
      "web": null,
      "instagram": null,
      "horario": null,
      "terraza": false,
      "musica": null,
      "fuente": "openstreetmap"
    },
    {
      "id": "osm_node_6103352746",
      "nombre": "Pastelaria Zaher",
      "tipo": "bar",
      "lat": 37.9850151,
      "lon": -1.1340039,
      "direccion": "Calle Riquelme 13",
      "codigo_postal": "30004",
      "telefono": null,
      "web": null,
      "instagram": null,
      "horario": null,
      "terraza": false,
      "musica": null,
      "fuente": "openstreetmap"
    },
    {
      "id": "osm_node_6342835763",
      "nombre": "Tira la caña",
      "tipo": "bar",
      "lat": 37.9966725,
      "lon": -1.1760268,
      "direccion": null,
      "codigo_postal": null,
      "telefono": null,
      "web": null,
      "instagram": null,
      "horario": null,
      "terraza": false,
      "musica": null,
      "fuente": "openstreetmap"
    },
    {
      "id": "osm_node_6409085308",
      "nombre": "La Rayuela",
      "tipo": "cafe",
      "lat": 38.0039588,
      "lon": -1.1567191,
      "direccion": "Calle Escritor Francisco Alemán Sainz 2",
      "codigo_postal": "30100",
      "telefono": null,
      "web": null,
      "instagram": null,
      "horario": null,
      "terraza": true,
      "musica": null,
      "fuente": "openstreetmap"
    },
    {
      "id": "osm_node_6456597890",
      "nombre": "Itaca",
      "tipo": "cafe",
      "lat": 37.9858506,
      "lon": -1.1244712,
      "direccion": null,
      "codigo_postal": null,
      "telefono": null,
      "web": null,
      "instagram": null,
      "horario": null,
      "terraza": false,
      "musica": null,
      "fuente": "openstreetmap"
    },
    {
      "id": "osm_node_6456597892",
      "nombre": "Martínez",
      "tipo": "bar",
      "lat": 37.986946,
      "lon": -1.1290947,
      "direccion": null,
      "codigo_postal": null,
      "telefono": null,
      "web": null,
      "instagram": null,
      "horario": null,
      "terraza": false,
      "musica": null,
      "fuente": "openstreetmap"
    },
    {
      "id": "osm_node_6478764185",
      "nombre": "Maraña",
      "tipo": "bar",
      "lat": 37.9885881,
      "lon": -1.1259518,
      "direccion": null,
      "codigo_postal": null,
      "telefono": null,
      "web": null,
      "instagram": null,
      "horario": null,
      "terraza": false,
      "musica": null,
      "fuente": "openstreetmap"
    },
    {
      "id": "osm_node_6514680066",
      "nombre": "Pa ti Pa mi",
      "tipo": "cafe",
      "lat": 37.9790804,
      "lon": -1.1332065,
      "direccion": null,
      "codigo_postal": null,
      "telefono": null,
      "web": null,
      "instagram": null,
      "horario": null,
      "terraza": false,
      "musica": null,
      "fuente": "openstreetmap"
    },
    {
      "id": "osm_node_6517015245",
      "nombre": "Piscis Musical Club",
      "tipo": "bar",
      "lat": 37.9874819,
      "lon": -1.128421,
      "direccion": "Plaza de Santo Domingo 6",
      "codigo_postal": null,
      "telefono": null,
      "web": null,
      "instagram": "piscismeeting",
      "horario": null,
      "terraza": false,
      "musica": null,
      "fuente": "openstreetmap"
    },
    {
      "id": "osm_node_6517015248",
      "nombre": "Picadilly Coffee",
      "tipo": "cafe",
      "lat": 37.9872879,
      "lon": -1.1281849,
      "direccion": null,
      "codigo_postal": null,
      "telefono": null,
      "web": null,
      "instagram": null,
      "horario": null,
      "terraza": false,
      "musica": null,
      "fuente": "openstreetmap"
    },
    {
      "id": "osm_node_6820343203",
      "nombre": "Shooter Lab",
      "tipo": "pub",
      "lat": 37.9859225,
      "lon": -1.1253757,
      "direccion": "Calle Victorio 12",
      "codigo_postal": "30003",
      "telefono": null,
      "web": null,
      "instagram": null,
      "horario": "Mo-Su 19:00-00:00",
      "terraza": false,
      "musica": null,
      "fuente": "openstreetmap"
    },
    {
      "id": "osm_node_6841991819",
      "nombre": "Pepote",
      "tipo": "bar",
      "lat": 38.024891,
      "lon": -1.131073,
      "direccion": null,
      "codigo_postal": null,
      "telefono": null,
      "web": null,
      "instagram": null,
      "horario": null,
      "terraza": true,
      "musica": null,
      "fuente": "openstreetmap"
    },
    {
      "id": "osm_node_7684704026",
      "nombre": "Cafetería La Seda",
      "tipo": "cafe",
      "lat": 38.0189398,
      "lon": -1.0490659,
      "direccion": null,
      "codigo_postal": "30162",
      "telefono": null,
      "web": null,
      "instagram": null,
      "horario": null,
      "terraza": true,
      "musica": null,
      "fuente": "openstreetmap"
    },
    {
      "id": "osm_node_7973866066",
      "nombre": "Finito fino",
      "tipo": "bar",
      "lat": 37.9960598,
      "lon": -1.1329135,
      "direccion": null,
      "codigo_postal": null,
      "telefono": "+34661144584",
      "web": null,
      "instagram": null,
      "horario": null,
      "terraza": false,
      "musica": null,
      "fuente": "openstreetmap"
    },
    {
      "id": "osm_node_8531662908",
      "nombre": "The Saint",
      "tipo": "cafe",
      "lat": 38.018025,
      "lon": -1.0994037,
      "direccion": null,
      "codigo_postal": null,
      "telefono": null,
      "web": null,
      "instagram": null,
      "horario": null,
      "terraza": false,
      "musica": null,
      "fuente": "openstreetmap"
    },
    {
      "id": "osm_node_8534232472",
      "nombre": "Lopez",
      "tipo": "cafe",
      "lat": 37.9954734,
      "lon": -1.1233868,
      "direccion": null,
      "codigo_postal": null,
      "telefono": null,
      "web": null,
      "instagram": null,
      "horario": null,
      "terraza": true,
      "musica": null,
      "fuente": "openstreetmap"
    },
    {
      "id": "osm_node_8534232482",
      "nombre": "Almirante",
      "tipo": "pub",
      "lat": 37.9983646,
      "lon": -1.1261098,
      "direccion": null,
      "codigo_postal": null,
      "telefono": null,
      "web": null,
      "instagram": null,
      "horario": null,
      "terraza": true,
      "musica": null,
      "fuente": "openstreetmap"
    },
    {
      "id": "osm_node_8831476000",
      "nombre": "Bar Culturas",
      "tipo": "bar",
      "lat": 37.961888,
      "lon": -1.1150714,
      "direccion": "Calle Alguazas 34",
      "codigo_postal": null,
      "telefono": null,
      "web": "https://www.barculturas.es/",
      "instagram": null,
      "horario": "Mo-Th 09:30-14:00,16:00-02:00; Fr-Sa 16:00-03:00; Su 16:00-01:00",
      "terraza": false,
      "musica": null,
      "fuente": "openstreetmap"
    },
    {
      "id": "osm_node_8904441297",
      "nombre": "Bar Keki",
      "tipo": "bar",
      "lat": 37.9848045,
      "lon": -1.1279726,
      "direccion": null,
      "codigo_postal": null,
      "telefono": null,
      "web": null,
      "instagram": null,
      "horario": null,
      "terraza": false,
      "musica": null,
      "fuente": "openstreetmap"
    },
    {
      "id": "osm_node_9477303602",
      "nombre": "Grada",
      "tipo": "cafe",
      "lat": 38.0411503,
      "lon": -1.1479307,
      "direccion": null,
      "codigo_postal": null,
      "telefono": null,
      "web": null,
      "instagram": null,
      "horario": null,
      "terraza": false,
      "musica": null,
      "fuente": "openstreetmap"
    },
    {
      "id": "osm_node_9520002276",
      "nombre": "La Bien Pagá",
      "tipo": "pub",
      "lat": 37.9843364,
      "lon": -1.130831,
      "direccion": null,
      "codigo_postal": null,
      "telefono": null,
      "web": null,
      "instagram": null,
      "horario": null,
      "terraza": false,
      "musica": null,
      "fuente": "openstreetmap"
    },
    {
      "id": "osm_node_9769754246",
      "nombre": "Athenas",
      "tipo": "cafe",
      "lat": 38.0073185,
      "lon": -1.1193309,
      "direccion": null,
      "codigo_postal": null,
      "telefono": null,
      "web": null,
      "instagram": null,
      "horario": null,
      "terraza": false,
      "musica": null,
      "fuente": "openstreetmap"
    },
    {
      "id": "osm_node_9837012260",
      "nombre": "El Huésped",
      "tipo": "pub",
      "lat": 37.9848355,
      "lon": -1.1334102,
      "direccion": null,
      "codigo_postal": null,
      "telefono": "+34 868780723",
      "web": null,
      "instagram": null,
      "horario": null,
      "terraza": false,
      "musica": null,
      "fuente": "openstreetmap"
    },
    {
      "id": "osm_node_9868618625",
      "nombre": "El Birlocho",
      "tipo": "cafe",
      "lat": 37.9414256,
      "lon": -1.1472798,
      "direccion": "Calle Pintor Ramón Gaya 6",
      "codigo_postal": "30150",
      "telefono": null,
      "web": null,
      "instagram": null,
      "horario": null,
      "terraza": false,
      "musica": null,
      "fuente": "openstreetmap"
    },
    {
      "id": "osm_node_10238257808",
      "nombre": "Elipse",
      "tipo": "bar",
      "lat": 37.959901,
      "lon": -1.0894068,
      "direccion": null,
      "codigo_postal": null,
      "telefono": null,
      "web": null,
      "instagram": null,
      "horario": null,
      "terraza": false,
      "musica": null,
      "fuente": "openstreetmap"
    },
    {
      "id": "osm_node_10238825279",
      "nombre": "Creedence",
      "tipo": "bar",
      "lat": 37.9580178,
      "lon": -1.0925432,
      "direccion": null,
      "codigo_postal": null,
      "telefono": null,
      "web": null,
      "instagram": null,
      "horario": null,
      "terraza": false,
      "musica": null,
      "fuente": "openstreetmap"
    },
    {
      "id": "osm_node_10582520884",
      "nombre": "Terraza La Pólvora",
      "tipo": "cafe",
      "lat": 37.9898247,
      "lon": -1.1366113,
      "direccion": null,
      "codigo_postal": null,
      "telefono": null,
      "web": null,
      "instagram": null,
      "horario": null,
      "terraza": true,
      "musica": null,
      "fuente": "openstreetmap"
    },
    {
      "id": "osm_node_10944607317",
      "nombre": "Los Almendros",
      "tipo": "bar",
      "lat": 37.962957,
      "lon": -1.0868377,
      "direccion": "Calle Tejeras 12",
      "codigo_postal": "30158",
      "telefono": null,
      "web": null,
      "instagram": null,
      "horario": null,
      "terraza": false,
      "musica": null,
      "fuente": "openstreetmap"
    },
    {
      "id": "osm_node_11026290757",
      "nombre": "Bar EI Cortijo de Torreguil",
      "tipo": "bar",
      "lat": 37.9248957,
      "lon": -1.2271696,
      "direccion": null,
      "codigo_postal": null,
      "telefono": null,
      "web": null,
      "instagram": null,
      "horario": null,
      "terraza": false,
      "musica": null,
      "fuente": "openstreetmap"
    },
    {
      "id": "osm_node_11061352101",
      "nombre": "Kiosco La Redonda",
      "tipo": "cafe",
      "lat": 37.9919631,
      "lon": -1.1301585,
      "direccion": null,
      "codigo_postal": null,
      "telefono": null,
      "web": null,
      "instagram": null,
      "horario": null,
      "terraza": false,
      "musica": null,
      "fuente": "openstreetmap"
    },
    {
      "id": "osm_node_11238341582",
      "nombre": "Café Moderno",
      "tipo": "cafe",
      "lat": 37.9884116,
      "lon": -1.1295334,
      "direccion": null,
      "codigo_postal": null,
      "telefono": "+34 968 436 108",
      "web": null,
      "instagram": null,
      "horario": null,
      "terraza": false,
      "musica": null,
      "fuente": "openstreetmap"
    },
    {
      "id": "osm_node_11360973769",
      "nombre": "Yakka",
      "tipo": "bar",
      "lat": 38.0042758,
      "lon": -1.1103397,
      "direccion": null,
      "codigo_postal": null,
      "telefono": null,
      "web": null,
      "instagram": null,
      "horario": null,
      "terraza": false,
      "musica": null,
      "fuente": "openstreetmap"
    },
    {
      "id": "osm_node_11417886967",
      "nombre": "Pepico del Tío Ginés",
      "tipo": "pub",
      "lat": 37.9849477,
      "lon": -1.1334842,
      "direccion": null,
      "codigo_postal": null,
      "telefono": "+34 968 211 209",
      "web": null,
      "instagram": null,
      "horario": null,
      "terraza": false,
      "musica": null,
      "fuente": "openstreetmap"
    },
    {
      "id": "osm_node_11417886968",
      "nombre": "Pepico del Tío Ginés",
      "tipo": "pub",
      "lat": 37.9849716,
      "lon": -1.1333843,
      "direccion": null,
      "codigo_postal": null,
      "telefono": "+34 968 211 209",
      "web": null,
      "instagram": null,
      "horario": null,
      "terraza": false,
      "musica": null,
      "fuente": "openstreetmap"
    },
    {
      "id": "osm_node_11446859669",
      "nombre": "Granier",
      "tipo": "cafe",
      "lat": 37.99356,
      "lon": -1.1291278,
      "direccion": null,
      "codigo_postal": null,
      "telefono": null,
      "web": null,
      "instagram": null,
      "horario": null,
      "terraza": false,
      "musica": null,
      "fuente": "openstreetmap"
    },
    {
      "id": "osm_node_11483580069",
      "nombre": "Exxquisito",
      "tipo": "bar",
      "lat": 37.9869987,
      "lon": -1.1278424,
      "direccion": "Calle Andrés Baquero 15",
      "codigo_postal": null,
      "telefono": "+34633530194",
      "web": "https://www.exxquisitochurreria.es/",
      "instagram": null,
      "horario": null,
      "terraza": false,
      "musica": null,
      "fuente": "openstreetmap"
    },
    {
      "id": "osm_node_11826336862",
      "nombre": "Caffeto Bar",
      "tipo": "cafe",
      "lat": 37.9857087,
      "lon": -1.1299379,
      "direccion": null,
      "codigo_postal": null,
      "telefono": "+34 968909875",
      "web": null,
      "instagram": null,
      "horario": null,
      "terraza": false,
      "musica": null,
      "fuente": "openstreetmap"
    },
    {
      "id": "osm_node_12097065404",
      "nombre": "Paradise Coffee",
      "tipo": "cafe",
      "lat": 37.9902344,
      "lon": -1.1320561,
      "direccion": null,
      "codigo_postal": null,
      "telefono": "+34 868084237",
      "web": null,
      "instagram": null,
      "horario": null,
      "terraza": false,
      "musica": null,
      "fuente": "openstreetmap"
    },
    {
      "id": "osm_node_12097944901",
      "nombre": "Tasty Poke",
      "tipo": "bar",
      "lat": 37.9912971,
      "lon": -1.1301905,
      "direccion": "Plaza Circular 4",
      "codigo_postal": null,
      "telefono": null,
      "web": "https://tastypokebar.com/",
      "instagram": null,
      "horario": "Mo-Su 12:30-16:30, 19:30-23:30",
      "terraza": false,
      "musica": null,
      "fuente": "openstreetmap"
    },
    {
      "id": "osm_node_12097945102",
      "nombre": "El Capricho",
      "tipo": "bar",
      "lat": 37.9905748,
      "lon": -1.1300494,
      "direccion": null,
      "codigo_postal": null,
      "telefono": null,
      "web": null,
      "instagram": null,
      "horario": null,
      "terraza": false,
      "musica": null,
      "fuente": "openstreetmap"
    },
    {
      "id": "osm_node_12097963202",
      "nombre": "La cueva de la cerveza",
      "tipo": "bar",
      "lat": 37.9879462,
      "lon": -1.1294322,
      "direccion": null,
      "codigo_postal": null,
      "telefono": null,
      "web": null,
      "instagram": null,
      "horario": null,
      "terraza": false,
      "musica": null,
      "fuente": "openstreetmap"
    },
    {
      "id": "osm_node_12097963301",
      "nombre": "El rincón de Las Anas",
      "tipo": "bar",
      "lat": 37.9879365,
      "lon": -1.1294896,
      "direccion": null,
      "codigo_postal": null,
      "telefono": null,
      "web": null,
      "instagram": null,
      "horario": null,
      "terraza": false,
      "musica": null,
      "fuente": "openstreetmap"
    },
    {
      "id": "osm_node_12097974902",
      "nombre": "Café Bar Gran Vía",
      "tipo": "bar",
      "lat": 37.9880289,
      "lon": -1.1299911,
      "direccion": null,
      "codigo_postal": null,
      "telefono": null,
      "web": null,
      "instagram": null,
      "horario": null,
      "terraza": false,
      "musica": null,
      "fuente": "openstreetmap"
    },
    {
      "id": "osm_node_12097974903",
      "nombre": "Terraza de Pedro",
      "tipo": "bar",
      "lat": 37.9881358,
      "lon": -1.1300005,
      "direccion": null,
      "codigo_postal": null,
      "telefono": null,
      "web": null,
      "instagram": null,
      "horario": null,
      "terraza": false,
      "musica": null,
      "fuente": "openstreetmap"
    },
    {
      "id": "osm_node_12097989562",
      "nombre": "Café Manrique N3xus",
      "tipo": "bar",
      "lat": 37.9916013,
      "lon": -1.1280273,
      "direccion": "Calle Puerta Nueva 18",
      "codigo_postal": "30008",
      "telefono": null,
      "web": null,
      "instagram": null,
      "horario": null,
      "terraza": false,
      "musica": null,
      "fuente": "openstreetmap"
    },
    {
      "id": "osm_node_12097992801",
      "nombre": "Pan Moreno - Panadería, pastelería, cafetería",
      "tipo": "cafe",
      "lat": 37.9908016,
      "lon": -1.1310369,
      "direccion": null,
      "codigo_postal": null,
      "telefono": null,
      "web": null,
      "instagram": null,
      "horario": null,
      "terraza": false,
      "musica": null,
      "fuente": "openstreetmap"
    },
    {
      "id": "osm_node_12103391802",
      "nombre": "Café Bar Dávila",
      "tipo": "bar",
      "lat": 37.9934462,
      "lon": -1.1267924,
      "direccion": null,
      "codigo_postal": null,
      "telefono": null,
      "web": null,
      "instagram": null,
      "horario": null,
      "terraza": false,
      "musica": null,
      "fuente": "openstreetmap"
    },
    {
      "id": "osm_node_12157152701",
      "nombre": "Jesús Espinosa Confitería & Cafetería",
      "tipo": "cafe",
      "lat": 38.0002438,
      "lon": -1.1373432,
      "direccion": "Avenida Príncipe de Asturias 1",
      "codigo_postal": "30007",
      "telefono": null,
      "web": null,
      "instagram": null,
      "horario": null,
      "terraza": false,
      "musica": null,
      "fuente": "openstreetmap"
    },
    {
      "id": "osm_node_12177963851",
      "nombre": "Bar La Golosa",
      "tipo": "pub",
      "lat": 37.987591,
      "lon": -1.2042785,
      "direccion": null,
      "codigo_postal": null,
      "telefono": null,
      "web": null,
      "instagram": null,
      "horario": null,
      "terraza": false,
      "musica": null,
      "fuente": "openstreetmap"
    },
    {
      "id": "osm_node_12438962202",
      "nombre": "Café Bar Anca Langel",
      "tipo": "bar",
      "lat": 37.9942849,
      "lon": -1.1269984,
      "direccion": "Calle Arquitecto Emilio Pérez Piñero",
      "codigo_postal": null,
      "telefono": null,
      "web": null,
      "instagram": null,
      "horario": null,
      "terraza": false,
      "musica": null,
      "fuente": "openstreetmap"
    },
    {
      "id": "osm_node_12442372102",
      "nombre": "Pan I Café",
      "tipo": "cafe",
      "lat": 37.9918613,
      "lon": -1.1277783,
      "direccion": null,
      "codigo_postal": null,
      "telefono": null,
      "web": null,
      "instagram": null,
      "horario": null,
      "terraza": false,
      "musica": null,
      "fuente": "openstreetmap"
    },
    {
      "id": "osm_node_12462711201",
      "nombre": "Mattina",
      "tipo": "cafe",
      "lat": 37.9882754,
      "lon": -1.1272208,
      "direccion": null,
      "codigo_postal": null,
      "telefono": null,
      "web": null,
      "instagram": null,
      "horario": null,
      "terraza": false,
      "musica": null,
      "fuente": "openstreetmap"
    },
    {
      "id": "osm_node_12462736301",
      "nombre": "Parabarap",
      "tipo": "pub",
      "lat": 37.9879545,
      "lon": -1.1278036,
      "direccion": null,
      "codigo_postal": null,
      "telefono": null,
      "web": null,
      "instagram": null,
      "horario": null,
      "terraza": false,
      "musica": null,
      "fuente": "openstreetmap"
    },
    {
      "id": "osm_node_12462736401",
      "nombre": "Los Pintxos de Lucía",
      "tipo": "bar",
      "lat": 37.9880443,
      "lon": -1.1278329,
      "direccion": null,
      "codigo_postal": null,
      "telefono": null,
      "web": null,
      "instagram": null,
      "horario": null,
      "terraza": false,
      "musica": null,
      "fuente": "openstreetmap"
    },
    {
      "id": "osm_node_12462736404",
      "nombre": "Una calle de París",
      "tipo": "bar",
      "lat": 37.9890002,
      "lon": -1.1275411,
      "direccion": null,
      "codigo_postal": null,
      "telefono": null,
      "web": null,
      "instagram": null,
      "horario": null,
      "terraza": false,
      "musica": null,
      "fuente": "openstreetmap"
    },
    {
      "id": "osm_node_12462738301",
      "nombre": "Badulake",
      "tipo": "bar",
      "lat": 37.9883148,
      "lon": -1.1277885,
      "direccion": "Calle San Ignacio de Loyola 4",
      "codigo_postal": null,
      "telefono": null,
      "web": null,
      "instagram": null,
      "horario": null,
      "terraza": false,
      "musica": null,
      "fuente": "openstreetmap"
    },
    {
      "id": "osm_node_12463433901",
      "nombre": "Café Bar Albéniz",
      "tipo": "bar",
      "lat": 37.9910617,
      "lon": -1.1362569,
      "direccion": null,
      "codigo_postal": null,
      "telefono": null,
      "web": null,
      "instagram": null,
      "horario": null,
      "terraza": false,
      "musica": null,
      "fuente": "openstreetmap"
    },
    {
      "id": "osm_node_12463589102",
      "nombre": "Princesa",
      "tipo": "bar",
      "lat": 37.9931174,
      "lon": -1.1300068,
      "direccion": "Plaza Circular 11",
      "codigo_postal": "30008",
      "telefono": "+34 968 24 46 92",
      "web": null,
      "instagram": null,
      "horario": null,
      "terraza": false,
      "musica": null,
      "fuente": "openstreetmap"
    },
    {
      "id": "osm_node_12465239001",
      "nombre": "Verdementa",
      "tipo": "cafe",
      "lat": 37.9914919,
      "lon": -1.1332667,
      "direccion": null,
      "codigo_postal": null,
      "telefono": null,
      "web": null,
      "instagram": null,
      "horario": null,
      "terraza": false,
      "musica": null,
      "fuente": "openstreetmap"
    },
    {
      "id": "osm_node_12465270802",
      "nombre": "La esquina de las flores",
      "tipo": "bar",
      "lat": 37.9908664,
      "lon": -1.1340287,
      "direccion": null,
      "codigo_postal": null,
      "telefono": null,
      "web": null,
      "instagram": null,
      "horario": null,
      "terraza": false,
      "musica": null,
      "fuente": "openstreetmap"
    },
    {
      "id": "osm_node_12465270806",
      "nombre": "La Negra",
      "tipo": "bar",
      "lat": 37.9899426,
      "lon": -1.134343,
      "direccion": null,
      "codigo_postal": null,
      "telefono": null,
      "web": null,
      "instagram": null,
      "horario": null,
      "terraza": false,
      "musica": null,
      "fuente": "openstreetmap"
    },
    {
      "id": "osm_node_12466874401",
      "nombre": "Café bar Sol Almirante",
      "tipo": "bar",
      "lat": 37.9921659,
      "lon": -1.1217964,
      "direccion": null,
      "codigo_postal": null,
      "telefono": null,
      "web": null,
      "instagram": null,
      "horario": null,
      "terraza": false,
      "musica": null,
      "fuente": "openstreetmap"
    },
    {
      "id": "osm_node_12467681805",
      "nombre": "Leyendas",
      "tipo": "bar",
      "lat": 37.9923013,
      "lon": -1.1273573,
      "direccion": null,
      "codigo_postal": null,
      "telefono": null,
      "web": null,
      "instagram": null,
      "horario": null,
      "terraza": false,
      "musica": null,
      "fuente": "openstreetmap"
    },
    {
      "id": "osm_node_12468628801",
      "nombre": "Menos Cuarto",
      "tipo": "bar",
      "lat": 37.9882134,
      "lon": -1.1268544,
      "direccion": null,
      "codigo_postal": null,
      "telefono": null,
      "web": null,
      "instagram": null,
      "horario": null,
      "terraza": false,
      "musica": null,
      "fuente": "openstreetmap"
    },
    {
      "id": "osm_node_12468640201",
      "nombre": "Dolce & Caffé 24 horas",
      "tipo": "cafe",
      "lat": 37.9871811,
      "lon": -1.1282706,
      "direccion": null,
      "codigo_postal": null,
      "telefono": null,
      "web": null,
      "instagram": null,
      "horario": null,
      "terraza": false,
      "musica": null,
      "fuente": "openstreetmap"
    },
    {
      "id": "osm_node_12468640303",
      "nombre": "Cervecería La Sureña",
      "tipo": "bar",
      "lat": 37.9870462,
      "lon": -1.1288884,
      "direccion": null,
      "codigo_postal": null,
      "telefono": null,
      "web": null,
      "instagram": null,
      "horario": null,
      "terraza": false,
      "musica": null,
      "fuente": "openstreetmap"
    },
    {
      "id": "osm_node_12468640601",
      "nombre": "Yaiza",
      "tipo": "cafe",
      "lat": 37.9869561,
      "lon": -1.1291825,
      "direccion": null,
      "codigo_postal": null,
      "telefono": null,
      "web": null,
      "instagram": null,
      "horario": null,
      "terraza": false,
      "musica": null,
      "fuente": "openstreetmap"
    },
    {
      "id": "osm_node_12468698010",
      "nombre": "Bombon Boss",
      "tipo": "cafe",
      "lat": 37.986261,
      "lon": -1.1294183,
      "direccion": null,
      "codigo_postal": null,
      "telefono": null,
      "web": null,
      "instagram": null,
      "horario": null,
      "terraza": false,
      "musica": null,
      "fuente": "openstreetmap"
    },
    {
      "id": "osm_node_12468734301",
      "nombre": "Kotäo",
      "tipo": "pub",
      "lat": 37.9883538,
      "lon": -1.1282752,
      "direccion": null,
      "codigo_postal": null,
      "telefono": null,
      "web": null,
      "instagram": null,
      "horario": null,
      "terraza": false,
      "musica": null,
      "fuente": "openstreetmap"
    },
    {
      "id": "osm_node_12468867804",
      "nombre": "Torombolo",
      "tipo": "bar",
      "lat": 37.9847978,
      "lon": -1.1286944,
      "direccion": null,
      "codigo_postal": null,
      "telefono": null,
      "web": null,
      "instagram": null,
      "horario": null,
      "terraza": true,
      "musica": null,
      "fuente": "openstreetmap"
    },
    {
      "id": "osm_node_12468868007",
      "nombre": "Drexco",
      "tipo": "bar",
      "lat": 37.9858598,
      "lon": -1.1291973,
      "direccion": null,
      "codigo_postal": null,
      "telefono": null,
      "web": null,
      "instagram": null,
      "horario": null,
      "terraza": false,
      "musica": null,
      "fuente": "openstreetmap"
    },
    {
      "id": "osm_node_12468868104",
      "nombre": "Jamonería - Degustación Quique Portillo",
      "tipo": "bar",
      "lat": 37.9848781,
      "lon": -1.1289186,
      "direccion": null,
      "codigo_postal": null,
      "telefono": null,
      "web": null,
      "instagram": null,
      "horario": null,
      "terraza": false,
      "musica": null,
      "fuente": "openstreetmap"
    },
    {
      "id": "osm_node_12468868201",
      "nombre": "Santagloria",
      "tipo": "cafe",
      "lat": 37.9840171,
      "lon": -1.1300281,
      "direccion": null,
      "codigo_postal": null,
      "telefono": null,
      "web": null,
      "instagram": null,
      "horario": null,
      "terraza": false,
      "musica": null,
      "fuente": "openstreetmap"
    },
    {
      "id": "osm_node_12676543601",
      "nombre": "Cafélab",
      "tipo": "cafe",
      "lat": 37.9838424,
      "lon": -1.1279649,
      "direccion": "Calle de los Apóstoles 14",
      "codigo_postal": "30001",
      "telefono": null,
      "web": "https://cafelab.es/",
      "instagram": null,
      "horario": "Mo-Su 09:00-20:00",
      "terraza": false,
      "musica": null,
      "fuente": "openstreetmap"
    },
    {
      "id": "osm_node_12770718801",
      "nombre": "Cafetería El Sur",
      "tipo": "cafe",
      "lat": 37.9857625,
      "lon": -1.1286143,
      "direccion": "Calle Montijo 7",
      "codigo_postal": "30001",
      "telefono": null,
      "web": null,
      "instagram": null,
      "horario": null,
      "terraza": false,
      "musica": null,
      "fuente": "openstreetmap"
    },
    {
      "id": "osm_node_12770730601",
      "nombre": "Café de Ficciones",
      "tipo": "cafe",
      "lat": 37.9847747,
      "lon": -1.127463,
      "direccion": "Calle Fuensanta 5",
      "codigo_postal": "30001",
      "telefono": null,
      "web": null,
      "instagram": null,
      "horario": null,
      "terraza": false,
      "musica": null,
      "fuente": "openstreetmap"
    },
    {
      "id": "osm_node_12879588016",
      "nombre": "Confitería el Polo",
      "tipo": "cafe",
      "lat": 37.9927014,
      "lon": -1.1042428,
      "direccion": null,
      "codigo_postal": null,
      "telefono": null,
      "web": null,
      "instagram": null,
      "horario": null,
      "terraza": false,
      "musica": null,
      "fuente": "openstreetmap"
    },
    {
      "id": "osm_node_12994226880",
      "nombre": "La Cantona del Carmen",
      "tipo": "pub",
      "lat": 37.9761906,
      "lon": -1.1281979,
      "direccion": null,
      "codigo_postal": null,
      "telefono": null,
      "web": null,
      "instagram": null,
      "horario": null,
      "terraza": false,
      "musica": null,
      "fuente": "openstreetmap"
    },
    {
      "id": "osm_node_12994244670",
      "nombre": "Quinto Nivel",
      "tipo": "pub",
      "lat": 37.9764517,
      "lon": -1.1277452,
      "direccion": null,
      "codigo_postal": null,
      "telefono": null,
      "web": null,
      "instagram": null,
      "horario": null,
      "terraza": false,
      "musica": null,
      "fuente": "openstreetmap"
    },
    {
      "id": "osm_node_13037473226",
      "nombre": "cafeteria carmen",
      "tipo": "bar",
      "lat": 38.0016105,
      "lon": -1.1382807,
      "direccion": null,
      "codigo_postal": null,
      "telefono": null,
      "web": null,
      "instagram": null,
      "horario": null,
      "terraza": false,
      "musica": null,
      "fuente": "openstreetmap"
    },
    {
      "id": "osm_node_13075897101",
      "nombre": "El Galeón",
      "tipo": "bar",
      "lat": 37.9406871,
      "lon": -1.1703359,
      "direccion": "Plaza Pintor José María Párraga",
      "codigo_postal": "30120",
      "telefono": null,
      "web": null,
      "instagram": null,
      "horario": null,
      "terraza": false,
      "musica": null,
      "fuente": "openstreetmap"
    },
    {
      "id": "osm_node_13115327719",
      "nombre": "Cafeteo",
      "tipo": "cafe",
      "lat": 37.98701,
      "lon": -1.1344793,
      "direccion": null,
      "codigo_postal": null,
      "telefono": null,
      "web": null,
      "instagram": null,
      "horario": null,
      "terraza": false,
      "musica": null,
      "fuente": "openstreetmap"
    },
    {
      "id": "osm_node_13185482702",
      "nombre": "Foster's Club",
      "tipo": "bar",
      "lat": 37.9853286,
      "lon": -1.1252505,
      "direccion": "Plaza Santa Eulalia",
      "codigo_postal": null,
      "telefono": null,
      "web": null,
      "instagram": null,
      "horario": null,
      "terraza": false,
      "musica": null,
      "fuente": "openstreetmap"
    },
    {
      "id": "osm_node_13185483302",
      "nombre": "La Isla",
      "tipo": "bar",
      "lat": 37.9854238,
      "lon": -1.1247897,
      "direccion": "Plaza Santa Eulalia",
      "codigo_postal": null,
      "telefono": null,
      "web": null,
      "instagram": null,
      "horario": "Mo-Th 10:00-01:00; Fr 10:00-02:00; Sa 12:00-02:00; Su 16:00-00:00",
      "terraza": false,
      "musica": null,
      "fuente": "openstreetmap"
    },
    {
      "id": "osm_node_13207230201",
      "nombre": "Parlamento Andaluz",
      "tipo": "bar",
      "lat": 37.9847403,
      "lon": -1.132963,
      "direccion": null,
      "codigo_postal": null,
      "telefono": null,
      "web": "https://parlamentotapeo.es/",
      "instagram": null,
      "horario": null,
      "terraza": false,
      "musica": null,
      "fuente": "openstreetmap"
    },
    {
      "id": "osm_node_13207230203",
      "nombre": "El Secreto",
      "tipo": "pub",
      "lat": 37.9848268,
      "lon": -1.1329329,
      "direccion": null,
      "codigo_postal": null,
      "telefono": null,
      "web": null,
      "instagram": null,
      "horario": null,
      "terraza": false,
      "musica": null,
      "fuente": "openstreetmap"
    },
    {
      "id": "osm_node_13207230301",
      "nombre": "Fenix",
      "tipo": "pub",
      "lat": 37.9848404,
      "lon": -1.132839,
      "direccion": null,
      "codigo_postal": null,
      "telefono": null,
      "web": null,
      "instagram": null,
      "horario": null,
      "terraza": false,
      "musica": null,
      "fuente": "openstreetmap"
    },
    {
      "id": "osm_node_13207230303",
      "nombre": "Picoesquina Café Bar",
      "tipo": "pub",
      "lat": 37.9846612,
      "lon": -1.1336756,
      "direccion": null,
      "codigo_postal": null,
      "telefono": null,
      "web": null,
      "instagram": null,
      "horario": null,
      "terraza": false,
      "musica": null,
      "fuente": "openstreetmap"
    },
    {
      "id": "osm_node_13207230401",
      "nombre": "BAR PK2",
      "tipo": "pub",
      "lat": 37.9846863,
      "lon": -1.1335847,
      "direccion": null,
      "codigo_postal": null,
      "telefono": null,
      "web": null,
      "instagram": null,
      "horario": null,
      "terraza": false,
      "musica": null,
      "fuente": "openstreetmap"
    },
    {
      "id": "osm_node_13234180601",
      "nombre": "La Cookilería",
      "tipo": "cafe",
      "lat": 37.9868733,
      "lon": -1.1333655,
      "direccion": "Calle Conde de Roche",
      "codigo_postal": null,
      "telefono": null,
      "web": null,
      "instagram": null,
      "horario": null,
      "terraza": false,
      "musica": null,
      "fuente": "openstreetmap"
    },
    {
      "id": "osm_node_13334321343",
      "nombre": "Dandy Cafe",
      "tipo": "cafe",
      "lat": 37.9750485,
      "lon": -1.0593178,
      "direccion": null,
      "codigo_postal": null,
      "telefono": "+34 968 82 27 66",
      "web": "https://dandycafe.com/",
      "instagram": null,
      "horario": "Tu-Su 08:00-16:00,19:00-00:00",
      "terraza": false,
      "musica": null,
      "fuente": "openstreetmap"
    },
    {
      "id": "osm_node_13583566276",
      "nombre": "Café Bar Livia",
      "tipo": "cafe",
      "lat": 37.9969518,
      "lon": -1.1247848,
      "direccion": "Paseo Ingeniero Sebastián Feringán 20",
      "codigo_postal": "30007",
      "telefono": null,
      "web": null,
      "instagram": null,
      "horario": "Mo-Fr 07:30-15:30",
      "terraza": true,
      "musica": null,
      "fuente": "openstreetmap"
    },
    {
      "id": "osm_way_188111507",
      "nombre": "Dove Cote",
      "tipo": "bar",
      "lat": 37.893269,
      "lon": -0.969438,
      "direccion": null,
      "codigo_postal": null,
      "telefono": null,
      "web": null,
      "instagram": null,
      "horario": null,
      "terraza": false,
      "musica": null,
      "fuente": "openstreetmap"
    },
    {
      "id": "osm_way_192086176",
      "nombre": "Cantina Instalaciones Deportivas",
      "tipo": "bar",
      "lat": 38.013405,
      "lon": -1.171061,
      "direccion": null,
      "codigo_postal": null,
      "telefono": null,
      "web": null,
      "instagram": null,
      "horario": null,
      "terraza": false,
      "musica": null,
      "fuente": "openstreetmap"
    },
    {
      "id": "osm_way_193786213",
      "nombre": "Café-Bar Omega",
      "tipo": "pub",
      "lat": 38.020735,
      "lon": -1.161133,
      "direccion": null,
      "codigo_postal": null,
      "telefono": null,
      "web": null,
      "instagram": null,
      "horario": null,
      "terraza": false,
      "musica": null,
      "fuente": "openstreetmap"
    },
    {
      "id": "osm_way_218713244",
      "nombre": "Chiringuito La Balsa",
      "tipo": "bar",
      "lat": 37.926501,
      "lon": -1.137627,
      "direccion": null,
      "codigo_postal": null,
      "telefono": null,
      "web": null,
      "instagram": null,
      "horario": null,
      "terraza": false,
      "musica": null,
      "fuente": "openstreetmap"
    },
    {
      "id": "osm_way_218768950",
      "nombre": "Bar Las Salinas",
      "tipo": "bar",
      "lat": 37.941023,
      "lon": -1.264779,
      "direccion": null,
      "codigo_postal": null,
      "telefono": null,
      "web": null,
      "instagram": null,
      "horario": null,
      "terraza": false,
      "musica": null,
      "fuente": "openstreetmap"
    },
    {
      "id": "osm_way_237100064",
      "nombre": "Discoteca Metropol",
      "tipo": "bar",
      "lat": 37.995838,
      "lon": -1.108507,
      "direccion": null,
      "codigo_postal": null,
      "telefono": null,
      "web": null,
      "instagram": null,
      "horario": null,
      "terraza": false,
      "musica": null,
      "fuente": "openstreetmap"
    },
    {
      "id": "osm_way_267201300",
      "nombre": "Lobosillo Garden",
      "tipo": "cafe",
      "lat": 37.726158,
      "lon": -1.087919,
      "direccion": null,
      "codigo_postal": null,
      "telefono": null,
      "web": null,
      "instagram": null,
      "horario": null,
      "terraza": false,
      "musica": null,
      "fuente": "openstreetmap"
    },
    {
      "id": "osm_way_498343473",
      "nombre": "Restaurante El Mirador",
      "tipo": "cafe",
      "lat": 37.896942,
      "lon": -1.21442,
      "direccion": "Plaza Carrascoy 7",
      "codigo_postal": "30833",
      "telefono": null,
      "web": null,
      "instagram": null,
      "horario": null,
      "terraza": false,
      "musica": null,
      "fuente": "openstreetmap"
    },
    {
      "id": "osm_way_544290064",
      "nombre": "Zapping Cafeteria-Bolera",
      "tipo": "cafe",
      "lat": 37.963614,
      "lon": -1.22483,
      "direccion": null,
      "codigo_postal": null,
      "telefono": null,
      "web": null,
      "instagram": null,
      "horario": null,
      "terraza": false,
      "musica": null,
      "fuente": "openstreetmap"
    },
    {
      "id": "osm_way_560414655",
      "nombre": "Cafetería pequeña",
      "tipo": "cafe",
      "lat": 37.990734,
      "lon": -1.184869,
      "direccion": null,
      "codigo_postal": null,
      "telefono": null,
      "web": null,
      "instagram": null,
      "horario": null,
      "terraza": false,
      "musica": null,
      "fuente": "openstreetmap"
    },
    {
      "id": "osm_way_588459802",
      "nombre": "Cervemur",
      "tipo": "biergarten",
      "lat": 37.956029,
      "lon": -1.136794,
      "direccion": null,
      "codigo_postal": null,
      "telefono": null,
      "web": null,
      "instagram": null,
      "horario": "Th-Fr 18:30-01:30;Sa-Su 11:00-01:30",
      "terraza": false,
      "musica": null,
      "fuente": "openstreetmap"
    },
    {
      "id": "osm_way_595848650",
      "nombre": "Rubens",
      "tipo": "biergarten",
      "lat": 37.977341,
      "lon": -1.178108,
      "direccion": null,
      "codigo_postal": null,
      "telefono": null,
      "web": null,
      "instagram": null,
      "horario": null,
      "terraza": false,
      "musica": null,
      "fuente": "openstreetmap"
    },
    {
      "id": "osm_way_614586060",
      "nombre": "Cantina",
      "tipo": "bar",
      "lat": 38.001746,
      "lon": -1.069574,
      "direccion": null,
      "codigo_postal": null,
      "telefono": null,
      "web": null,
      "instagram": null,
      "horario": null,
      "terraza": false,
      "musica": null,
      "fuente": "openstreetmap"
    },
    {
      "id": "osm_way_633773515",
      "nombre": "Bar Cervecería Campoy",
      "tipo": "bar",
      "lat": 38.013712,
      "lon": -1.103408,
      "direccion": null,
      "codigo_postal": null,
      "telefono": null,
      "web": null,
      "instagram": null,
      "horario": null,
      "terraza": false,
      "musica": null,
      "fuente": "openstreetmap"
    },
    {
      "id": "osm_way_854998984",
      "nombre": "Viejo Candela",
      "tipo": "pub",
      "lat": 37.99619,
      "lon": -1.133467,
      "direccion": null,
      "codigo_postal": null,
      "telefono": "+34675761312",
      "web": null,
      "instagram": null,
      "horario": null,
      "terraza": false,
      "musica": null,
      "fuente": "openstreetmap"
    },
    {
      "id": "osm_way_854998985",
      "nombre": "Caffé Milano",
      "tipo": "cafe",
      "lat": 37.996282,
      "lon": -1.132908,
      "direccion": null,
      "codigo_postal": null,
      "telefono": "+34652821607",
      "web": null,
      "instagram": null,
      "horario": "Mo-Fr 07:00-13:00; Sa 08:00-13:00",
      "terraza": false,
      "musica": null,
      "fuente": "openstreetmap"
    },
    {
      "id": "osm_way_918875223",
      "nombre": "El Ricón de Mariano",
      "tipo": "pub",
      "lat": 38.003973,
      "lon": -1.108877,
      "direccion": null,
      "codigo_postal": null,
      "telefono": null,
      "web": null,
      "instagram": null,
      "horario": null,
      "terraza": true,
      "musica": null,
      "fuente": "openstreetmap"
    },
    {
      "id": "osm_way_1443918426",
      "nombre": "Talula",
      "tipo": "bar",
      "lat": 37.990871,
      "lon": -1.128871,
      "direccion": null,
      "codigo_postal": null,
      "telefono": null,
      "web": null,
      "instagram": null,
      "horario": null,
      "terraza": true,
      "musica": null,
      "fuente": "openstreetmap"
    }
  ]
}