{
  "ciudad": "Mérida",
  "total": 215,
  "locales": [
    {
      "id": "osm_node_1595324224",
      "nombre": "Casa Paca",
      "tipo": "bar",
      "lat": 38.9167814,
      "lon": -6.342816,
      "direccion": null,
      "codigo_postal": null,
      "telefono": null,
      "web": null,
      "instagram": null,
      "horario": null,
      "terraza": true,
      "musica": null,
      "fuente": "openstreetmap"
    },
    {
      "id": "osm_node_1625735022",
      "nombre": "Starbucks",
      "tipo": "cafe",
      "lat": 21.0175163,
      "lon": -89.5851122,
      "direccion": null,
      "codigo_postal": null,
      "telefono": null,
      "web": null,
      "instagram": null,
      "horario": null,
      "terraza": false,
      "musica": null,
      "fuente": "openstreetmap"
    },
    {
      "id": "osm_node_1625735024",
      "nombre": "Mi Viejo Molino",
      "tipo": "cafe",
      "lat": 21.0198298,
      "lon": -89.5784818,
      "direccion": null,
      "codigo_postal": null,
      "telefono": null,
      "web": null,
      "instagram": null,
      "horario": null,
      "terraza": false,
      "musica": null,
      "fuente": "openstreetmap"
    },
    {
      "id": "osm_node_1687833281",
      "nombre": "Hey Joe!",
      "tipo": "bar",
      "lat": 21.002552,
      "lon": -89.5825287,
      "direccion": null,
      "codigo_postal": null,
      "telefono": null,
      "web": null,
      "instagram": null,
      "horario": null,
      "terraza": false,
      "musica": null,
      "fuente": "openstreetmap"
    },
    {
      "id": "osm_node_1923898502",
      "nombre": "Eladios",
      "tipo": "bar",
      "lat": 21.0205585,
      "lon": -89.578114,
      "direccion": null,
      "codigo_postal": null,
      "telefono": null,
      "web": null,
      "instagram": null,
      "horario": null,
      "terraza": false,
      "musica": null,
      "fuente": "openstreetmap"
    },
    {
      "id": "osm_node_2026898898",
      "nombre": "Mi Viejo Molino",
      "tipo": "cafe",
      "lat": 21.0280963,
      "lon": -89.6273864,
      "direccion": null,
      "codigo_postal": null,
      "telefono": null,
      "web": null,
      "instagram": null,
      "horario": null,
      "terraza": false,
      "musica": null,
      "fuente": "openstreetmap"
    },
    {
      "id": "osm_node_2026936989",
      "nombre": "Italian Coffee",
      "tipo": "cafe",
      "lat": 21.0299807,
      "lon": -89.6415441,
      "direccion": null,
      "codigo_postal": null,
      "telefono": null,
      "web": null,
      "instagram": null,
      "horario": null,
      "terraza": false,
      "musica": null,
      "fuente": "openstreetmap"
    },
    {
      "id": "osm_node_2028735442",
      "nombre": "Italian Coffe",
      "tipo": "cafe",
      "lat": 21.0169039,
      "lon": -89.6249793,
      "direccion": null,
      "codigo_postal": null,
      "telefono": null,
      "web": null,
      "instagram": null,
      "horario": null,
      "terraza": false,
      "musica": null,
      "fuente": "openstreetmap"
    },
    {
      "id": "osm_node_2028779188",
      "nombre": "Starbucks",
      "tipo": "cafe",
      "lat": 21.0288584,
      "lon": -89.6254781,
      "direccion": "Gonzalo Guerrero",
      "codigo_postal": null,
      "telefono": null,
      "web": null,
      "instagram": null,
      "horario": null,
      "terraza": false,
      "musica": null,
      "fuente": "openstreetmap"
    },
    {
      "id": "osm_node_2124462124",
      "nombre": "VIP's",
      "tipo": "cafe",
      "lat": 21.0247028,
      "lon": -89.6236938,
      "direccion": null,
      "codigo_postal": null,
      "telefono": null,
      "web": null,
      "instagram": null,
      "horario": null,
      "terraza": false,
      "musica": null,
      "fuente": "openstreetmap"
    },
    {
      "id": "osm_node_2232694748",
      "nombre": "Jijona",
      "tipo": "cafe",
      "lat": 38.9155284,
      "lon": -6.3459849,
      "direccion": null,
      "codigo_postal": null,
      "telefono": null,
      "web": null,
      "instagram": null,
      "horario": null,
      "terraza": false,
      "musica": null,
      "fuente": "openstreetmap"
    },
    {
      "id": "osm_node_2247373527",
      "nombre": "Eladios Bar Oriente",
      "tipo": "bar",
      "lat": 20.9738772,
      "lon": -89.5912159,
      "direccion": null,
      "codigo_postal": null,
      "telefono": null,
      "web": null,
      "instagram": null,
      "horario": null,
      "terraza": false,
      "musica": null,
      "fuente": "openstreetmap"
    },
    {
      "id": "osm_node_2303139586",
      "nombre": "La Gran Lucha",
      "tipo": "bar",
      "lat": 20.973531,
      "lon": -89.6160351,
      "direccion": null,
      "codigo_postal": null,
      "telefono": null,
      "web": null,
      "instagram": null,
      "horario": null,
      "terraza": false,
      "musica": null,
      "fuente": "openstreetmap"
    },
    {
      "id": "osm_node_2303139608",
      "nombre": "La Sombra",
      "tipo": "bar",
      "lat": 20.975184,
      "lon": -89.6160298,
      "direccion": null,
      "codigo_postal": null,
      "telefono": null,
      "web": null,
      "instagram": null,
      "horario": null,
      "terraza": false,
      "musica": null,
      "fuente": "openstreetmap"
    },
    {
      "id": "osm_node_2303139616",
      "nombre": "La Letra",
      "tipo": "bar",
      "lat": 20.9752291,
      "lon": -89.6142327,
      "direccion": null,
      "codigo_postal": null,
      "telefono": null,
      "web": null,
      "instagram": null,
      "horario": null,
      "terraza": false,
      "musica": null,
      "fuente": "openstreetmap"
    },
    {
      "id": "osm_node_2303153222",
      "nombre": "Eladio's Itzimná",
      "tipo": "bar",
      "lat": 20.991948,
      "lon": -89.6144902,
      "direccion": null,
      "codigo_postal": null,
      "telefono": null,
      "web": null,
      "instagram": null,
      "horario": null,
      "terraza": false,
      "musica": null,
      "fuente": "openstreetmap"
    },
    {
      "id": "osm_node_2303170282",
      "nombre": "El Mozo",
      "tipo": "bar",
      "lat": 21.0016464,
      "lon": -89.6150856,
      "direccion": null,
      "codigo_postal": null,
      "telefono": null,
      "web": null,
      "instagram": null,
      "horario": null,
      "terraza": false,
      "musica": null,
      "fuente": "openstreetmap"
    },
    {
      "id": "osm_node_2303170293",
      "nombre": "La Vía",
      "tipo": "cafe",
      "lat": 20.9945724,
      "lon": -89.6186878,
      "direccion": null,
      "codigo_postal": null,
      "telefono": null,
      "web": null,
      "instagram": null,
      "horario": null,
      "terraza": false,
      "musica": null,
      "fuente": "openstreetmap"
    },
    {
      "id": "osm_node_2303170296",
      "nombre": "La Parranda",
      "tipo": "bar",
      "lat": 20.9965005,
      "lon": -89.6159278,
      "direccion": null,
      "codigo_postal": null,
      "telefono": null,
      "web": null,
      "instagram": null,
      "horario": null,
      "terraza": false,
      "musica": null,
      "fuente": "openstreetmap"
    },
    {
      "id": "osm_node_3819908433",
      "nombre": "La Tanda",
      "tipo": "bar",
      "lat": 21.0048931,
      "lon": -89.5808992,
      "direccion": null,
      "codigo_postal": null,
      "telefono": null,
      "web": null,
      "instagram": null,
      "horario": null,
      "terraza": false,
      "musica": null,
      "fuente": "openstreetmap"
    },
    {
      "id": "osm_node_3962025209",
      "nombre": "Latino",
      "tipo": "bar",
      "lat": 20.9680725,
      "lon": -89.6183426,
      "direccion": "Calle 59",
      "codigo_postal": "97000",
      "telefono": null,
      "web": null,
      "instagram": null,
      "horario": null,
      "terraza": false,
      "musica": null,
      "fuente": "openstreetmap"
    },
    {
      "id": "osm_node_4085361694",
      "nombre": "Bengal Kaffehaus",
      "tipo": "cafe",
      "lat": 20.9714999,
      "lon": -89.6221591,
      "direccion": "Calle 60",
      "codigo_postal": null,
      "telefono": null,
      "web": null,
      "instagram": null,
      "horario": null,
      "terraza": false,
      "musica": null,
      "fuente": "openstreetmap"
    },
    {
      "id": "osm_node_4293408989",
      "nombre": "custom",
      "tipo": "bar",
      "lat": 38.9461255,
      "lon": -6.2815305,
      "direccion": "Autovía del Suroeste",
      "codigo_postal": null,
      "telefono": null,
      "web": null,
      "instagram": null,
      "horario": null,
      "terraza": false,
      "musica": null,
      "fuente": "openstreetmap"
    },
    {
      "id": "osm_node_4316605490",
      "nombre": "Expandio de leche pura de vaca",
      "tipo": "cafe",
      "lat": 20.9627344,
      "lon": -89.6284835,
      "direccion": null,
      "codigo_postal": null,
      "telefono": null,
      "web": null,
      "instagram": null,
      "horario": null,
      "terraza": false,
      "musica": null,
      "fuente": "openstreetmap"
    },
    {
      "id": "osm_node_4334764676",
      "nombre": "Café Louvre",
      "tipo": "cafe",
      "lat": 21.0018969,
      "lon": -89.6074805,
      "direccion": "Avenida Jose Diaz Bolio 75",
      "codigo_postal": "97125",
      "telefono": null,
      "web": null,
      "instagram": null,
      "horario": null,
      "terraza": false,
      "musica": null,
      "fuente": "openstreetmap"
    },
    {
      "id": "osm_node_4381762591",
      "nombre": "zitto",
      "tipo": "cafe",
      "lat": 20.9653707,
      "lon": -89.6104655,
      "direccion": null,
      "codigo_postal": null,
      "telefono": null,
      "web": null,
      "instagram": null,
      "horario": null,
      "terraza": false,
      "musica": null,
      "fuente": "openstreetmap"
    },
    {
      "id": "osm_node_4384694190",
      "nombre": "Dulcería y Sorbetería Colón",
      "tipo": "cafe",
      "lat": 20.9798182,
      "lon": -89.6185157,
      "direccion": null,
      "codigo_postal": null,
      "telefono": null,
      "web": "https://www.elcolon.mx",
      "instagram": null,
      "horario": null,
      "terraza": true,
      "musica": null,
      "fuente": "openstreetmap"
    },
    {
      "id": "osm_node_4393660109",
      "nombre": "El Pico de Orizaba",
      "tipo": "bar",
      "lat": 20.9772479,
      "lon": -89.6171317,
      "direccion": "Calle 54",
      "codigo_postal": null,
      "telefono": null,
      "web": null,
      "instagram": null,
      "horario": "10:00-18:00",
      "terraza": false,
      "musica": null,
      "fuente": "openstreetmap"
    },
    {
      "id": "osm_node_4435482190",
      "nombre": "el escape",
      "tipo": "bar",
      "lat": 20.9878526,
      "lon": -89.6545076,
      "direccion": null,
      "codigo_postal": null,
      "telefono": null,
      "web": null,
      "instagram": null,
      "horario": null,
      "terraza": false,
      "musica": null,
      "fuente": "openstreetmap"
    },
    {
      "id": "osm_node_4507870393",
      "nombre": "Mercado 60",
      "tipo": "bar",
      "lat": 20.9726936,
      "lon": -89.6223852,
      "direccion": null,
      "codigo_postal": null,
      "telefono": null,
      "web": null,
      "instagram": null,
      "horario": null,
      "terraza": false,
      "musica": null,
      "fuente": "openstreetmap"
    },
    {
      "id": "osm_node_4507882694",
      "nombre": "Fundación Mezcalera",
      "tipo": "bar",
      "lat": 20.9688724,
      "lon": -89.6236559,
      "direccion": "Calle 56",
      "codigo_postal": null,
      "telefono": null,
      "web": "https://fundacionmezcaleria.com/",
      "instagram": null,
      "horario": "We-Su 20:00-02:30",
      "terraza": false,
      "musica": null,
      "fuente": "openstreetmap"
    },
    {
      "id": "osm_node_4507889692",
      "nombre": "Shotimilco",
      "tipo": "bar",
      "lat": 21.0380213,
      "lon": -89.6014009,
      "direccion": null,
      "codigo_postal": null,
      "telefono": null,
      "web": null,
      "instagram": null,
      "horario": null,
      "terraza": false,
      "musica": null,
      "fuente": "openstreetmap"
    },
    {
      "id": "osm_node_4507889694",
      "nombre": "Mala Vida",
      "tipo": "bar",
      "lat": 20.9706374,
      "lon": -89.6287292,
      "direccion": null,
      "codigo_postal": null,
      "telefono": null,
      "web": null,
      "instagram": null,
      "horario": null,
      "terraza": false,
      "musica": null,
      "fuente": "openstreetmap"
    },
    {
      "id": "osm_node_4507890192",
      "nombre": "Mayan Pub",
      "tipo": "bar",
      "lat": 20.9708909,
      "lon": -89.6236231,
      "direccion": null,
      "codigo_postal": null,
      "telefono": null,
      "web": null,
      "instagram": null,
      "horario": null,
      "terraza": false,
      "musica": null,
      "fuente": "openstreetmap"
    },
    {
      "id": "osm_node_4507890193",
      "nombre": "La Negrita",
      "tipo": "bar",
      "lat": 20.9744344,
      "lon": -89.6231503,
      "direccion": null,
      "codigo_postal": null,
      "telefono": null,
      "web": null,
      "instagram": null,
      "horario": null,
      "terraza": true,
      "musica": null,
      "fuente": "openstreetmap"
    },
    {
      "id": "osm_node_4507890291",
      "nombre": "La Pulquerida",
      "tipo": "bar",
      "lat": 20.9705755,
      "lon": -89.6287503,
      "direccion": null,
      "codigo_postal": null,
      "telefono": null,
      "web": null,
      "instagram": null,
      "horario": null,
      "terraza": false,
      "musica": null,
      "fuente": "openstreetmap"
    },
    {
      "id": "osm_node_4507890692",
      "nombre": "La mentecata",
      "tipo": "bar",
      "lat": 20.9713387,
      "lon": -89.6198392,
      "direccion": null,
      "codigo_postal": null,
      "telefono": null,
      "web": null,
      "instagram": null,
      "horario": null,
      "terraza": false,
      "musica": null,
      "fuente": "openstreetmap"
    },
    {
      "id": "osm_node_4507891591",
      "nombre": "Pipiripau",
      "tipo": "bar",
      "lat": 20.9717611,
      "lon": -89.6234709,
      "direccion": null,
      "codigo_postal": null,
      "telefono": null,
      "web": null,
      "instagram": null,
      "horario": null,
      "terraza": false,
      "musica": null,
      "fuente": "openstreetmap"
    },
    {
      "id": "osm_node_4507944589",
      "nombre": "La perdida",
      "tipo": "bar",
      "lat": 21.0365779,
      "lon": -89.6041387,
      "direccion": null,
      "codigo_postal": null,
      "telefono": null,
      "web": null,
      "instagram": null,
      "horario": null,
      "terraza": false,
      "musica": null,
      "fuente": "openstreetmap"
    },
    {
      "id": "osm_node_4551562890",
      "nombre": "Cafeteria Pop",
      "tipo": "cafe",
      "lat": 20.9699975,
      "lon": -89.6232107,
      "direccion": null,
      "codigo_postal": null,
      "telefono": null,
      "web": null,
      "instagram": null,
      "horario": null,
      "terraza": false,
      "musica": null,
      "fuente": "openstreetmap"
    },
    {
      "id": "osm_node_4578247387",
      "nombre": "La Pócima",
      "tipo": "bar",
      "lat": 20.9692664,
      "lon": -89.6196575,
      "direccion": null,
      "codigo_postal": null,
      "telefono": null,
      "web": null,
      "instagram": null,
      "horario": null,
      "terraza": false,
      "musica": null,
      "fuente": "openstreetmap"
    },
    {
      "id": "osm_node_4578248192",
      "nombre": "La Campana",
      "tipo": "bar",
      "lat": 20.9693159,
      "lon": -89.6202463,
      "direccion": null,
      "codigo_postal": null,
      "telefono": null,
      "web": null,
      "instagram": null,
      "horario": null,
      "terraza": false,
      "musica": null,
      "fuente": "openstreetmap"
    },
    {
      "id": "osm_node_4584167894",
      "nombre": "Pistache",
      "tipo": "cafe",
      "lat": 20.9805043,
      "lon": -89.6184283,
      "direccion": null,
      "codigo_postal": null,
      "telefono": null,
      "web": null,
      "instagram": null,
      "horario": null,
      "terraza": false,
      "musica": null,
      "fuente": "openstreetmap"
    },
    {
      "id": "osm_node_4795571421",
      "nombre": "El Pescaito",
      "tipo": "cafe",
      "lat": 38.9164054,
      "lon": -6.3397312,
      "direccion": null,
      "codigo_postal": null,
      "telefono": null,
      "web": null,
      "instagram": null,
      "horario": null,
      "terraza": false,
      "musica": null,
      "fuente": "openstreetmap"
    },
    {
      "id": "osm_node_4795620121",
      "nombre": "El Yantar",
      "tipo": "bar",
      "lat": 38.9161518,
      "lon": -6.3396983,
      "direccion": null,
      "codigo_postal": null,
      "telefono": null,
      "web": null,
      "instagram": null,
      "horario": null,
      "terraza": false,
      "musica": null,
      "fuente": "openstreetmap"
    },
    {
      "id": "osm_node_4802686723",
      "nombre": "Cantina La Chapulina",
      "tipo": "bar",
      "lat": 20.9825766,
      "lon": -89.6045788,
      "direccion": null,
      "codigo_postal": null,
      "telefono": null,
      "web": null,
      "instagram": null,
      "horario": null,
      "terraza": false,
      "musica": null,
      "fuente": "openstreetmap"
    },
    {
      "id": "osm_node_4803875140",
      "nombre": "Cafetería La Primera de San Cristóbal",
      "tipo": "cafe",
      "lat": 20.9614438,
      "lon": -89.6184282,
      "direccion": null,
      "codigo_postal": null,
      "telefono": null,
      "web": null,
      "instagram": null,
      "horario": null,
      "terraza": false,
      "musica": null,
      "fuente": "openstreetmap"
    },
    {
      "id": "osm_node_4805115021",
      "nombre": "La Carlota",
      "tipo": "bar",
      "lat": 20.9744208,
      "lon": -89.6158817,
      "direccion": null,
      "codigo_postal": null,
      "telefono": null,
      "web": null,
      "instagram": null,
      "horario": null,
      "terraza": false,
      "musica": null,
      "fuente": "openstreetmap"
    },
    {
      "id": "osm_node_4814918723",
      "nombre": "el jabin",
      "tipo": "bar",
      "lat": 20.9911149,
      "lon": -89.6653671,
      "direccion": "130",
      "codigo_postal": null,
      "telefono": null,
      "web": null,
      "instagram": null,
      "horario": null,
      "terraza": false,
      "musica": null,
      "fuente": "openstreetmap"
    },
    {
      "id": "osm_node_4835220021",
      "nombre": "Impala",
      "tipo": "cafe",
      "lat": 20.9752438,
      "lon": -89.6194727,
      "direccion": null,
      "codigo_postal": null,
      "telefono": null,
      "web": null,
      "instagram": null,
      "horario": null,
      "terraza": false,
      "musica": null,
      "fuente": "openstreetmap"
    },
    {
      "id": "osm_node_4835385923",
      "nombre": "Uj Cafetería",
      "tipo": "cafe",
      "lat": 20.9889712,
      "lon": -89.6170932,
      "direccion": null,
      "codigo_postal": null,
      "telefono": null,
      "web": null,
      "instagram": null,
      "horario": null,
      "terraza": false,
      "musica": null,
      "fuente": "openstreetmap"
    },
    {
      "id": "osm_node_5025946224",
      "nombre": "The Italian Coffe Factory",
      "tipo": "cafe",
      "lat": 20.9984653,
      "lon": -89.6133497,
      "direccion": null,
      "codigo_postal": null,
      "telefono": null,
      "web": null,
      "instagram": null,
      "horario": null,
      "terraza": false,
      "musica": null,
      "fuente": "openstreetmap"
    },
    {
      "id": "osm_node_5063087717",
      "nombre": "Neek'Ich Organic Juice Bar",
      "tipo": "cafe",
      "lat": 20.9706241,
      "lon": -89.6223368,
      "direccion": null,
      "codigo_postal": null,
      "telefono": null,
      "web": null,
      "instagram": null,
      "horario": null,
      "terraza": false,
      "musica": null,
      "fuente": "openstreetmap"
    },
    {
      "id": "osm_node_5112149460",
      "nombre": "Café Espiral",
      "tipo": "cafe",
      "lat": 20.9990294,
      "lon": -89.6556616,
      "direccion": null,
      "codigo_postal": null,
      "telefono": null,
      "web": null,
      "instagram": null,
      "horario": null,
      "terraza": false,
      "musica": null,
      "fuente": "openstreetmap"
    },
    {
      "id": "osm_node_5112545544",
      "nombre": "Callejón",
      "tipo": "cafe",
      "lat": 38.9161864,
      "lon": -6.34584,
      "direccion": null,
      "codigo_postal": null,
      "telefono": null,
      "web": null,
      "instagram": null,
      "horario": null,
      "terraza": false,
      "musica": null,
      "fuente": "openstreetmap"
    },
    {
      "id": "osm_node_5163851832",
      "nombre": "Delorean",
      "tipo": "bar",
      "lat": 20.9912601,
      "lon": -89.6163188,
      "direccion": null,
      "codigo_postal": null,
      "telefono": null,
      "web": null,
      "instagram": null,
      "horario": null,
      "terraza": false,
      "musica": null,
      "fuente": "openstreetmap"
    },
    {
      "id": "osm_node_5310352121",
      "nombre": "Bengala Kaffeehaus",
      "tipo": "cafe",
      "lat": 20.9697405,
      "lon": -89.6289845,
      "direccion": "Calle 59",
      "codigo_postal": null,
      "telefono": null,
      "web": null,
      "instagram": null,
      "horario": null,
      "terraza": false,
      "musica": null,
      "fuente": "openstreetmap"
    },
    {
      "id": "osm_node_5411151722",
      "nombre": "Manifesto",
      "tipo": "cafe",
      "lat": 20.9693006,
      "lon": -89.6273212,
      "direccion": null,
      "codigo_postal": null,
      "telefono": null,
      "web": null,
      "instagram": null,
      "horario": null,
      "terraza": false,
      "musica": null,
      "fuente": "openstreetmap"
    },
    {
      "id": "osm_node_5432024842",
      "nombre": "Origen Tostadores de Cafe",
      "tipo": "cafe",
      "lat": 20.957745,
      "lon": -89.6310284,
      "direccion": "Calle 77 528",
      "codigo_postal": "97000",
      "telefono": null,
      "web": null,
      "instagram": null,
      "horario": "Mo-Fr 08:00-17:00",
      "terraza": false,
      "musica": null,
      "fuente": "openstreetmap"
    },
    {
      "id": "osm_node_5432506022",
      "nombre": "Organico",
      "tipo": "cafe",
      "lat": 20.9719245,
      "lon": -89.6224107,
      "direccion": null,
      "codigo_postal": null,
      "telefono": null,
      "web": null,
      "instagram": null,
      "horario": null,
      "terraza": false,
      "musica": null,
      "fuente": "openstreetmap"
    },
    {
      "id": "osm_node_5496660981",
      "nombre": "La piel del oso",
      "tipo": "cafe",
      "lat": 38.9094128,
      "lon": -6.3379513,
      "direccion": null,
      "codigo_postal": null,
      "telefono": null,
      "web": null,
      "instagram": null,
      "horario": null,
      "terraza": false,
      "musica": null,
      "fuente": "openstreetmap"
    },
    {
      "id": "osm_node_5501740722",
      "nombre": "Bendito Café",
      "tipo": "cafe",
      "lat": 20.9713823,
      "lon": -89.6252419,
      "direccion": "Calle 55 461C",
      "codigo_postal": null,
      "telefono": "+529991618141",
      "web": null,
      "instagram": null,
      "horario": "Mo-Fr 08:00-16:30; Sa 08:00-14:00",
      "terraza": false,
      "musica": null,
      "fuente": "openstreetmap"
    },
    {
      "id": "osm_node_5541593323",
      "nombre": "Pastelicioso Gourmet",
      "tipo": "cafe",
      "lat": 21.0244772,
      "lon": -89.5766602,
      "direccion": "Calle 18 232",
      "codigo_postal": "97133",
      "telefono": "99997388229",
      "web": "http://pastelicioso.com",
      "instagram": null,
      "horario": "Mo-Fr 00:00-24:00; Sa 08:00-14:00",
      "terraza": false,
      "musica": null,
      "fuente": "openstreetmap"
    },
    {
      "id": "osm_node_5553176039",
      "nombre": "Mama Rous bar",
      "tipo": "bar",
      "lat": 38.9138162,
      "lon": -6.3447967,
      "direccion": null,
      "codigo_postal": null,
      "telefono": null,
      "web": null,
      "instagram": null,
      "horario": null,
      "terraza": false,
      "musica": null,
      "fuente": "openstreetmap"
    },
    {
      "id": "osm_node_5615387300",
      "nombre": "LU&CE Bocatería-Cafetería",
      "tipo": "pub",
      "lat": 38.9081542,
      "lon": -6.3373147,
      "direccion": "Camino del Peral",
      "codigo_postal": "06800",
      "telefono": "+34 924 319 731",
      "web": null,
      "instagram": null,
      "horario": null,
      "terraza": true,
      "musica": null,
      "fuente": "openstreetmap"
    },
    {
      "id": "osm_node_5670808327",
      "nombre": "Starbucks",
      "tipo": "cafe",
      "lat": 20.9682385,
      "lon": -89.6226902,
      "direccion": null,
      "codigo_postal": null,
      "telefono": null,
      "web": null,
      "instagram": null,
      "horario": null,
      "terraza": false,
      "musica": null,
      "fuente": "openstreetmap"
    },
    {
      "id": "osm_node_5705923224",
      "nombre": "Depas vein21uno",
      "tipo": "bar",
      "lat": 21.0030312,
      "lon": -89.6162436,
      "direccion": null,
      "codigo_postal": null,
      "telefono": null,
      "web": null,
      "instagram": null,
      "horario": null,
      "terraza": false,
      "musica": null,
      "fuente": "openstreetmap"
    },
    {
      "id": "osm_node_5790389958",
      "nombre": "Los Limones",
      "tipo": "bar",
      "lat": 20.9649927,
      "lon": -89.6011186,
      "direccion": null,
      "codigo_postal": null,
      "telefono": null,
      "web": null,
      "instagram": null,
      "horario": null,
      "terraza": false,
      "musica": null,
      "fuente": "openstreetmap"
    },
    {
      "id": "osm_node_5802801853",
      "nombre": "Trópico 56",
      "tipo": "bar",
      "lat": 20.9744136,
      "lon": -89.6193289,
      "direccion": null,
      "codigo_postal": null,
      "telefono": null,
      "web": null,
      "instagram": null,
      "horario": null,
      "terraza": false,
      "musica": null,
      "fuente": "openstreetmap"
    },
    {
      "id": "osm_node_5813400453",
      "nombre": "El Lucero",
      "tipo": "bar",
      "lat": 20.9751137,
      "lon": -89.6189421,
      "direccion": null,
      "codigo_postal": null,
      "telefono": null,
      "web": null,
      "instagram": "elluceromx",
      "horario": null,
      "terraza": false,
      "musica": null,
      "fuente": "openstreetmap"
    },
    {
      "id": "osm_node_5850108186",
      "nombre": "Maid Cafe",
      "tipo": "cafe",
      "lat": 20.9666335,
      "lon": -89.6184049,
      "direccion": null,
      "codigo_postal": null,
      "telefono": null,
      "web": null,
      "instagram": null,
      "horario": null,
      "terraza": false,
      "musica": null,
      "fuente": "openstreetmap"
    },
    {
      "id": "osm_node_5970620185",
      "nombre": "Bullpen by Cajerinas",
      "tipo": "bar",
      "lat": 20.9825744,
      "lon": -89.6250746,
      "direccion": "Calle 64",
      "codigo_postal": "97000",
      "telefono": null,
      "web": null,
      "instagram": null,
      "horario": null,
      "terraza": false,
      "musica": null,
      "fuente": "openstreetmap"
    },
    {
      "id": "osm_node_6040037888",
      "nombre": "Blue Bag Coffee Shop",
      "tipo": "cafe",
      "lat": 20.9753701,
      "lon": -89.625551,
      "direccion": null,
      "codigo_postal": null,
      "telefono": null,
      "web": null,
      "instagram": null,
      "horario": null,
      "terraza": false,
      "musica": null,
      "fuente": "openstreetmap"
    },
    {
      "id": "osm_node_6245876544",
      "nombre": "Starbucks",
      "tipo": "cafe",
      "lat": 21.0197785,
      "lon": -89.5963111,
      "direccion": null,
      "codigo_postal": null,
      "telefono": null,
      "web": null,
      "instagram": null,
      "horario": null,
      "terraza": false,
      "musica": null,
      "fuente": "openstreetmap"
    },
    {
      "id": "osm_node_6274654209",
      "nombre": "Bar San Juan",
      "tipo": "bar",
      "lat": 20.9631267,
      "lon": -89.6266823,
      "direccion": null,
      "codigo_postal": null,
      "telefono": null,
      "web": null,
      "instagram": null,
      "horario": null,
      "terraza": false,
      "musica": null,
      "fuente": "openstreetmap"
    },
    {
      "id": "osm_node_6274657771",
      "nombre": "Cantina",
      "tipo": "bar",
      "lat": 20.9584501,
      "lon": -89.6283778,
      "direccion": null,
      "codigo_postal": null,
      "telefono": null,
      "web": null,
      "instagram": null,
      "horario": null,
      "terraza": false,
      "musica": null,
      "fuente": "openstreetmap"
    },
    {
      "id": "osm_node_6601491204",
      "nombre": "Starbucks",
      "tipo": "cafe",
      "lat": 21.0461027,
      "lon": -89.6306939,
      "direccion": null,
      "codigo_postal": null,
      "telefono": null,
      "web": null,
      "instagram": null,
      "horario": null,
      "terraza": false,
      "musica": null,
      "fuente": "openstreetmap"
    },
    {
      "id": "osm_node_6652951676",
      "nombre": "Rosquillas & Coffee",
      "tipo": "cafe",
      "lat": 21.0396313,
      "lon": -89.6316113,
      "direccion": null,
      "codigo_postal": null,
      "telefono": "(999)9415587",
      "web": "http://www.rosquillasandcoffee.com/",
      "instagram": null,
      "horario": null,
      "terraza": false,
      "musica": null,
      "fuente": "openstreetmap"
    },
    {
      "id": "osm_node_6652951681",
      "nombre": "Segafredo",
      "tipo": "cafe",
      "lat": 21.0394557,
      "lon": -89.6314653,
      "direccion": null,
      "codigo_postal": null,
      "telefono": "(999)2520885",
      "web": "https://www.segafredo.it/",
      "instagram": null,
      "horario": null,
      "terraza": false,
      "musica": null,
      "fuente": "openstreetmap"
    },
    {
      "id": "osm_node_6652960511",
      "nombre": "La Crepería",
      "tipo": "cafe",
      "lat": 21.0395879,
      "lon": -89.6316853,
      "direccion": null,
      "codigo_postal": null,
      "telefono": null,
      "web": "http://www.creperia.com.mx/",
      "instagram": null,
      "horario": null,
      "terraza": false,
      "musica": null,
      "fuente": "openstreetmap"
    },
    {
      "id": "osm_node_6661240925",
      "nombre": "Itzaes",
      "tipo": "cafe",
      "lat": 20.9338799,
      "lon": -89.6632614,
      "direccion": null,
      "codigo_postal": null,
      "telefono": null,
      "web": null,
      "instagram": null,
      "horario": null,
      "terraza": false,
      "musica": null,
      "fuente": "openstreetmap"
    },
    {
      "id": "osm_node_6898349785",
      "nombre": "Café Voltaire",
      "tipo": "cafe",
      "lat": 20.9751888,
      "lon": -89.6284793,
      "direccion": null,
      "codigo_postal": null,
      "telefono": null,
      "web": null,
      "instagram": null,
      "horario": null,
      "terraza": false,
      "musica": null,
      "fuente": "openstreetmap"
    },
    {
      "id": "osm_node_7107954328",
      "nombre": "Márago Coffee",
      "tipo": "cafe",
      "lat": 20.9795024,
      "lon": -89.6190502,
      "direccion": null,
      "codigo_postal": null,
      "telefono": null,
      "web": null,
      "instagram": null,
      "horario": null,
      "terraza": false,
      "musica": null,
      "fuente": "openstreetmap"
    },
    {
      "id": "osm_node_7114661578",
      "nombre": "Café del Sol",
      "tipo": "cafe",
      "lat": 20.9753344,
      "lon": -89.6211769,
      "direccion": "Calle 47",
      "codigo_postal": null,
      "telefono": null,
      "web": null,
      "instagram": null,
      "horario": null,
      "terraza": true,
      "musica": null,
      "fuente": "openstreetmap"
    },
    {
      "id": "osm_node_7286924486",
      "nombre": "La 68",
      "tipo": "cafe",
      "lat": 20.9718335,
      "lon": -89.6275154,
      "direccion": "Calle 68",
      "codigo_postal": null,
      "telefono": null,
      "web": null,
      "instagram": null,
      "horario": null,
      "terraza": false,
      "musica": null,
      "fuente": "openstreetmap"
    },
    {
      "id": "osm_node_7839260985",
      "nombre": "Cafetería Parque Pizarrin",
      "tipo": "bar",
      "lat": 38.9134747,
      "lon": -6.3422168,
      "direccion": "Calle Calderón de la Barca 16",
      "codigo_postal": null,
      "telefono": null,
      "web": null,
      "instagram": null,
      "horario": null,
      "terraza": false,
      "musica": null,
      "fuente": "openstreetmap"
    },
    {
      "id": "osm_node_7840449787",
      "nombre": "Mesón El Pestorejo",
      "tipo": "pub",
      "lat": 38.9162011,
      "lon": -6.3468518,
      "direccion": "Plaza de España 14",
      "codigo_postal": "06800",
      "telefono": null,
      "web": null,
      "instagram": null,
      "horario": null,
      "terraza": false,
      "musica": null,
      "fuente": "openstreetmap"
    },
    {
      "id": "osm_node_7841474485",
      "nombre": "Joplin",
      "tipo": "bar",
      "lat": 38.9156818,
      "lon": -6.3458707,
      "direccion": "Calle Romero Leal 3",
      "codigo_postal": null,
      "telefono": null,
      "web": null,
      "instagram": null,
      "horario": null,
      "terraza": false,
      "musica": null,
      "fuente": "openstreetmap"
    },
    {
      "id": "osm_node_7842767188",
      "nombre": "Carlos",
      "tipo": "bar",
      "lat": 38.9139805,
      "lon": -6.3428485,
      "direccion": "Calle Calderón de la Barca",
      "codigo_postal": null,
      "telefono": null,
      "web": null,
      "instagram": null,
      "horario": null,
      "terraza": false,
      "musica": null,
      "fuente": "openstreetmap"
    },
    {
      "id": "osm_node_7921444567",
      "nombre": "La Encina",
      "tipo": "cafe",
      "lat": 38.9211003,
      "lon": -6.333059,
      "direccion": "Avenida Juan Carlos I",
      "codigo_postal": "06800",
      "telefono": null,
      "web": null,
      "instagram": null,
      "horario": null,
      "terraza": true,
      "musica": null,
      "fuente": "openstreetmap"
    },
    {
      "id": "osm_node_8263119752",
      "nombre": "Placer & Delirio",
      "tipo": "cafe",
      "lat": 20.9698465,
      "lon": -89.6307507,
      "direccion": "Calle 59",
      "codigo_postal": null,
      "telefono": null,
      "web": null,
      "instagram": null,
      "horario": null,
      "terraza": false,
      "musica": null,
      "fuente": "openstreetmap"
    },
    {
      "id": "osm_node_8583485019",
      "nombre": "pop tea",
      "tipo": "bar",
      "lat": 20.9685627,
      "lon": -89.6214855,
      "direccion": "Calle 58",
      "codigo_postal": null,
      "telefono": null,
      "web": null,
      "instagram": null,
      "horario": null,
      "terraza": false,
      "musica": null,
      "fuente": "openstreetmap"
    },
    {
      "id": "osm_node_9054649718",
      "nombre": "Cervecería El Faro",
      "tipo": "pub",
      "lat": 38.9149183,
      "lon": -6.3331546,
      "direccion": null,
      "codigo_postal": null,
      "telefono": null,
      "web": null,
      "instagram": null,
      "horario": null,
      "terraza": false,
      "musica": null,
      "fuente": "openstreetmap"
    },
    {
      "id": "osm_node_9059237851",
      "nombre": "Bar Pizarro",
      "tipo": "cafe",
      "lat": 38.9137728,
      "lon": -6.3409675,
      "direccion": null,
      "codigo_postal": null,
      "telefono": null,
      "web": null,
      "instagram": null,
      "horario": null,
      "terraza": false,
      "musica": null,
      "fuente": "openstreetmap"
    },
    {
      "id": "osm_node_9356750317",
      "nombre": "Voltacafé",
      "tipo": "cafe",
      "lat": 20.9722629,
      "lon": -89.6231871,
      "direccion": null,
      "codigo_postal": null,
      "telefono": null,
      "web": null,
      "instagram": null,
      "horario": null,
      "terraza": false,
      "musica": null,
      "fuente": "openstreetmap"
    },
    {
      "id": "osm_node_9356750419",
      "nombre": "Murciélago",
      "tipo": "bar",
      "lat": 20.9696098,
      "lon": -89.6218866,
      "direccion": null,
      "codigo_postal": null,
      "telefono": null,
      "web": null,
      "instagram": null,
      "horario": null,
      "terraza": false,
      "musica": null,
      "fuente": "openstreetmap"
    },
    {
      "id": "osm_node_9356763818",
      "nombre": "Gloria Jean's",
      "tipo": "cafe",
      "lat": 20.9694899,
      "lon": -89.6272803,
      "direccion": null,
      "codigo_postal": null,
      "telefono": null,
      "web": null,
      "instagram": null,
      "horario": null,
      "terraza": false,
      "musica": null,
      "fuente": "openstreetmap"
    },
    {
      "id": "osm_node_9419728717",
      "nombre": "Posheria",
      "tipo": "bar",
      "lat": 20.9784733,
      "lon": -89.6186922,
      "direccion": null,
      "codigo_postal": null,
      "telefono": null,
      "web": null,
      "instagram": null,
      "horario": null,
      "terraza": false,
      "musica": null,
      "fuente": "openstreetmap"
    },
    {
      "id": "osm_node_9511671748",
      "nombre": "Mitreo",
      "tipo": "pub",
      "lat": 38.9166144,
      "lon": -6.3479004,
      "direccion": null,
      "codigo_postal": null,
      "telefono": null,
      "web": null,
      "instagram": "https://www.instagram.com/mitreocraftmerida/",
      "horario": null,
      "terraza": false,
      "musica": null,
      "fuente": "openstreetmap"
    },
    {
      "id": "osm_node_9561604617",
      "nombre": "La Bierhaus",
      "tipo": "bar",
      "lat": 20.969262,
      "lon": -89.6239622,
      "direccion": "Calle 62 487",
      "codigo_postal": "97000",
      "telefono": "+529994136571",
      "web": "http://bierhausmerida.com",
      "instagram": null,
      "horario": "Su-Tu 12:00-00:00; We-Sa 12:00-01:30",
      "terraza": false,
      "musica": null,
      "fuente": "openstreetmap"
    },
    {
      "id": "osm_node_9733620417",
      "nombre": "The Italian coffee",
      "tipo": "cafe",
      "lat": 20.9678284,
      "lon": -89.6241808,
      "direccion": "Calle 62 499",
      "codigo_postal": "97000",
      "telefono": null,
      "web": "https://www.italiancoffee.com/",
      "instagram": null,
      "horario": "Mo-Fr 07:30-22:00; Sa-Su 08:00-22:00",
      "terraza": false,
      "musica": null,
      "fuente": "openstreetmap"
    },
    {
      "id": "osm_node_9738766118",
      "nombre": "La abidia",
      "tipo": "cafe",
      "lat": 20.9661284,
      "lon": -89.6245681,
      "direccion": "Calle 62",
      "codigo_postal": "97000",
      "telefono": null,
      "web": null,
      "instagram": null,
      "horario": null,
      "terraza": false,
      "musica": null,
      "fuente": "openstreetmap"
    },
    {
      "id": "osm_node_9738784819",
      "nombre": "La Come Son",
      "tipo": "bar",
      "lat": 20.9638599,
      "lon": -89.6251442,
      "direccion": "Calle 62",
      "codigo_postal": null,
      "telefono": null,
      "web": null,
      "instagram": null,
      "horario": null,
      "terraza": false,
      "musica": null,
      "fuente": "openstreetmap"
    },
    {
      "id": "osm_node_9859052694",
      "nombre": "DeLorean Bar",
      "tipo": "bar",
      "lat": 20.9691885,
      "lon": -89.6216534,
      "direccion": "Calle 58",
      "codigo_postal": "97000",
      "telefono": null,
      "web": "https://cloudmenu.mx/delorean",
      "instagram": null,
      "horario": null,
      "terraza": false,
      "musica": null,
      "fuente": "openstreetmap"
    },
    {
      "id": "osm_node_9859052695",
      "nombre": "Health Ha",
      "tipo": "cafe",
      "lat": 20.9753292,
      "lon": -89.6209845,
      "direccion": null,
      "codigo_postal": null,
      "telefono": null,
      "web": null,
      "instagram": null,
      "horario": null,
      "terraza": false,
      "musica": null,
      "fuente": "openstreetmap"
    },
    {
      "id": "osm_node_9859052702",
      "nombre": "La lluvia de oro",
      "tipo": "bar",
      "lat": 20.9645278,
      "lon": -89.6060472,
      "direccion": null,
      "codigo_postal": null,
      "telefono": null,
      "web": null,
      "instagram": null,
      "horario": null,
      "terraza": false,
      "musica": null,
      "fuente": "openstreetmap"
    },
    {
      "id": "osm_node_9908272918",
      "nombre": "Cuerno de Toro",
      "tipo": "bar",
      "lat": 20.9713606,
      "lon": -89.6251204,
      "direccion": null,
      "codigo_postal": null,
      "telefono": null,
      "web": null,
      "instagram": null,
      "horario": null,
      "terraza": false,
      "musica": null,
      "fuente": "openstreetmap"
    },
    {
      "id": "osm_node_10295534587",
      "nombre": "The Kontainer",
      "tipo": "bar",
      "lat": 38.9066508,
      "lon": -6.3513815,
      "direccion": null,
      "codigo_postal": null,
      "telefono": null,
      "web": null,
      "instagram": null,
      "horario": null,
      "terraza": false,
      "musica": null,
      "fuente": "openstreetmap"
    },
    {
      "id": "osm_node_10295603813",
      "nombre": "El Rinón de Esther",
      "tipo": "cafe",
      "lat": 38.9056408,
      "lon": -6.3601459,
      "direccion": null,
      "codigo_postal": null,
      "telefono": null,
      "web": null,
      "instagram": null,
      "horario": null,
      "terraza": true,
      "musica": null,
      "fuente": "openstreetmap"
    },
    {
      "id": "osm_node_10298105530",
      "nombre": "La Moett",
      "tipo": "bar",
      "lat": 38.9164679,
      "lon": -6.3458174,
      "direccion": null,
      "codigo_postal": null,
      "telefono": null,
      "web": null,
      "instagram": null,
      "horario": null,
      "terraza": false,
      "musica": null,
      "fuente": "openstreetmap"
    },
    {
      "id": "osm_node_10298105581",
      "nombre": "Barra Rossa",
      "tipo": "bar",
      "lat": 38.9161569,
      "lon": -6.3458902,
      "direccion": null,
      "codigo_postal": null,
      "telefono": null,
      "web": null,
      "instagram": null,
      "horario": null,
      "terraza": false,
      "musica": null,
      "fuente": "openstreetmap"
    },
    {
      "id": "osm_node_10298105611",
      "nombre": "Arcade",
      "tipo": "bar",
      "lat": 38.9160337,
      "lon": -6.3461808,
      "direccion": null,
      "codigo_postal": null,
      "telefono": null,
      "web": null,
      "instagram": null,
      "horario": null,
      "terraza": false,
      "musica": null,
      "fuente": "openstreetmap"
    },
    {
      "id": "osm_node_10298158681",
      "nombre": "Bar Morales",
      "tipo": "bar",
      "lat": 38.9193408,
      "lon": -6.3444016,
      "direccion": null,
      "codigo_postal": null,
      "telefono": null,
      "web": null,
      "instagram": null,
      "horario": null,
      "terraza": false,
      "musica": null,
      "fuente": "openstreetmap"
    },
    {
      "id": "osm_node_10298158683",
      "nombre": "Ararat",
      "tipo": "bar",
      "lat": 38.9195966,
      "lon": -6.3441601,
      "direccion": null,
      "codigo_postal": null,
      "telefono": null,
      "web": null,
      "instagram": null,
      "horario": null,
      "terraza": false,
      "musica": null,
      "fuente": "openstreetmap"
    },
    {
      "id": "osm_node_10553619151",
      "nombre": "Café Cafico",
      "tipo": "cafe",
      "lat": 20.9750391,
      "lon": -89.6203927,
      "direccion": null,
      "codigo_postal": null,
      "telefono": null,
      "web": null,
      "instagram": null,
      "horario": null,
      "terraza": false,
      "musica": null,
      "fuente": "openstreetmap"
    },
    {
      "id": "osm_node_10584314825",
      "nombre": "Arista Barista",
      "tipo": "cafe",
      "lat": 20.9736418,
      "lon": -89.6174927,
      "direccion": null,
      "codigo_postal": null,
      "telefono": null,
      "web": null,
      "instagram": null,
      "horario": null,
      "terraza": false,
      "musica": null,
      "fuente": "openstreetmap"
    },
    {
      "id": "osm_node_10608061457",
      "nombre": "Blue Bag coffee",
      "tipo": "cafe",
      "lat": 20.9891354,
      "lon": -89.6278265,
      "direccion": "Calle 55 543",
      "codigo_postal": "97000",
      "telefono": "+528182874653",
      "web": "https://bluebagcoffee.com/",
      "instagram": null,
      "horario": "Mo-Su 10:00-23:00",
      "terraza": false,
      "musica": null,
      "fuente": "openstreetmap"
    },
    {
      "id": "osm_node_10771653771",
      "nombre": "Tizatlán",
      "tipo": "bar",
      "lat": 20.9723085,
      "lon": -89.6232728,
      "direccion": null,
      "codigo_postal": null,
      "telefono": null,
      "web": null,
      "instagram": null,
      "horario": null,
      "terraza": false,
      "musica": null,
      "fuente": "openstreetmap"
    },
    {
      "id": "osm_node_10771698141",
      "nombre": "Dzalbay",
      "tipo": "bar",
      "lat": 20.9727052,
      "lon": -89.624901,
      "direccion": "64 x 53 Centro",
      "codigo_postal": null,
      "telefono": null,
      "web": null,
      "instagram": null,
      "horario": "Mo-Su 16:00-24:00",
      "terraza": true,
      "musica": null,
      "fuente": "openstreetmap"
    },
    {
      "id": "osm_node_10771745819",
      "nombre": "Bird",
      "tipo": "bar",
      "lat": 20.9716285,
      "lon": -89.6198003,
      "direccion": null,
      "codigo_postal": null,
      "telefono": null,
      "web": null,
      "instagram": null,
      "horario": null,
      "terraza": false,
      "musica": null,
      "fuente": "openstreetmap"
    },
    {
      "id": "osm_node_10778300543",
      "nombre": "O melho croissant da minha rua",
      "tipo": "cafe",
      "lat": 38.9170864,
      "lon": -6.3457783,
      "direccion": null,
      "codigo_postal": null,
      "telefono": null,
      "web": null,
      "instagram": null,
      "horario": null,
      "terraza": false,
      "musica": null,
      "fuente": "openstreetmap"
    },
    {
      "id": "osm_node_10934459705",
      "nombre": "El Gato Gordo",
      "tipo": "cafe",
      "lat": 20.9667205,
      "lon": -89.6300556,
      "direccion": null,
      "codigo_postal": null,
      "telefono": null,
      "web": null,
      "instagram": null,
      "horario": "Mo-Su 09:00-20:00",
      "terraza": false,
      "musica": null,
      "fuente": "openstreetmap"
    },
    {
      "id": "osm_node_11138706626",
      "nombre": "Bar Cafe La buhardilla",
      "tipo": "bar",
      "lat": 38.9187889,
      "lon": -6.3467156,
      "direccion": null,
      "codigo_postal": null,
      "telefono": null,
      "web": null,
      "instagram": null,
      "horario": null,
      "terraza": false,
      "musica": null,
      "fuente": "openstreetmap"
    },
    {
      "id": "osm_node_11285122770",
      "nombre": "La Rumba Dos",
      "tipo": "bar",
      "lat": 20.9634617,
      "lon": -89.6244114,
      "direccion": null,
      "codigo_postal": null,
      "telefono": null,
      "web": null,
      "instagram": null,
      "horario": null,
      "terraza": false,
      "musica": null,
      "fuente": "openstreetmap"
    },
    {
      "id": "osm_node_11287387069",
      "nombre": "Central Mid",
      "tipo": "cafe",
      "lat": 20.9667116,
      "lon": -89.6249647,
      "direccion": null,
      "codigo_postal": null,
      "telefono": null,
      "web": null,
      "instagram": null,
      "horario": null,
      "terraza": false,
      "musica": null,
      "fuente": "openstreetmap"
    },
    {
      "id": "osm_node_11660875569",
      "nombre": "Manga-Jō Café",
      "tipo": "cafe",
      "lat": 21.000744,
      "lon": -89.627836,
      "direccion": "Calle 20 335A",
      "codigo_postal": "97210",
      "telefono": "+52 999 119 8374",
      "web": null,
      "instagram": null,
      "horario": null,
      "terraza": false,
      "musica": null,
      "fuente": "openstreetmap"
    },
    {
      "id": "osm_node_11957748516",
      "nombre": "La Cafe de la Uno",
      "tipo": "cafe",
      "lat": 20.9786317,
      "lon": -89.601354,
      "direccion": null,
      "codigo_postal": null,
      "telefono": null,
      "web": null,
      "instagram": null,
      "horario": null,
      "terraza": false,
      "musica": null,
      "fuente": "openstreetmap"
    },
    {
      "id": "osm_node_11966342900",
      "nombre": "Jazz Bar",
      "tipo": "pub",
      "lat": 38.9180322,
      "lon": -6.3463863,
      "direccion": "Calle Alvarado 6",
      "codigo_postal": null,
      "telefono": "+34 924 31 99 00",
      "web": null,
      "instagram": null,
      "horario": "Mo-Su 16:00-02:30",
      "terraza": false,
      "musica": null,
      "fuente": "openstreetmap"
    },
    {
      "id": "osm_node_12175636243",
      "nombre": "Santiago Lounge",
      "tipo": "bar",
      "lat": 20.9721898,
      "lon": -89.6281647,
      "direccion": null,
      "codigo_postal": null,
      "telefono": null,
      "web": null,
      "instagram": null,
      "horario": null,
      "terraza": false,
      "musica": null,
      "fuente": "openstreetmap"
    },
    {
      "id": "osm_node_12175636275",
      "nombre": "Bacab Cerveceria",
      "tipo": "bar",
      "lat": 20.9708351,
      "lon": -89.619799,
      "direccion": null,
      "codigo_postal": null,
      "telefono": null,
      "web": null,
      "instagram": null,
      "horario": null,
      "terraza": false,
      "musica": null,
      "fuente": "openstreetmap"
    },
    {
      "id": "osm_node_12193663302",
      "nombre": "Acervo Mezcalero",
      "tipo": "bar",
      "lat": 20.9716709,
      "lon": -89.6197909,
      "direccion": "Calle 56",
      "codigo_postal": null,
      "telefono": null,
      "web": null,
      "instagram": null,
      "horario": null,
      "terraza": false,
      "musica": null,
      "fuente": "openstreetmap"
    },
    {
      "id": "osm_node_12193663303",
      "nombre": "Dix",
      "tipo": "bar",
      "lat": 20.9719452,
      "lon": -89.6203021,
      "direccion": "Calle 53",
      "codigo_postal": null,
      "telefono": null,
      "web": null,
      "instagram": null,
      "horario": null,
      "terraza": false,
      "musica": null,
      "fuente": "openstreetmap"
    },
    {
      "id": "osm_node_12193663304",
      "nombre": "Lagarto de Oro",
      "tipo": "pub",
      "lat": 20.969859,
      "lon": -89.6156279,
      "direccion": null,
      "codigo_postal": null,
      "telefono": null,
      "web": null,
      "instagram": null,
      "horario": null,
      "terraza": false,
      "musica": null,
      "fuente": "openstreetmap"
    },
    {
      "id": "osm_node_12193720334",
      "nombre": "Cantina Balam",
      "tipo": "pub",
      "lat": 20.9718115,
      "lon": -89.6233463,
      "direccion": null,
      "codigo_postal": null,
      "telefono": null,
      "web": null,
      "instagram": null,
      "horario": null,
      "terraza": false,
      "musica": null,
      "fuente": "openstreetmap"
    },
    {
      "id": "osm_node_12193720335",
      "nombre": "Flamel",
      "tipo": "bar",
      "lat": 20.9693311,
      "lon": -89.6199474,
      "direccion": null,
      "codigo_postal": null,
      "telefono": null,
      "web": null,
      "instagram": null,
      "horario": null,
      "terraza": false,
      "musica": null,
      "fuente": "openstreetmap"
    },
    {
      "id": "osm_node_12198109466",
      "nombre": "El Negrito",
      "tipo": "cafe",
      "lat": 20.9945528,
      "lon": -89.5802056,
      "direccion": null,
      "codigo_postal": null,
      "telefono": null,
      "web": null,
      "instagram": null,
      "horario": null,
      "terraza": false,
      "musica": null,
      "fuente": "openstreetmap"
    },
    {
      "id": "osm_node_12198130487",
      "nombre": "Bar El Patio",
      "tipo": "bar",
      "lat": 20.9802528,
      "lon": -89.607965,
      "direccion": null,
      "codigo_postal": null,
      "telefono": null,
      "web": null,
      "instagram": null,
      "horario": null,
      "terraza": false,
      "musica": null,
      "fuente": "openstreetmap"
    },
    {
      "id": "osm_node_12198320258",
      "nombre": "JC's Tree Coffee",
      "tipo": "cafe",
      "lat": 20.9804142,
      "lon": -89.6041549,
      "direccion": null,
      "codigo_postal": null,
      "telefono": null,
      "web": null,
      "instagram": null,
      "horario": null,
      "terraza": false,
      "musica": null,
      "fuente": "openstreetmap"
    },
    {
      "id": "osm_node_12200840339",
      "nombre": "Cielito Lindo",
      "tipo": "cafe",
      "lat": 20.9935813,
      "lon": -89.6531309,
      "direccion": null,
      "codigo_postal": null,
      "telefono": null,
      "web": null,
      "instagram": null,
      "horario": null,
      "terraza": false,
      "musica": null,
      "fuente": "openstreetmap"
    },
    {
      "id": "osm_node_12206355905",
      "nombre": "Like Bar",
      "tipo": "bar",
      "lat": 20.991048,
      "lon": -89.6505244,
      "direccion": null,
      "codigo_postal": null,
      "telefono": null,
      "web": null,
      "instagram": null,
      "horario": null,
      "terraza": false,
      "musica": null,
      "fuente": "openstreetmap"
    },
    {
      "id": "osm_node_12210733051",
      "nombre": "De la Reina Roja Café",
      "tipo": "cafe",
      "lat": 20.9782656,
      "lon": -89.6123485,
      "direccion": null,
      "codigo_postal": null,
      "telefono": null,
      "web": null,
      "instagram": null,
      "horario": null,
      "terraza": false,
      "musica": null,
      "fuente": "openstreetmap"
    },
    {
      "id": "osm_node_12210733057",
      "nombre": "Te Invoco Y Suspiro Café",
      "tipo": "cafe",
      "lat": 20.9783081,
      "lon": -89.6122645,
      "direccion": null,
      "codigo_postal": null,
      "telefono": null,
      "web": null,
      "instagram": null,
      "horario": null,
      "terraza": false,
      "musica": null,
      "fuente": "openstreetmap"
    },
    {
      "id": "osm_node_12210733058",
      "nombre": "Esmeralda Taproom",
      "tipo": "pub",
      "lat": 20.9783438,
      "lon": -89.6122143,
      "direccion": null,
      "codigo_postal": null,
      "telefono": null,
      "web": null,
      "instagram": null,
      "horario": null,
      "terraza": false,
      "musica": null,
      "fuente": "openstreetmap"
    },
    {
      "id": "osm_node_12210733064",
      "nombre": "Casa Patito",
      "tipo": "pub",
      "lat": 20.9785859,
      "lon": -89.61224,
      "direccion": null,
      "codigo_postal": null,
      "telefono": null,
      "web": null,
      "instagram": null,
      "horario": null,
      "terraza": false,
      "musica": null,
      "fuente": "openstreetmap"
    },
    {
      "id": "osm_node_12210733065",
      "nombre": "Trópico 56",
      "tipo": "bar",
      "lat": 20.9786418,
      "lon": -89.6123092,
      "direccion": null,
      "codigo_postal": null,
      "telefono": null,
      "web": null,
      "instagram": null,
      "horario": null,
      "terraza": false,
      "musica": null,
      "fuente": "openstreetmap"
    },
    {
      "id": "osm_node_12210733069",
      "nombre": "Bejar Coffee",
      "tipo": "cafe",
      "lat": 20.9787342,
      "lon": -89.6120486,
      "direccion": null,
      "codigo_postal": null,
      "telefono": null,
      "web": null,
      "instagram": null,
      "horario": null,
      "terraza": false,
      "musica": null,
      "fuente": "openstreetmap"
    },
    {
      "id": "osm_node_12210733075",
      "nombre": "Abuelo Guillén",
      "tipo": "cafe",
      "lat": 20.9786658,
      "lon": -89.6117854,
      "direccion": null,
      "codigo_postal": null,
      "telefono": null,
      "web": null,
      "instagram": null,
      "horario": null,
      "terraza": false,
      "musica": null,
      "fuente": "openstreetmap"
    },
    {
      "id": "osm_node_12210733076",
      "nombre": "Cervecería Mastache",
      "tipo": "pub",
      "lat": 20.9787306,
      "lon": -89.611857,
      "direccion": null,
      "codigo_postal": null,
      "telefono": null,
      "web": null,
      "instagram": null,
      "horario": null,
      "terraza": false,
      "musica": null,
      "fuente": "openstreetmap"
    },
    {
      "id": "osm_node_12210733078",
      "nombre": "Relato",
      "tipo": "cafe",
      "lat": 20.9788953,
      "lon": -89.6120027,
      "direccion": null,
      "codigo_postal": null,
      "telefono": null,
      "web": null,
      "instagram": null,
      "horario": null,
      "terraza": false,
      "musica": null,
      "fuente": "openstreetmap"
    },
    {
      "id": "osm_node_12290681820",
      "nombre": "Agallas",
      "tipo": "bar",
      "lat": 38.9139511,
      "lon": -6.3441643,
      "direccion": null,
      "codigo_postal": null,
      "telefono": null,
      "web": null,
      "instagram": null,
      "horario": null,
      "terraza": false,
      "musica": null,
      "fuente": "openstreetmap"
    },
    {
      "id": "osm_node_12290683062",
      "nombre": "Bar Sala",
      "tipo": "bar",
      "lat": 38.913671,
      "lon": -6.3454585,
      "direccion": null,
      "codigo_postal": null,
      "telefono": null,
      "web": null,
      "instagram": null,
      "horario": null,
      "terraza": false,
      "musica": null,
      "fuente": "openstreetmap"
    },
    {
      "id": "osm_node_12290683388",
      "nombre": "Agallas",
      "tipo": "bar",
      "lat": 38.9139511,
      "lon": -6.3441643,
      "direccion": null,
      "codigo_postal": null,
      "telefono": null,
      "web": null,
      "instagram": null,
      "horario": null,
      "terraza": false,
      "musica": null,
      "fuente": "openstreetmap"
    },
    {
      "id": "osm_node_12345212847",
      "nombre": "Starbucks",
      "tipo": "cafe",
      "lat": 21.0374016,
      "lon": -89.6042403,
      "direccion": null,
      "codigo_postal": null,
      "telefono": null,
      "web": null,
      "instagram": null,
      "horario": null,
      "terraza": false,
      "musica": null,
      "fuente": "openstreetmap"
    },
    {
      "id": "osm_node_12345230637",
      "nombre": "Starbucks",
      "tipo": "cafe",
      "lat": 21.0304121,
      "lon": -89.6249375,
      "direccion": null,
      "codigo_postal": null,
      "telefono": null,
      "web": null,
      "instagram": null,
      "horario": null,
      "terraza": false,
      "musica": null,
      "fuente": "openstreetmap"
    },
    {
      "id": "osm_node_12349511638",
      "nombre": "Italian Coffee",
      "tipo": "cafe",
      "lat": 20.9753862,
      "lon": -89.5951696,
      "direccion": null,
      "codigo_postal": null,
      "telefono": null,
      "web": null,
      "instagram": null,
      "horario": null,
      "terraza": false,
      "musica": null,
      "fuente": "openstreetmap"
    },
    {
      "id": "osm_node_12349511662",
      "nombre": "Taco City Café",
      "tipo": "cafe",
      "lat": 20.9765382,
      "lon": -89.597283,
      "direccion": null,
      "codigo_postal": null,
      "telefono": null,
      "web": null,
      "instagram": null,
      "horario": null,
      "terraza": false,
      "musica": null,
      "fuente": "openstreetmap"
    },
    {
      "id": "osm_node_12437453007",
      "nombre": "La Verbena",
      "tipo": "bar",
      "lat": 20.9657353,
      "lon": -89.6371015,
      "direccion": null,
      "codigo_postal": null,
      "telefono": null,
      "web": null,
      "instagram": null,
      "horario": null,
      "terraza": false,
      "musica": null,
      "fuente": "openstreetmap"
    },
    {
      "id": "osm_node_12437469922",
      "nombre": "Manier Café",
      "tipo": "cafe",
      "lat": 20.971716,
      "lon": -89.6326347,
      "direccion": "Calle 57 582C",
      "codigo_postal": null,
      "telefono": null,
      "web": "https://manier.mx/",
      "instagram": null,
      "horario": null,
      "terraza": false,
      "musica": null,
      "fuente": "openstreetmap"
    },
    {
      "id": "osm_node_12437519024",
      "nombre": "Bacchus",
      "tipo": "bar",
      "lat": 20.9724201,
      "lon": -89.6233952,
      "direccion": null,
      "codigo_postal": null,
      "telefono": null,
      "web": null,
      "instagram": null,
      "horario": "Mo-Su 14:00-23:00",
      "terraza": false,
      "musica": null,
      "fuente": "openstreetmap"
    },
    {
      "id": "osm_node_12554652874",
      "nombre": "Floco Original Coffee",
      "tipo": "cafe",
      "lat": 38.917909,
      "lon": -6.343161,
      "direccion": null,
      "codigo_postal": null,
      "telefono": null,
      "web": null,
      "instagram": null,
      "horario": null,
      "terraza": false,
      "musica": null,
      "fuente": "openstreetmap"
    },
    {
      "id": "osm_node_12580931350",
      "nombre": "Good Tea",
      "tipo": "cafe",
      "lat": 21.0124449,
      "lon": -89.583126,
      "direccion": null,
      "codigo_postal": null,
      "telefono": null,
      "web": null,
      "instagram": null,
      "horario": null,
      "terraza": false,
      "musica": null,
      "fuente": "openstreetmap"
    },
    {
      "id": "osm_node_12580931352",
      "nombre": "Starbucks",
      "tipo": "cafe",
      "lat": 21.0126107,
      "lon": -89.5831809,
      "direccion": null,
      "codigo_postal": null,
      "telefono": null,
      "web": null,
      "instagram": null,
      "horario": null,
      "terraza": false,
      "musica": null,
      "fuente": "openstreetmap"
    },
    {
      "id": "osm_node_12580931353",
      "nombre": "Café Lote Único",
      "tipo": "cafe",
      "lat": 21.0158257,
      "lon": -89.5899652,
      "direccion": null,
      "codigo_postal": null,
      "telefono": null,
      "web": null,
      "instagram": null,
      "horario": null,
      "terraza": true,
      "musica": null,
      "fuente": "openstreetmap"
    },
    {
      "id": "osm_node_12580931388",
      "nombre": "T-bar",
      "tipo": "cafe",
      "lat": 21.0226023,
      "lon": -89.6055416,
      "direccion": null,
      "codigo_postal": null,
      "telefono": null,
      "web": null,
      "instagram": null,
      "horario": null,
      "terraza": false,
      "musica": null,
      "fuente": "openstreetmap"
    },
    {
      "id": "osm_node_12580931430",
      "nombre": "Ceci Medina",
      "tipo": "cafe",
      "lat": 21.0223159,
      "lon": -89.604722,
      "direccion": null,
      "codigo_postal": null,
      "telefono": null,
      "web": null,
      "instagram": null,
      "horario": null,
      "terraza": false,
      "musica": null,
      "fuente": "openstreetmap"
    },
    {
      "id": "osm_node_12580931469",
      "nombre": "Corajillo",
      "tipo": "bar",
      "lat": 21.0251505,
      "lon": -89.6049287,
      "direccion": null,
      "codigo_postal": null,
      "telefono": null,
      "web": null,
      "instagram": null,
      "horario": null,
      "terraza": false,
      "musica": null,
      "fuente": "openstreetmap"
    },
    {
      "id": "osm_node_12580931490",
      "nombre": "Whiskylucan",
      "tipo": "bar",
      "lat": 21.0297612,
      "lon": -89.6039713,
      "direccion": null,
      "codigo_postal": null,
      "telefono": null,
      "web": null,
      "instagram": null,
      "horario": null,
      "terraza": false,
      "musica": null,
      "fuente": "openstreetmap"
    },
    {
      "id": "osm_node_12581598271",
      "nombre": "Baretto - Espresso House",
      "tipo": "cafe",
      "lat": 20.9749642,
      "lon": -89.6188651,
      "direccion": null,
      "codigo_postal": null,
      "telefono": null,
      "web": null,
      "instagram": null,
      "horario": null,
      "terraza": false,
      "musica": null,
      "fuente": "openstreetmap"
    },
    {
      "id": "osm_node_12586258807",
      "nombre": "Yolo Coffee",
      "tipo": "cafe",
      "lat": 21.0114225,
      "lon": -89.579934,
      "direccion": null,
      "codigo_postal": null,
      "telefono": null,
      "web": null,
      "instagram": null,
      "horario": null,
      "terraza": false,
      "musica": null,
      "fuente": "openstreetmap"
    },
    {
      "id": "osm_node_12588652447",
      "nombre": "Salvaje",
      "tipo": "bar",
      "lat": 21.0138297,
      "lon": -89.5719484,
      "direccion": null,
      "codigo_postal": null,
      "telefono": null,
      "web": null,
      "instagram": null,
      "horario": null,
      "terraza": false,
      "musica": null,
      "fuente": "openstreetmap"
    },
    {
      "id": "osm_node_12588834728",
      "nombre": "PINK ROOM",
      "tipo": "bar",
      "lat": 21.0249691,
      "lon": -89.6051025,
      "direccion": null,
      "codigo_postal": null,
      "telefono": null,
      "web": null,
      "instagram": null,
      "horario": null,
      "terraza": false,
      "musica": null,
      "fuente": "openstreetmap"
    },
    {
      "id": "osm_node_12588834729",
      "nombre": "Bloom Martini Garden",
      "tipo": "bar",
      "lat": 21.0249423,
      "lon": -89.6049084,
      "direccion": null,
      "codigo_postal": null,
      "telefono": null,
      "web": null,
      "instagram": null,
      "horario": null,
      "terraza": false,
      "musica": null,
      "fuente": "openstreetmap"
    },
    {
      "id": "osm_node_12588854592",
      "nombre": "Agua de Menta",
      "tipo": "cafe",
      "lat": 21.0324581,
      "lon": -89.6027843,
      "direccion": null,
      "codigo_postal": null,
      "telefono": null,
      "web": null,
      "instagram": null,
      "horario": null,
      "terraza": false,
      "musica": null,
      "fuente": "openstreetmap"
    },
    {
      "id": "osm_node_12596310641",
      "nombre": "La Cata Bakery & Coffee",
      "tipo": "cafe",
      "lat": 20.9967717,
      "lon": -89.6515288,
      "direccion": null,
      "codigo_postal": null,
      "telefono": null,
      "web": null,
      "instagram": null,
      "horario": null,
      "terraza": false,
      "musica": null,
      "fuente": "openstreetmap"
    },
    {
      "id": "osm_node_12629392324",
      "nombre": "Café Riqueza",
      "tipo": "cafe",
      "lat": 20.9743002,
      "lon": -89.6217106,
      "direccion": null,
      "codigo_postal": null,
      "telefono": null,
      "web": null,
      "instagram": null,
      "horario": null,
      "terraza": false,
      "musica": null,
      "fuente": "openstreetmap"
    },
    {
      "id": "osm_node_12758737616",
      "nombre": "Churrería Don Porfirio",
      "tipo": "cafe",
      "lat": 20.9900719,
      "lon": -89.662989,
      "direccion": null,
      "codigo_postal": null,
      "telefono": null,
      "web": null,
      "instagram": null,
      "horario": null,
      "terraza": false,
      "musica": null,
      "fuente": "openstreetmap"
    },
    {
      "id": "osm_node_12771231803",
      "nombre": "Marago Coffee",
      "tipo": "cafe",
      "lat": 20.969886,
      "lon": -89.6226584,
      "direccion": null,
      "codigo_postal": null,
      "telefono": null,
      "web": null,
      "instagram": null,
      "horario": null,
      "terraza": false,
      "musica": null,
      "fuente": "openstreetmap"
    },
    {
      "id": "osm_node_12911209279",
      "nombre": "Panarelo",
      "tipo": "cafe",
      "lat": 21.0524363,
      "lon": -89.625265,
      "direccion": null,
      "codigo_postal": null,
      "telefono": null,
      "web": null,
      "instagram": null,
      "horario": null,
      "terraza": false,
      "musica": null,
      "fuente": "openstreetmap"
    },
    {
      "id": "osm_node_12911209280",
      "nombre": "La cafe",
      "tipo": "cafe",
      "lat": 21.0518918,
      "lon": -89.6248206,
      "direccion": null,
      "codigo_postal": null,
      "telefono": null,
      "web": null,
      "instagram": null,
      "horario": null,
      "terraza": false,
      "musica": null,
      "fuente": "openstreetmap"
    },
    {
      "id": "osm_node_13012312498",
      "nombre": "La 60 Café Atelier",
      "tipo": "cafe",
      "lat": 20.9776905,
      "lon": -89.6212607,
      "direccion": null,
      "codigo_postal": null,
      "telefono": null,
      "web": null,
      "instagram": null,
      "horario": null,
      "terraza": false,
      "musica": null,
      "fuente": "openstreetmap"
    },
    {
      "id": "osm_node_13024850769",
      "nombre": "Coffee Brew Lab SCR",
      "tipo": "cafe",
      "lat": 20.9944762,
      "lon": -89.6402371,
      "direccion": "Calle 36 153",
      "codigo_postal": "97218",
      "telefono": null,
      "web": "https://coffeebrewlab.com/",
      "instagram": "coffeebrewlabscr",
      "horario": "Mo 08:00-14:30,19:00-20:30; Tu off; We-Fr 08:00-14:30,19:00-20:30; Sa 08:00-14:30; Su off",
      "terraza": true,
      "musica": null,
      "fuente": "openstreetmap"
    },
    {
      "id": "osm_node_13048692667",
      "nombre": "White Paper House",
      "tipo": "cafe",
      "lat": 20.9722319,
      "lon": -89.6237437,
      "direccion": "Calle 53 502N",
      "codigo_postal": "97000",
      "telefono": null,
      "web": "www.whitepaper.house",
      "instagram": null,
      "horario": null,
      "terraza": true,
      "musica": null,
      "fuente": "openstreetmap"
    },
    {
      "id": "osm_node_13336396158",
      "nombre": "Tbar",
      "tipo": "cafe",
      "lat": 21.0160993,
      "lon": -89.5705863,
      "direccion": null,
      "codigo_postal": null,
      "telefono": null,
      "web": null,
      "instagram": null,
      "horario": null,
      "terraza": false,
      "musica": null,
      "fuente": "openstreetmap"
    },
    {
      "id": "osm_node_13357991718",
      "nombre": "Higourmet",
      "tipo": "cafe",
      "lat": 38.9163373,
      "lon": -6.3455503,
      "direccion": null,
      "codigo_postal": null,
      "telefono": null,
      "web": null,
      "instagram": null,
      "horario": null,
      "terraza": false,
      "musica": null,
      "fuente": "openstreetmap"
    },
    {
      "id": "osm_node_13359139623",
      "nombre": "Bar Sánchez churrería",
      "tipo": "cafe",
      "lat": 38.9134135,
      "lon": -6.3416145,
      "direccion": null,
      "codigo_postal": null,
      "telefono": "+34 673 90 52 28;+34 652 76 85 47",
      "web": null,
      "instagram": null,
      "horario": null,
      "terraza": false,
      "musica": null,
      "fuente": "openstreetmap"
    },
    {
      "id": "osm_node_13527522601",
      "nombre": "La Playa",
      "tipo": "bar",
      "lat": 20.9664064,
      "lon": -89.6407622,
      "direccion": null,
      "codigo_postal": null,
      "telefono": null,
      "web": null,
      "instagram": null,
      "horario": null,
      "terraza": false,
      "musica": null,
      "fuente": "openstreetmap"
    },
    {
      "id": "osm_node_13543569601",
      "nombre": "Alma Cálida",
      "tipo": "cafe",
      "lat": 20.9592278,
      "lon": -89.6307358,
      "direccion": "Calle 75 539",
      "codigo_postal": "97000",
      "telefono": null,
      "web": null,
      "instagram": null,
      "horario": null,
      "terraza": false,
      "musica": null,
      "fuente": "openstreetmap"
    },
    {
      "id": "osm_node_13598581201",
      "nombre": "Clandestino",
      "tipo": "cafe",
      "lat": 20.9807365,
      "lon": -89.6183641,
      "direccion": "Paseo de Montejo 468",
      "codigo_postal": "97000",
      "telefono": null,
      "web": null,
      "instagram": null,
      "horario": "Mo-Th 08:00-21:00; Fr-Su 09:00-23:00",
      "terraza": false,
      "musica": null,
      "fuente": "openstreetmap"
    },
    {
      "id": "osm_node_13672001001",
      "nombre": "Zynergia",
      "tipo": "cafe",
      "lat": 20.9700131,
      "lon": -89.6212322,
      "direccion": null,
      "codigo_postal": null,
      "telefono": null,
      "web": null,
      "instagram": null,
      "horario": null,
      "terraza": false,
      "musica": null,
      "fuente": "openstreetmap"
    },
    {
      "id": "osm_node_13672007202",
      "nombre": "Sempere",
      "tipo": "cafe",
      "lat": 20.9700523,
      "lon": -89.6238499,
      "direccion": "Calle 62 479",
      "codigo_postal": "97000",
      "telefono": "+52-999-1421999",
      "web": null,
      "instagram": null,
      "horario": "We-Su 08:00-20:00; Mo 09:00-16:00",
      "terraza": false,
      "musica": null,
      "fuente": "openstreetmap"
    },
    {
      "id": "osm_node_13672578001",
      "nombre": "Bardo",
      "tipo": "pub",
      "lat": 20.9753574,
      "lon": -89.621384,
      "direccion": null,
      "codigo_postal": null,
      "telefono": null,
      "web": null,
      "instagram": null,
      "horario": null,
      "terraza": false,
      "musica": null,
      "fuente": "openstreetmap"
    },
    {
      "id": "osm_node_13673361501",
      "nombre": "Beer Lovers",
      "tipo": "bar",
      "lat": 20.9729891,
      "lon": -89.6222027,
      "direccion": null,
      "codigo_postal": null,
      "telefono": null,
      "web": null,
      "instagram": null,
      "horario": null,
      "terraza": false,
      "musica": null,
      "fuente": "openstreetmap"
    },
    {
      "id": "osm_way_368527504",
      "nombre": "Cafeteria Fiuady",
      "tipo": "cafe",
      "lat": 21.049395,
      "lon": -89.641141,
      "direccion": null,
      "codigo_postal": null,
      "telefono": null,
      "web": null,
      "instagram": null,
      "horario": null,
      "terraza": true,
      "musica": null,
      "fuente": "openstreetmap"
    },
    {
      "id": "osm_way_541624107",
      "nombre": "Malabar",
      "tipo": "bar",
      "lat": 38.916426,
      "lon": -6.346055,
      "direccion": "Plaza de España 1 T",
      "codigo_postal": null,
      "telefono": null,
      "web": null,
      "instagram": null,
      "horario": null,
      "terraza": true,
      "musica": null,
      "fuente": "openstreetmap"
    },
    {
      "id": "osm_way_541624108",
      "nombre": "Chatino",
      "tipo": "bar",
      "lat": 38.916399,
      "lon": -6.346735,
      "direccion": "Plaza de España 1 D",
      "codigo_postal": null,
      "telefono": null,
      "web": null,
      "instagram": null,
      "horario": null,
      "terraza": true,
      "musica": null,
      "fuente": "openstreetmap"
    },
    {
      "id": "osm_way_541624109",
      "nombre": "La Burlona",
      "tipo": "bar",
      "lat": 38.916655,
      "lon": -6.346257,
      "direccion": "Plaza de España 1 D",
      "codigo_postal": null,
      "telefono": null,
      "web": null,
      "instagram": null,
      "horario": null,
      "terraza": true,
      "musica": null,
      "fuente": "openstreetmap"
    },
    {
      "id": "osm_way_547144627",
      "nombre": "Boston's Pizza",
      "tipo": "pub",
      "lat": 20.993832,
      "lon": -89.654276,
      "direccion": null,
      "codigo_postal": null,
      "telefono": "+52 800 267 8667",
      "web": "https://bostons.com.mx/merida/welcome",
      "instagram": "https://www.instagram.com/bostonsmerida",
      "horario": "Fr-Sa 13:00-01:00; Mo-Th,Su 13:00-24:00",
      "terraza": false,
      "musica": null,
      "fuente": "openstreetmap"
    },
    {
      "id": "osm_way_770857609",
      "nombre": "Tun Hortons",
      "tipo": "bar",
      "lat": 38.916154,
      "lon": -6.346537,
      "direccion": "Plaza de España 1 C",
      "codigo_postal": null,
      "telefono": null,
      "web": null,
      "instagram": null,
      "horario": null,
      "terraza": true,
      "musica": null,
      "fuente": "openstreetmap"
    },
    {
      "id": "osm_way_1011147129",
      "nombre": "Deliro Habanero Rumba Bar",
      "tipo": "bar",
      "lat": 20.988572,
      "lon": -89.660456,
      "direccion": null,
      "codigo_postal": null,
      "telefono": null,
      "web": null,
      "instagram": null,
      "horario": "We-Su 20:00-01:30; PH open",
      "terraza": true,
      "musica": null,
      "fuente": "openstreetmap"
    },
    {
      "id": "osm_way_1177973219",
      "nombre": "Midna´s Frappé  (Suc. Nueva Mayapan)",
      "tipo": "cafe",
      "lat": 20.976678,
      "lon": -89.589404,
      "direccion": "43 536-B",
      "codigo_postal": "97157",
      "telefono": "9996093349",
      "web": null,
      "instagram": null,
      "horario": null,
      "terraza": false,
      "musica": null,
      "fuente": "openstreetmap"
    },
    {
      "id": "osm_way_1248815305",
      "nombre": "Maiz Candela y Cilantro",
      "tipo": "cafe",
      "lat": 20.972151,
      "lon": -89.627987,
      "direccion": null,
      "codigo_postal": null,
      "telefono": null,
      "web": null,
      "instagram": null,
      "horario": null,
      "terraza": false,
      "musica": null,
      "fuente": "openstreetmap"
    },
    {
      "id": "osm_way_1272145503",
      "nombre": "Starbucks",
      "tipo": "cafe",
      "lat": 20.984967,
      "lon": -89.618151,
      "direccion": null,
      "codigo_postal": null,
      "telefono": null,
      "web": null,
      "instagram": null,
      "horario": null,
      "terraza": false,
      "musica": null,
      "fuente": "openstreetmap"
    },
    {
      "id": "osm_way_1275247720",
      "nombre": "Starbucks",
      "tipo": "cafe",
      "lat": 21.028929,
      "lon": -89.625467,
      "direccion": null,
      "codigo_postal": null,
      "telefono": null,
      "web": null,
      "instagram": null,
      "horario": null,
      "terraza": false,
      "musica": null,
      "fuente": "openstreetmap"
    },
    {
      "id": "osm_way_1276025141",
      "nombre": "Mulata",
      "tipo": "bar",
      "lat": 20.999732,
      "lon": -89.681982,
      "direccion": null,
      "codigo_postal": null,
      "telefono": null,
      "web": null,
      "instagram": null,
      "horario": null,
      "terraza": false,
      "musica": null,
      "fuente": "openstreetmap"
    },
    {
      "id": "osm_way_1317494557",
      "nombre": "Bar Xcalanchén",
      "tipo": "pub",
      "lat": 20.946705,
      "lon": -89.631782,
      "direccion": null,
      "codigo_postal": null,
      "telefono": null,
      "web": null,
      "instagram": null,
      "horario": null,
      "terraza": false,
      "musica": null,
      "fuente": "openstreetmap"
    },
    {
      "id": "osm_way_1358496780",
      "nombre": "Bellaqueo Mérida",
      "tipo": "bar",
      "lat": 20.991654,
      "lon": -89.652311,
      "direccion": "Calle 50",
      "codigo_postal": null,
      "telefono": null,
      "web": null,
      "instagram": null,
      "horario": null,
      "terraza": false,
      "musica": null,
      "fuente": "openstreetmap"
    },
    {
      "id": "osm_way_1359255105",
      "nombre": "Botanero Veitiuno",
      "tipo": "bar",
      "lat": 21.040695,
      "lon": -89.632941,
      "direccion": null,
      "codigo_postal": null,
      "telefono": null,
      "web": null,
      "instagram": null,
      "horario": null,
      "terraza": false,
      "musica": null,
      "fuente": "openstreetmap"
    },
    {
      "id": "osm_way_1359694139",
      "nombre": "El Palacio del Billar",
      "tipo": "bar",
      "lat": 21.018686,
      "lon": -89.580146,
      "direccion": null,
      "codigo_postal": null,
      "telefono": null,
      "web": null,
      "instagram": null,
      "horario": null,
      "terraza": false,
      "musica": null,
      "fuente": "openstreetmap"
    },
    {
      "id": "osm_way_1359967096",
      "nombre": "Juan Valdez Café",
      "tipo": "cafe",
      "lat": 21.022403,
      "lon": -89.606599,
      "direccion": null,
      "codigo_postal": null,
      "telefono": null,
      "web": null,
      "instagram": null,
      "horario": null,
      "terraza": false,
      "musica": null,
      "fuente": "openstreetmap"
    },
    {
      "id": "osm_way_1359967101",
      "nombre": "Taproom Mastache",
      "tipo": "pub",
      "lat": 21.021955,
      "lon": -89.608672,
      "direccion": null,
      "codigo_postal": null,
      "telefono": null,
      "web": null,
      "instagram": null,
      "horario": null,
      "terraza": false,
      "musica": null,
      "fuente": "openstreetmap"
    },
    {
      "id": "osm_way_1364376650",
      "nombre": "El Rey del Barrio",
      "tipo": "bar",
      "lat": 20.949873,
      "lon": -89.592621,
      "direccion": null,
      "codigo_postal": null,
      "telefono": null,
      "web": null,
      "instagram": null,
      "horario": null,
      "terraza": false,
      "musica": null,
      "fuente": "openstreetmap"
    },
    {
      "id": "osm_way_1376164840",
      "nombre": "Cocos Litros",
      "tipo": "bar",
      "lat": 21.020639,
      "lon": -89.620248,
      "direccion": null,
      "codigo_postal": null,
      "telefono": null,
      "web": null,
      "instagram": null,
      "horario": null,
      "terraza": false,
      "musica": null,
      "fuente": "openstreetmap"
    },
    {
      "id": "osm_way_1376566053",
      "nombre": "Starbucks",
      "tipo": "cafe",
      "lat": 20.997817,
      "lon": -89.612308,
      "direccion": null,
      "codigo_postal": null,
      "telefono": null,
      "web": null,
      "instagram": null,
      "horario": null,
      "terraza": false,
      "musica": null,
      "fuente": "openstreetmap"
    },
    {
      "id": "osm_way_1415092876",
      "nombre": "El Palacio del Billar",
      "tipo": "pub",
      "lat": 21.010927,
      "lon": -89.61327,
      "direccion": "Prolongación Paseo Montejo",
      "codigo_postal": null,
      "telefono": null,
      "web": null,
      "instagram": null,
      "horario": null,
      "terraza": false,
      "musica": null,
      "fuente": "openstreetmap"
    },
    {
      "id": "osm_way_1421078056",
      "nombre": "Starbucks",
      "tipo": "cafe",
      "lat": 20.990656,
      "lon": -89.64911,
      "direccion": null,
      "codigo_postal": null,
      "telefono": null,
      "web": null,
      "instagram": null,
      "horario": null,
      "terraza": false,
      "musica": null,
      "fuente": "openstreetmap"
    }
  ]
}