{
  "ciudad": "Oviedo",
  "total": 581,
  "locales": [
    {
      "id": "osm_node_995060797",
      "nombre": "La Tía Paca",
      "tipo": "bar",
      "lat": 43.3602512,
      "lon": -5.844526,
      "direccion": "Plaza de la Constitución 11",
      "codigo_postal": "33009",
      "telefono": "+34 615 86 29 28",
      "web": null,
      "instagram": null,
      "horario": null,
      "terraza": true
    },
    {
      "id": "osm_node_995060814",
      "nombre": "Cervecería Café Tamargo",
      "tipo": "bar",
      "lat": 43.3597693,
      "lon": -5.8398202,
      "direccion": "Plaza Benito Gallego Casado",
      "codigo_postal": "33009",
      "telefono": null,
      "web": null,
      "instagram": null,
      "horario": null,
      "terraza": false
    },
    {
      "id": "osm_node_995060816",
      "nombre": "La CBB",
      "tipo": "bar",
      "lat": 43.3602347,
      "lon": -5.8399853,
      "direccion": null,
      "codigo_postal": null,
      "telefono": null,
      "web": null,
      "instagram": null,
      "horario": null,
      "terraza": true
    },
    {
      "id": "osm_node_1670998172",
      "nombre": "Cafetería Munich",
      "tipo": "cafe",
      "lat": 43.3595851,
      "lon": -5.850595,
      "direccion": null,
      "codigo_postal": null,
      "telefono": null,
      "web": null,
      "instagram": null,
      "horario": null,
      "terraza": false
    },
    {
      "id": "osm_node_1968933715",
      "nombre": "Nuevo Ayala",
      "tipo": "cafe",
      "lat": 43.3633703,
      "lon": -5.8555378,
      "direccion": null,
      "codigo_postal": null,
      "telefono": null,
      "web": null,
      "instagram": null,
      "horario": null,
      "terraza": false
    },
    {
      "id": "osm_node_1975113630",
      "nombre": "Restaurante Casa Eleuterio",
      "tipo": "bar",
      "lat": 43.3318385,
      "lon": -5.93346,
      "direccion": null,
      "codigo_postal": null,
      "telefono": null,
      "web": null,
      "instagram": null,
      "horario": null,
      "terraza": false
    },
    {
      "id": "osm_node_1993161524",
      "nombre": "Cafetería Oxford",
      "tipo": "cafe",
      "lat": 43.3618494,
      "lon": -5.8470707,
      "direccion": null,
      "codigo_postal": null,
      "telefono": null,
      "web": null,
      "instagram": null,
      "horario": null,
      "terraza": false
    },
    {
      "id": "osm_node_2006593009",
      "nombre": "El Cafe Julio",
      "tipo": "cafe",
      "lat": 43.3601965,
      "lon": -5.8441086,
      "direccion": null,
      "codigo_postal": null,
      "telefono": null,
      "web": null,
      "instagram": null,
      "horario": null,
      "terraza": true
    },
    {
      "id": "osm_node_2197112482",
      "nombre": "Restaurante La Senda",
      "tipo": "bar",
      "lat": 43.3316619,
      "lon": -5.9337356,
      "direccion": null,
      "codigo_postal": null,
      "telefono": null,
      "web": null,
      "instagram": null,
      "horario": null,
      "terraza": false
    },
    {
      "id": "osm_node_2197125588",
      "nombre": "Bar El Peón",
      "tipo": "bar",
      "lat": 43.3314614,
      "lon": -5.9258634,
      "direccion": null,
      "codigo_postal": null,
      "telefono": null,
      "web": null,
      "instagram": null,
      "horario": null,
      "terraza": false
    },
    {
      "id": "osm_node_2225581147",
      "nombre": "Bar La Estación",
      "tipo": "bar",
      "lat": 43.3554339,
      "lon": -5.9180954,
      "direccion": "Carretera Estación 51",
      "codigo_postal": "33191",
      "telefono": null,
      "web": null,
      "instagram": null,
      "horario": null,
      "terraza": false
    },
    {
      "id": "osm_node_2244479852",
      "nombre": "Las Palmeras",
      "tipo": "bar",
      "lat": 43.3590574,
      "lon": -5.9177781,
      "direccion": "Carretera la Estacion 5",
      "codigo_postal": "33191",
      "telefono": null,
      "web": null,
      "instagram": null,
      "horario": null,
      "terraza": false
    },
    {
      "id": "osm_node_2270431779",
      "nombre": "Bar Restaurante Casa Valdes",
      "tipo": "bar",
      "lat": 43.3796838,
      "lon": -5.9262267,
      "direccion": null,
      "codigo_postal": null,
      "telefono": null,
      "web": null,
      "instagram": null,
      "horario": null,
      "terraza": false
    },
    {
      "id": "osm_node_2272863355",
      "nombre": "La Viña",
      "tipo": "bar",
      "lat": 43.3570094,
      "lon": -5.9188252,
      "direccion": null,
      "codigo_postal": null,
      "telefono": null,
      "web": null,
      "instagram": null,
      "horario": null,
      "terraza": false
    },
    {
      "id": "osm_node_2272863413",
      "nombre": "Cafe Bar Isis",
      "tipo": "bar",
      "lat": 43.3582576,
      "lon": -5.9182199,
      "direccion": null,
      "codigo_postal": null,
      "telefono": null,
      "web": null,
      "instagram": null,
      "horario": null,
      "terraza": false
    },
    {
      "id": "osm_node_2272863452",
      "nombre": "La Tapadera",
      "tipo": "bar",
      "lat": 43.3598119,
      "lon": -5.9177417,
      "direccion": null,
      "codigo_postal": null,
      "telefono": null,
      "web": null,
      "instagram": null,
      "horario": null,
      "terraza": false
    },
    {
      "id": "osm_node_2274238216",
      "nombre": "Sidreria La Canciella",
      "tipo": "bar",
      "lat": 43.3596014,
      "lon": -5.9172167,
      "direccion": null,
      "codigo_postal": null,
      "telefono": null,
      "web": null,
      "instagram": null,
      "horario": null,
      "terraza": false
    },
    {
      "id": "osm_node_2274238234",
      "nombre": "Bar Tahoces",
      "tipo": "bar",
      "lat": 43.3595703,
      "lon": -5.9173254,
      "direccion": null,
      "codigo_postal": null,
      "telefono": null,
      "web": null,
      "instagram": null,
      "horario": null,
      "terraza": false
    },
    {
      "id": "osm_node_2294788078",
      "nombre": "Arde París",
      "tipo": "pub",
      "lat": 43.3605056,
      "lon": -5.8428242,
      "direccion": "Calle del Postigo Alto",
      "codigo_postal": null,
      "telefono": null,
      "web": null,
      "instagram": null,
      "horario": null,
      "terraza": false
    },
    {
      "id": "osm_node_2295886870",
      "nombre": "La Perrera",
      "tipo": "pub",
      "lat": 43.3605336,
      "lon": -5.8427183,
      "direccion": "Calle del Postigo Alto",
      "codigo_postal": null,
      "telefono": null,
      "web": null,
      "instagram": null,
      "horario": null,
      "terraza": false
    },
    {
      "id": "osm_node_2295886873",
      "nombre": "La Luna",
      "tipo": "pub",
      "lat": 43.3605536,
      "lon": -5.8426251,
      "direccion": "Calle del Postigo Alto",
      "codigo_postal": null,
      "telefono": null,
      "web": null,
      "instagram": null,
      "horario": null,
      "terraza": false
    },
    {
      "id": "osm_node_2295886877",
      "nombre": "La Factoría",
      "tipo": "pub",
      "lat": 43.3603641,
      "lon": -5.8432036,
      "direccion": "Calle del Postigo Alto",
      "codigo_postal": null,
      "telefono": null,
      "web": null,
      "instagram": null,
      "horario": null,
      "terraza": false
    },
    {
      "id": "osm_node_2295886880",
      "nombre": "Radio",
      "tipo": "pub",
      "lat": 43.3603274,
      "lon": -5.8429005,
      "direccion": null,
      "codigo_postal": null,
      "telefono": null,
      "web": null,
      "instagram": null,
      "horario": null,
      "terraza": false
    },
    {
      "id": "osm_node_2295886883",
      "nombre": "Campa",
      "tipo": "bar",
      "lat": 43.3602886,
      "lon": -5.8440724,
      "direccion": null,
      "codigo_postal": null,
      "telefono": null,
      "web": null,
      "instagram": null,
      "horario": null,
      "terraza": false
    },
    {
      "id": "osm_node_2295904413",
      "nombre": "El Paraguas",
      "tipo": "pub",
      "lat": 43.3606148,
      "lon": -5.8429255,
      "direccion": null,
      "codigo_postal": null,
      "telefono": null,
      "web": null,
      "instagram": null,
      "horario": null,
      "terraza": false
    },
    {
      "id": "osm_node_2297547626",
      "nombre": "El Roque",
      "tipo": "bar",
      "lat": 43.3595563,
      "lon": -5.9181209,
      "direccion": null,
      "codigo_postal": null,
      "telefono": null,
      "web": null,
      "instagram": null,
      "horario": null,
      "terraza": false
    },
    {
      "id": "osm_node_2353292674",
      "nombre": "Flandes",
      "tipo": "bar",
      "lat": 43.3674657,
      "lon": -5.8445361,
      "direccion": "Calle Joaquín Vaquero Palacios",
      "codigo_postal": null,
      "telefono": null,
      "web": null,
      "instagram": null,
      "horario": null,
      "terraza": true
    },
    {
      "id": "osm_node_2353292675",
      "nombre": "Onde Rober",
      "tipo": "bar",
      "lat": 43.3676313,
      "lon": -5.8454906,
      "direccion": null,
      "codigo_postal": null,
      "telefono": null,
      "web": null,
      "instagram": null,
      "horario": null,
      "terraza": false
    },
    {
      "id": "osm_node_2353303110",
      "nombre": "La Salvaje",
      "tipo": "pub",
      "lat": 43.3640819,
      "lon": -5.8421011,
      "direccion": "Calle Martínez Vigil",
      "codigo_postal": null,
      "telefono": null,
      "web": "https://www.lasalvajeoviedo.com/",
      "instagram": null,
      "horario": null,
      "terraza": false
    },
    {
      "id": "osm_node_2353323707",
      "nombre": "El Duende",
      "tipo": "bar",
      "lat": 43.344484,
      "lon": -5.9723323,
      "direccion": "Calle Aranjuez 18",
      "codigo_postal": "33119",
      "telefono": "+34 985 78 46 63",
      "web": null,
      "instagram": null,
      "horario": "Tu-Su 09:00-00:00",
      "terraza": false
    },
    {
      "id": "osm_node_2361461905",
      "nombre": "Café Pertierra",
      "tipo": "cafe",
      "lat": 43.369573,
      "lon": -5.8423186,
      "direccion": "Calle Historiador Juan Uria",
      "codigo_postal": null,
      "telefono": null,
      "web": null,
      "instagram": null,
      "horario": null,
      "terraza": true
    },
    {
      "id": "osm_node_2393978639",
      "nombre": "Km 0",
      "tipo": "bar",
      "lat": 43.3555485,
      "lon": -5.8436666,
      "direccion": "Calle Arzobispo Guisasola 34",
      "codigo_postal": "33009",
      "telefono": "+34 985219549",
      "web": null,
      "instagram": null,
      "horario": null,
      "terraza": false
    },
    {
      "id": "osm_node_2405561565",
      "nombre": "De buena mañana",
      "tipo": "bar",
      "lat": 43.3720524,
      "lon": -5.8493356,
      "direccion": "Calle Calderón de la Barca",
      "codigo_postal": "33012",
      "telefono": null,
      "web": null,
      "instagram": null,
      "horario": "Mo-Su,PH 07:00-19:00",
      "terraza": false
    },
    {
      "id": "osm_node_2405563403",
      "nombre": "El Choque",
      "tipo": "bar",
      "lat": 43.3657246,
      "lon": -5.8695474,
      "direccion": "Favila",
      "codigo_postal": null,
      "telefono": null,
      "web": null,
      "instagram": null,
      "horario": null,
      "terraza": false
    },
    {
      "id": "osm_node_2568343239",
      "nombre": "La Cala",
      "tipo": "cafe",
      "lat": 43.3635034,
      "lon": -5.8549082,
      "direccion": null,
      "codigo_postal": null,
      "telefono": null,
      "web": null,
      "instagram": null,
      "horario": null,
      "terraza": false
    },
    {
      "id": "osm_node_2568421462",
      "nombre": "ThunderBitch Club",
      "tipo": "pub",
      "lat": 43.3635694,
      "lon": -5.8461586,
      "direccion": "Calle Luna 11",
      "codigo_postal": "33001",
      "telefono": null,
      "web": "http://www.dannysjazz.es/",
      "instagram": null,
      "horario": null,
      "terraza": false
    },
    {
      "id": "osm_node_2694606960",
      "nombre": "La Paloma",
      "tipo": "pub",
      "lat": 43.3648802,
      "lon": -5.8532771,
      "direccion": "Independencia 3",
      "codigo_postal": null,
      "telefono": "+34 985235397",
      "web": null,
      "instagram": null,
      "horario": null,
      "terraza": true
    },
    {
      "id": "osm_node_2694656049",
      "nombre": "Café Sherlock",
      "tipo": "pub",
      "lat": 43.3665653,
      "lon": -5.8533648,
      "direccion": null,
      "codigo_postal": null,
      "telefono": null,
      "web": null,
      "instagram": null,
      "horario": null,
      "terraza": false
    },
    {
      "id": "osm_node_2694657268",
      "nombre": "El Paripé",
      "tipo": "pub",
      "lat": 43.3666763,
      "lon": -5.8531988,
      "direccion": null,
      "codigo_postal": null,
      "telefono": null,
      "web": null,
      "instagram": null,
      "horario": null,
      "terraza": false
    },
    {
      "id": "osm_node_2694658030",
      "nombre": "Oviedo Cocktail",
      "tipo": "pub",
      "lat": 43.3664583,
      "lon": -5.8529438,
      "direccion": null,
      "codigo_postal": null,
      "telefono": null,
      "web": null,
      "instagram": null,
      "horario": null,
      "terraza": true
    },
    {
      "id": "osm_node_2694658183",
      "nombre": "Bodega Avelino",
      "tipo": "pub",
      "lat": 43.3666328,
      "lon": -5.8530217,
      "direccion": null,
      "codigo_postal": null,
      "telefono": null,
      "web": null,
      "instagram": null,
      "horario": null,
      "terraza": false
    },
    {
      "id": "osm_node_2694659036",
      "nombre": "El Antiguo Molinillo",
      "tipo": "pub",
      "lat": 43.3665935,
      "lon": -5.852862,
      "direccion": null,
      "codigo_postal": null,
      "telefono": null,
      "web": null,
      "instagram": null,
      "horario": null,
      "terraza": true
    },
    {
      "id": "osm_node_2694659500",
      "nombre": "Secreto a voces",
      "tipo": "pub",
      "lat": 43.3665502,
      "lon": -5.852686,
      "direccion": null,
      "codigo_postal": null,
      "telefono": null,
      "web": null,
      "instagram": null,
      "horario": null,
      "terraza": false
    },
    {
      "id": "osm_node_2694660734",
      "nombre": "El Valle",
      "tipo": "pub",
      "lat": 43.3664985,
      "lon": -5.852476,
      "direccion": "Calle Manuel Pedregal 6",
      "codigo_postal": null,
      "telefono": null,
      "web": null,
      "instagram": null,
      "horario": null,
      "terraza": true
    },
    {
      "id": "osm_node_2694672810",
      "nombre": "Monalisa",
      "tipo": "pub",
      "lat": 43.3663146,
      "lon": -5.8523788,
      "direccion": null,
      "codigo_postal": null,
      "telefono": null,
      "web": null,
      "instagram": null,
      "horario": null,
      "terraza": true
    },
    {
      "id": "osm_node_2746953572",
      "nombre": "El Bodegón de Teatinos",
      "tipo": "bar",
      "lat": 43.3711903,
      "lon": -5.8352208,
      "direccion": null,
      "codigo_postal": null,
      "telefono": null,
      "web": null,
      "instagram": null,
      "horario": null,
      "terraza": false
    },
    {
      "id": "osm_node_2746954335",
      "nombre": "La Botica Indiana",
      "tipo": "bar",
      "lat": 43.3715415,
      "lon": -5.8358592,
      "direccion": "Calle Puerto de San Isidro",
      "codigo_postal": "33011",
      "telefono": null,
      "web": null,
      "instagram": null,
      "horario": null,
      "terraza": false
    },
    {
      "id": "osm_node_2746956047",
      "nombre": "Casa Carmina",
      "tipo": "bar",
      "lat": 43.3715957,
      "lon": -5.8366872,
      "direccion": "Calle Bermúdez de Castro",
      "codigo_postal": "33011",
      "telefono": null,
      "web": null,
      "instagram": null,
      "horario": null,
      "terraza": false
    },
    {
      "id": "osm_node_2751585035",
      "nombre": "Zoo",
      "tipo": "bar",
      "lat": 43.3616581,
      "lon": -5.8426051,
      "direccion": "Calle Canóniga",
      "codigo_postal": null,
      "telefono": null,
      "web": null,
      "instagram": null,
      "horario": null,
      "terraza": false
    },
    {
      "id": "osm_node_2751585045",
      "nombre": "Per Se",
      "tipo": "pub",
      "lat": 43.3617671,
      "lon": -5.8422035,
      "direccion": "Calle Canóniga 18",
      "codigo_postal": "33003",
      "telefono": null,
      "web": null,
      "instagram": null,
      "horario": null,
      "terraza": true
    },
    {
      "id": "osm_node_2751585047",
      "nombre": "El Mami",
      "tipo": "pub",
      "lat": 43.3615369,
      "lon": -5.8428884,
      "direccion": "Calle Canóniga 8",
      "codigo_postal": "33003",
      "telefono": null,
      "web": null,
      "instagram": null,
      "horario": null,
      "terraza": false
    },
    {
      "id": "osm_node_2751587220",
      "nombre": "Chevrolet",
      "tipo": "pub",
      "lat": 43.361404,
      "lon": -5.8441415,
      "direccion": null,
      "codigo_postal": null,
      "telefono": null,
      "web": null,
      "instagram": null,
      "horario": null,
      "terraza": true
    },
    {
      "id": "osm_node_2751587224",
      "nombre": "BolaBana",
      "tipo": "pub",
      "lat": 43.3616003,
      "lon": -5.8451785,
      "direccion": "Calle Altamirano 6",
      "codigo_postal": "33003",
      "telefono": null,
      "web": null,
      "instagram": null,
      "horario": null,
      "terraza": false
    },
    {
      "id": "osm_node_2751600803",
      "nombre": "Kibo bar",
      "tipo": "bar",
      "lat": 43.3628236,
      "lon": -5.8441325,
      "direccion": null,
      "codigo_postal": null,
      "telefono": null,
      "web": null,
      "instagram": null,
      "horario": null,
      "terraza": true
    },
    {
      "id": "osm_node_2751600804",
      "nombre": "El molinón",
      "tipo": "pub",
      "lat": 43.3634575,
      "lon": -5.8440013,
      "direccion": null,
      "codigo_postal": null,
      "telefono": "+34 984 06 15 89",
      "web": null,
      "instagram": null,
      "horario": null,
      "terraza": true
    },
    {
      "id": "osm_node_2751609184",
      "nombre": "El Reloj de Porlier",
      "tipo": "pub",
      "lat": 43.3621156,
      "lon": -5.8458612,
      "direccion": null,
      "codigo_postal": null,
      "telefono": null,
      "web": null,
      "instagram": null,
      "horario": null,
      "terraza": true
    },
    {
      "id": "osm_node_3049072819",
      "nombre": "Bar de IZA Motor",
      "tipo": "bar",
      "lat": 43.3677901,
      "lon": -5.8476002,
      "direccion": "Calle Llano Ponte 16",
      "codigo_postal": "33011",
      "telefono": null,
      "web": null,
      "instagram": null,
      "horario": null,
      "terraza": false
    },
    {
      "id": "osm_node_3050242197",
      "nombre": "Magazine",
      "tipo": "cafe",
      "lat": 43.3636931,
      "lon": -5.8464252,
      "direccion": "Plaza del Carbayón 7",
      "codigo_postal": "33001",
      "telefono": "+34 985212205",
      "web": "http://magazineoviedo.com/",
      "instagram": null,
      "horario": "Mo-Fr 08:00-21:00; Sa 19:00-18:00+",
      "terraza": true
    },
    {
      "id": "osm_node_3074086888",
      "nombre": "El Buen Rincón",
      "tipo": "cafe",
      "lat": 43.3661701,
      "lon": -5.875907,
      "direccion": null,
      "codigo_postal": null,
      "telefono": null,
      "web": null,
      "instagram": null,
      "horario": null,
      "terraza": true
    },
    {
      "id": "osm_node_3074242062",
      "nombre": "Vinoteca 43º 22'",
      "tipo": "bar",
      "lat": 43.3671291,
      "lon": -5.8745888,
      "direccion": null,
      "codigo_postal": null,
      "telefono": null,
      "web": null,
      "instagram": null,
      "horario": null,
      "terraza": true
    },
    {
      "id": "osm_node_3074257011",
      "nombre": "La Latería",
      "tipo": "pub",
      "lat": 43.3683422,
      "lon": -5.8720442,
      "direccion": "Paseo de La Florida 26",
      "codigo_postal": "33012",
      "telefono": null,
      "web": null,
      "instagram": null,
      "horario": null,
      "terraza": true
    },
    {
      "id": "osm_node_3074711870",
      "nombre": "Las Canteronas - café tapas",
      "tipo": "cafe",
      "lat": 43.3686886,
      "lon": -5.8674649,
      "direccion": null,
      "codigo_postal": null,
      "telefono": null,
      "web": null,
      "instagram": null,
      "horario": null,
      "terraza": false
    },
    {
      "id": "osm_node_3075114655",
      "nombre": "Donde el jamón",
      "tipo": "cafe",
      "lat": 43.3614764,
      "lon": -5.8572365,
      "direccion": null,
      "codigo_postal": null,
      "telefono": null,
      "web": null,
      "instagram": null,
      "horario": null,
      "terraza": false
    },
    {
      "id": "osm_node_3079207591",
      "nombre": "Sidrería Castil",
      "tipo": "bar",
      "lat": 43.368381,
      "lon": -5.866032,
      "direccion": "Calle Vázquez de Mella 68",
      "codigo_postal": "33012",
      "telefono": null,
      "web": null,
      "instagram": null,
      "horario": null,
      "terraza": false
    },
    {
      "id": "osm_node_3079207592",
      "nombre": "Cafetería Rombos",
      "tipo": "cafe",
      "lat": 43.368713,
      "lon": -5.8664175,
      "direccion": "Calle Vázquez de Mella 76",
      "codigo_postal": "33012",
      "telefono": null,
      "web": null,
      "instagram": null,
      "horario": null,
      "terraza": false
    },
    {
      "id": "osm_node_3080812217",
      "nombre": "El Café de la Tierra",
      "tipo": "cafe",
      "lat": 43.3680822,
      "lon": -5.8683103,
      "direccion": "Calle Mateo Llana Díaz-Estébanez 4",
      "codigo_postal": "33012",
      "telefono": null,
      "web": null,
      "instagram": null,
      "horario": null,
      "terraza": false
    },
    {
      "id": "osm_node_3080812218",
      "nombre": "El Viejo Roble",
      "tipo": "cafe",
      "lat": 43.3678687,
      "lon": -5.8684871,
      "direccion": "Calle Mateo Llana Díaz-Estébanez 6",
      "codigo_postal": "33012",
      "telefono": null,
      "web": null,
      "instagram": null,
      "horario": null,
      "terraza": false
    },
    {
      "id": "osm_node_3080812220",
      "nombre": "La Taberna de Arni",
      "tipo": "cafe",
      "lat": 43.3676837,
      "lon": -5.8685493,
      "direccion": "Calle Mateo Llana Díaz-Estébanez 6",
      "codigo_postal": "33012",
      "telefono": null,
      "web": null,
      "instagram": null,
      "horario": null,
      "terraza": false
    },
    {
      "id": "osm_node_3080821797",
      "nombre": "El Cafetín del Paseo",
      "tipo": "cafe",
      "lat": 43.3687074,
      "lon": -5.8691209,
      "direccion": "Paseo de La Florida 4",
      "codigo_postal": "33012",
      "telefono": null,
      "web": null,
      "instagram": null,
      "horario": null,
      "terraza": true
    },
    {
      "id": "osm_node_3080824420",
      "nombre": "Café Bulevar",
      "tipo": "cafe",
      "lat": 43.3683857,
      "lon": -5.8715385,
      "direccion": "Paseo de La Florida 22",
      "codigo_postal": "33012",
      "telefono": null,
      "web": null,
      "instagram": null,
      "horario": null,
      "terraza": false
    },
    {
      "id": "osm_node_3081647490",
      "nombre": "Taza&Media",
      "tipo": "cafe",
      "lat": 43.3669924,
      "lon": -5.868395,
      "direccion": "Calle Aurora Albornoz 17",
      "codigo_postal": "33012",
      "telefono": null,
      "web": null,
      "instagram": null,
      "horario": null,
      "terraza": false
    },
    {
      "id": "osm_node_3084309677",
      "nombre": "Raymond's Pub",
      "tipo": "pub",
      "lat": 43.3675944,
      "lon": -5.8669822,
      "direccion": null,
      "codigo_postal": null,
      "telefono": null,
      "web": null,
      "instagram": null,
      "horario": null,
      "terraza": false
    },
    {
      "id": "osm_node_3151371874",
      "nombre": "Sidreria \"Na x Na\"",
      "tipo": "bar",
      "lat": 43.297729,
      "lon": -5.8203494,
      "direccion": null,
      "codigo_postal": null,
      "telefono": null,
      "web": null,
      "instagram": null,
      "horario": null,
      "terraza": false
    },
    {
      "id": "osm_node_3357988255",
      "nombre": "Siroco",
      "tipo": "cafe",
      "lat": 43.3645693,
      "lon": -5.8717438,
      "direccion": null,
      "codigo_postal": null,
      "telefono": null,
      "web": null,
      "instagram": null,
      "horario": null,
      "terraza": true
    },
    {
      "id": "osm_node_3359885424",
      "nombre": "48 Miñor",
      "tipo": "bar",
      "lat": 43.3634449,
      "lon": -5.8651542,
      "direccion": null,
      "codigo_postal": null,
      "telefono": null,
      "web": null,
      "instagram": null,
      "horario": null,
      "terraza": false
    },
    {
      "id": "osm_node_3359885425",
      "nombre": "El Mito",
      "tipo": "pub",
      "lat": 43.3633626,
      "lon": -5.8649706,
      "direccion": null,
      "codigo_postal": null,
      "telefono": null,
      "web": null,
      "instagram": null,
      "horario": null,
      "terraza": false
    },
    {
      "id": "osm_node_3425325659",
      "nombre": "Cafetería Aumente",
      "tipo": "cafe",
      "lat": 43.3574015,
      "lon": -5.8708399,
      "direccion": null,
      "codigo_postal": null,
      "telefono": null,
      "web": null,
      "instagram": null,
      "horario": null,
      "terraza": true
    },
    {
      "id": "osm_node_3455198475",
      "nombre": "Xolot",
      "tipo": "bar",
      "lat": 43.365033,
      "lon": -5.8861085,
      "direccion": null,
      "codigo_postal": null,
      "telefono": null,
      "web": null,
      "instagram": null,
      "horario": null,
      "terraza": false
    },
    {
      "id": "osm_node_3455203421",
      "nombre": "Espumeru",
      "tipo": "bar",
      "lat": 43.3652923,
      "lon": -5.8857035,
      "direccion": null,
      "codigo_postal": null,
      "telefono": null,
      "web": null,
      "instagram": null,
      "horario": null,
      "terraza": false
    },
    {
      "id": "osm_node_3528013822",
      "nombre": "La Tapina Sixtina",
      "tipo": "pub",
      "lat": 43.3678598,
      "lon": -5.8514684,
      "direccion": null,
      "codigo_postal": null,
      "telefono": "+34 984 182 396",
      "web": null,
      "instagram": null,
      "horario": null,
      "terraza": true
    },
    {
      "id": "osm_node_3714874425",
      "nombre": "Café Cadillac",
      "tipo": "cafe",
      "lat": 43.3668538,
      "lon": -5.8564069,
      "direccion": null,
      "codigo_postal": null,
      "telefono": null,
      "web": null,
      "instagram": null,
      "horario": null,
      "terraza": true
    },
    {
      "id": "osm_node_3716371823",
      "nombre": "Café Galeno",
      "tipo": "cafe",
      "lat": 43.3607203,
      "lon": -5.8573808,
      "direccion": null,
      "codigo_postal": null,
      "telefono": null,
      "web": null,
      "instagram": null,
      "horario": null,
      "terraza": false
    },
    {
      "id": "osm_node_3748137025",
      "nombre": "El Cafetal",
      "tipo": "cafe",
      "lat": 43.3676692,
      "lon": -5.8508351,
      "direccion": null,
      "codigo_postal": null,
      "telefono": null,
      "web": null,
      "instagram": null,
      "horario": null,
      "terraza": true
    },
    {
      "id": "osm_node_3752493025",
      "nombre": "Rosé",
      "tipo": "cafe",
      "lat": 43.3611215,
      "lon": -5.8538893,
      "direccion": "Calle Santa Teresa de Jesús 20",
      "codigo_postal": "33005",
      "telefono": null,
      "web": null,
      "instagram": "caferose.oviedo",
      "horario": null,
      "terraza": true
    },
    {
      "id": "osm_node_3842383315",
      "nombre": "Las Mestas",
      "tipo": "pub",
      "lat": 43.3607097,
      "lon": -5.8434314,
      "direccion": null,
      "codigo_postal": null,
      "telefono": null,
      "web": null,
      "instagram": null,
      "horario": null,
      "terraza": false
    },
    {
      "id": "osm_node_3858930959",
      "nombre": "La Llegra",
      "tipo": "pub",
      "lat": 43.3619616,
      "lon": -5.8400379,
      "direccion": "El Postigu Baxu 40",
      "codigo_postal": "33003",
      "telefono": null,
      "web": null,
      "instagram": null,
      "horario": null,
      "terraza": false
    },
    {
      "id": "osm_node_4073026922",
      "nombre": "El Refugio del Carbayón",
      "tipo": "pub",
      "lat": 43.3634793,
      "lon": -5.8416141,
      "direccion": "Calle Azcárraga",
      "codigo_postal": null,
      "telefono": null,
      "web": null,
      "instagram": null,
      "horario": null,
      "terraza": false
    },
    {
      "id": "osm_node_4084102885",
      "nombre": "L'Esperteyu",
      "tipo": "pub",
      "lat": 43.363801,
      "lon": -5.8424052,
      "direccion": "Calle Martínez Vigil 1",
      "codigo_postal": "33003",
      "telefono": "+34 985 20 33 96",
      "web": null,
      "instagram": null,
      "horario": "Su-Th 17:00-03:30; Fr-Sa 17:00-05:30",
      "terraza": false
    },
    {
      "id": "osm_node_4201939123",
      "nombre": "Cafeteria Antares",
      "tipo": "cafe",
      "lat": 43.3684522,
      "lon": -5.8386726,
      "direccion": "Plaza de Santullano 22",
      "codigo_postal": "33011",
      "telefono": null,
      "web": null,
      "instagram": null,
      "horario": null,
      "terraza": false
    },
    {
      "id": "osm_node_4362994498",
      "nombre": "Lira",
      "tipo": "cafe",
      "lat": 43.3571586,
      "lon": -5.8520732,
      "direccion": null,
      "codigo_postal": null,
      "telefono": null,
      "web": null,
      "instagram": null,
      "horario": null,
      "terraza": true
    },
    {
      "id": "osm_node_4394677019",
      "nombre": "Café Wolf",
      "tipo": "cafe",
      "lat": 43.3636828,
      "lon": -5.855007,
      "direccion": null,
      "codigo_postal": null,
      "telefono": null,
      "web": null,
      "instagram": null,
      "horario": null,
      "terraza": false
    },
    {
      "id": "osm_node_4394677489",
      "nombre": "Mepiachi",
      "tipo": "cafe",
      "lat": 43.3651028,
      "lon": -5.8487092,
      "direccion": "Calle Caveda 16",
      "codigo_postal": "33002",
      "telefono": null,
      "web": null,
      "instagram": null,
      "horario": null,
      "terraza": false
    },
    {
      "id": "osm_node_4505043091",
      "nombre": "Mada",
      "tipo": "bar",
      "lat": 43.3513737,
      "lon": -5.861487,
      "direccion": null,
      "codigo_postal": null,
      "telefono": null,
      "web": null,
      "instagram": null,
      "horario": null,
      "terraza": false
    },
    {
      "id": "osm_node_4538119591",
      "nombre": "Bar Drago",
      "tipo": "bar",
      "lat": 43.3708479,
      "lon": -5.8408695,
      "direccion": "Calle Turina",
      "codigo_postal": "33011",
      "telefono": null,
      "web": null,
      "instagram": null,
      "horario": null,
      "terraza": false
    },
    {
      "id": "osm_node_4543278492",
      "nombre": "Bar Sidrería Albéniz",
      "tipo": "bar",
      "lat": 43.3697659,
      "lon": -5.8402947,
      "direccion": "Calle Albéniz 19",
      "codigo_postal": "33011",
      "telefono": "+34 985290819",
      "web": null,
      "instagram": null,
      "horario": null,
      "terraza": false
    },
    {
      "id": "osm_node_4669406139",
      "nombre": "Izai",
      "tipo": "cafe",
      "lat": 43.3671116,
      "lon": -5.8736361,
      "direccion": null,
      "codigo_postal": null,
      "telefono": null,
      "web": null,
      "instagram": null,
      "horario": null,
      "terraza": true
    },
    {
      "id": "osm_node_4680811491",
      "nombre": "Café Prole",
      "tipo": "cafe",
      "lat": 43.3555054,
      "lon": -5.8512269,
      "direccion": null,
      "codigo_postal": null,
      "telefono": null,
      "web": null,
      "instagram": null,
      "horario": "Mo-Fr 09:00-15:00; Sa 12:30-15:00",
      "terraza": true
    },
    {
      "id": "osm_node_4687657939",
      "nombre": "Cafetería Jumbo",
      "tipo": "cafe",
      "lat": 43.3582376,
      "lon": -5.8524508,
      "direccion": null,
      "codigo_postal": null,
      "telefono": null,
      "web": null,
      "instagram": null,
      "horario": null,
      "terraza": true
    },
    {
      "id": "osm_node_4693421685",
      "nombre": "El 22",
      "tipo": "cafe",
      "lat": 43.3769585,
      "lon": -5.8009889,
      "direccion": null,
      "codigo_postal": null,
      "telefono": null,
      "web": null,
      "instagram": null,
      "horario": null,
      "terraza": false
    },
    {
      "id": "osm_node_4693421686",
      "nombre": "Cafetería Steel",
      "tipo": "cafe",
      "lat": 43.3764348,
      "lon": -5.8017628,
      "direccion": null,
      "codigo_postal": null,
      "telefono": null,
      "web": null,
      "instagram": null,
      "horario": null,
      "terraza": false
    },
    {
      "id": "osm_node_4701978270",
      "nombre": "Nuevo San Gregorio",
      "tipo": "cafe",
      "lat": 43.3556663,
      "lon": -5.8512066,
      "direccion": null,
      "codigo_postal": null,
      "telefono": null,
      "web": null,
      "instagram": null,
      "horario": null,
      "terraza": false
    },
    {
      "id": "osm_node_4705611770",
      "nombre": "Café Bar Parque del Oeste",
      "tipo": "cafe",
      "lat": 43.3646,
      "lon": -5.8714264,
      "direccion": null,
      "codigo_postal": null,
      "telefono": null,
      "web": null,
      "instagram": null,
      "horario": null,
      "terraza": false
    },
    {
      "id": "osm_node_4705611771",
      "nombre": "Café Bar Castelao",
      "tipo": "cafe",
      "lat": 43.3645448,
      "lon": -5.8716421,
      "direccion": null,
      "codigo_postal": null,
      "telefono": null,
      "web": null,
      "instagram": null,
      "horario": null,
      "terraza": false
    },
    {
      "id": "osm_node_4705611788",
      "nombre": "La Barra del Alba",
      "tipo": "pub",
      "lat": 43.3641352,
      "lon": -5.8731518,
      "direccion": null,
      "codigo_postal": null,
      "telefono": null,
      "web": null,
      "instagram": "labarradelalba_oviedoo",
      "horario": null,
      "terraza": true
    },
    {
      "id": "osm_node_4705645131",
      "nombre": "B Doce",
      "tipo": "cafe",
      "lat": 43.3593833,
      "lon": -5.8637589,
      "direccion": null,
      "codigo_postal": null,
      "telefono": null,
      "web": null,
      "instagram": null,
      "horario": "Mo-Fr 08:00-24:00+; Sa 09:00-24:00+; PH,Su 10:00-24:00+",
      "terraza": false
    },
    {
      "id": "osm_node_4705645132",
      "nombre": "Valixu",
      "tipo": "cafe",
      "lat": 43.3595153,
      "lon": -5.8645981,
      "direccion": null,
      "codigo_postal": null,
      "telefono": null,
      "web": null,
      "instagram": null,
      "horario": "Mo-Fr 07:00-23:00",
      "terraza": false
    },
    {
      "id": "osm_node_4717220814",
      "nombre": "Sidrería Manolo",
      "tipo": "bar",
      "lat": 43.3679588,
      "lon": -5.8657614,
      "direccion": null,
      "codigo_postal": null,
      "telefono": null,
      "web": null,
      "instagram": null,
      "horario": null,
      "terraza": false
    },
    {
      "id": "osm_node_4731324143",
      "nombre": "Andén 5",
      "tipo": "bar",
      "lat": 43.3648252,
      "lon": -5.8410325,
      "direccion": "Calle Martínez Vigil",
      "codigo_postal": null,
      "telefono": null,
      "web": null,
      "instagram": null,
      "horario": null,
      "terraza": true
    },
    {
      "id": "osm_node_4763017836",
      "nombre": "Cafetería Al Compás del Son",
      "tipo": "cafe",
      "lat": 43.3555894,
      "lon": -5.8498502,
      "direccion": null,
      "codigo_postal": null,
      "telefono": null,
      "web": null,
      "instagram": null,
      "horario": null,
      "terraza": false
    },
    {
      "id": "osm_node_4763023821",
      "nombre": "Cervecería Pub Mare Nostrum",
      "tipo": "pub",
      "lat": 43.3576046,
      "lon": -5.8504617,
      "direccion": null,
      "codigo_postal": null,
      "telefono": null,
      "web": null,
      "instagram": null,
      "horario": null,
      "terraza": true
    },
    {
      "id": "osm_node_4763028549",
      "nombre": "Taberna Al Fondo Hay Sitio",
      "tipo": "pub",
      "lat": 43.3578577,
      "lon": -5.8477168,
      "direccion": null,
      "codigo_postal": null,
      "telefono": null,
      "web": null,
      "instagram": null,
      "horario": null,
      "terraza": false
    },
    {
      "id": "osm_node_4770706242",
      "nombre": "Mesón Dapri",
      "tipo": "cafe",
      "lat": 43.3533118,
      "lon": -5.8440035,
      "direccion": null,
      "codigo_postal": null,
      "telefono": null,
      "web": null,
      "instagram": null,
      "horario": null,
      "terraza": false
    },
    {
      "id": "osm_node_4770706243",
      "nombre": "Bar Oliva",
      "tipo": "cafe",
      "lat": 43.3531823,
      "lon": -5.8442079,
      "direccion": null,
      "codigo_postal": null,
      "telefono": null,
      "web": null,
      "instagram": null,
      "horario": null,
      "terraza": false
    },
    {
      "id": "osm_node_4783713253",
      "nombre": "La Raposa",
      "tipo": "pub",
      "lat": 43.3599983,
      "lon": -5.8438974,
      "direccion": null,
      "codigo_postal": null,
      "telefono": null,
      "web": null,
      "instagram": null,
      "horario": null,
      "terraza": false
    },
    {
      "id": "osm_node_4783713258",
      "nombre": "El Juda",
      "tipo": "pub",
      "lat": 43.3604368,
      "lon": -5.8434092,
      "direccion": null,
      "codigo_postal": null,
      "telefono": null,
      "web": null,
      "instagram": null,
      "horario": null,
      "terraza": false
    },
    {
      "id": "osm_node_4783713259",
      "nombre": "Chicote",
      "tipo": "bar",
      "lat": 43.360362,
      "lon": -5.843506,
      "direccion": null,
      "codigo_postal": null,
      "telefono": null,
      "web": null,
      "instagram": null,
      "horario": null,
      "terraza": false
    },
    {
      "id": "osm_node_4783713260",
      "nombre": "Sol y Sombra",
      "tipo": "pub",
      "lat": 43.360323,
      "lon": -5.8437453,
      "direccion": null,
      "codigo_postal": null,
      "telefono": null,
      "web": null,
      "instagram": null,
      "horario": null,
      "terraza": false
    },
    {
      "id": "osm_node_4845557435",
      "nombre": "El Congreso",
      "tipo": "cafe",
      "lat": 43.3585914,
      "lon": -5.8576578,
      "direccion": null,
      "codigo_postal": null,
      "telefono": null,
      "web": null,
      "instagram": null,
      "horario": "Mo-Fr 07:00-02:30; Sa 10:30-24:00; Su 11:30-23:30",
      "terraza": true
    },
    {
      "id": "osm_node_4845568931",
      "nombre": "Café Jardín",
      "tipo": "cafe",
      "lat": 43.3597262,
      "lon": -5.8582985,
      "direccion": null,
      "codigo_postal": null,
      "telefono": null,
      "web": null,
      "instagram": null,
      "horario": null,
      "terraza": true
    },
    {
      "id": "osm_node_4934989001",
      "nombre": "El Mítico",
      "tipo": "pub",
      "lat": 43.3668814,
      "lon": -5.8658299,
      "direccion": null,
      "codigo_postal": null,
      "telefono": null,
      "web": null,
      "instagram": null,
      "horario": null,
      "terraza": false
    },
    {
      "id": "osm_node_4942157910",
      "nombre": "La Parrina",
      "tipo": "cafe",
      "lat": 43.3628072,
      "lon": -5.8655276,
      "direccion": null,
      "codigo_postal": null,
      "telefono": null,
      "web": null,
      "instagram": null,
      "horario": null,
      "terraza": false
    },
    {
      "id": "osm_node_4942157912",
      "nombre": "Vinoteca El Finito",
      "tipo": "pub",
      "lat": 43.3632032,
      "lon": -5.8658692,
      "direccion": null,
      "codigo_postal": null,
      "telefono": null,
      "web": null,
      "instagram": null,
      "horario": null,
      "terraza": true
    },
    {
      "id": "osm_node_4942169105",
      "nombre": "Santa Cruz",
      "tipo": "cafe",
      "lat": 43.3618397,
      "lon": -5.8634649,
      "direccion": null,
      "codigo_postal": null,
      "telefono": null,
      "web": null,
      "instagram": null,
      "horario": null,
      "terraza": false
    },
    {
      "id": "osm_node_4942169107",
      "nombre": "Yedra",
      "tipo": "cafe",
      "lat": 43.3622303,
      "lon": -5.8638608,
      "direccion": null,
      "codigo_postal": null,
      "telefono": null,
      "web": null,
      "instagram": null,
      "horario": "Mo-Fr 07:00-21:00; Sa 07:00-15:00",
      "terraza": false
    },
    {
      "id": "osm_node_4944167406",
      "nombre": "Feroz",
      "tipo": "bar",
      "lat": 43.364659,
      "lon": -5.8449614,
      "direccion": "Calle Víctor Chávarri / Cai Víctor Chávarri 3",
      "codigo_postal": "33001",
      "telefono": null,
      "web": null,
      "instagram": null,
      "horario": null,
      "terraza": true
    },
    {
      "id": "osm_node_4946023308",
      "nombre": "Guindas",
      "tipo": "cafe",
      "lat": 43.3636586,
      "lon": -5.865637,
      "direccion": null,
      "codigo_postal": null,
      "telefono": null,
      "web": null,
      "instagram": null,
      "horario": null,
      "terraza": true
    },
    {
      "id": "osm_node_4946023309",
      "nombre": "La Comtienda",
      "tipo": "pub",
      "lat": 43.3632678,
      "lon": -5.866037,
      "direccion": null,
      "codigo_postal": null,
      "telefono": null,
      "web": null,
      "instagram": null,
      "horario": null,
      "terraza": false
    },
    {
      "id": "osm_node_4946289378",
      "nombre": "D'Angels",
      "tipo": "pub",
      "lat": 43.3630395,
      "lon": -5.8659159,
      "direccion": null,
      "codigo_postal": null,
      "telefono": null,
      "web": null,
      "instagram": null,
      "horario": null,
      "terraza": false
    },
    {
      "id": "osm_node_4946318298",
      "nombre": "Jardon",
      "tipo": "pub",
      "lat": 43.3669275,
      "lon": -5.8652052,
      "direccion": null,
      "codigo_postal": null,
      "telefono": null,
      "web": null,
      "instagram": null,
      "horario": null,
      "terraza": false
    },
    {
      "id": "osm_node_4946318303",
      "nombre": "Líder",
      "tipo": "pub",
      "lat": 43.3639597,
      "lon": -5.8648136,
      "direccion": null,
      "codigo_postal": null,
      "telefono": null,
      "web": null,
      "instagram": null,
      "horario": null,
      "terraza": false
    },
    {
      "id": "osm_node_4946318304",
      "nombre": "La Quimera",
      "tipo": "pub",
      "lat": 43.3630334,
      "lon": -5.8655311,
      "direccion": null,
      "codigo_postal": null,
      "telefono": null,
      "web": null,
      "instagram": null,
      "horario": null,
      "terraza": false
    },
    {
      "id": "osm_node_4946318306",
      "nombre": "Campomar",
      "tipo": "cafe",
      "lat": 43.3627545,
      "lon": -5.8634524,
      "direccion": null,
      "codigo_postal": null,
      "telefono": null,
      "web": null,
      "instagram": null,
      "horario": null,
      "terraza": false
    },
    {
      "id": "osm_node_4946318307",
      "nombre": "El Cuartín",
      "tipo": "cafe",
      "lat": 43.3624747,
      "lon": -5.8626008,
      "direccion": "Avenida de Valentín Masip 28",
      "codigo_postal": "33013",
      "telefono": null,
      "web": "https://el-cuartin.negocio.site/",
      "instagram": null,
      "horario": null,
      "terraza": false
    },
    {
      "id": "osm_node_4946318308",
      "nombre": "Sidrería Silla del Rey",
      "tipo": "pub",
      "lat": 43.3618926,
      "lon": -5.8625981,
      "direccion": null,
      "codigo_postal": null,
      "telefono": null,
      "web": null,
      "instagram": null,
      "horario": null,
      "terraza": false
    },
    {
      "id": "osm_node_4946322221",
      "nombre": "Quo Vadis?",
      "tipo": "pub",
      "lat": 43.3691946,
      "lon": -5.8684306,
      "direccion": null,
      "codigo_postal": null,
      "telefono": null,
      "web": null,
      "instagram": null,
      "horario": null,
      "terraza": false
    },
    {
      "id": "osm_node_4946348116",
      "nombre": "Cafetería Vannety",
      "tipo": "cafe",
      "lat": 43.3675039,
      "lon": -5.8667134,
      "direccion": null,
      "codigo_postal": null,
      "telefono": null,
      "web": null,
      "instagram": null,
      "horario": null,
      "terraza": false
    },
    {
      "id": "osm_node_4952857436",
      "nombre": "Café Carolina",
      "tipo": "cafe",
      "lat": 43.3708148,
      "lon": -5.8358748,
      "direccion": null,
      "codigo_postal": null,
      "telefono": null,
      "web": null,
      "instagram": null,
      "horario": null,
      "terraza": false
    },
    {
      "id": "osm_node_4957640284",
      "nombre": "Bar Tienda Mariluz",
      "tipo": "pub",
      "lat": 43.357494,
      "lon": -5.8483147,
      "direccion": null,
      "codigo_postal": null,
      "telefono": null,
      "web": null,
      "instagram": null,
      "horario": null,
      "terraza": false
    },
    {
      "id": "osm_node_4958148365",
      "nombre": "El Recuelo",
      "tipo": "cafe",
      "lat": 43.358461,
      "lon": -5.8490301,
      "direccion": null,
      "codigo_postal": null,
      "telefono": null,
      "web": null,
      "instagram": null,
      "horario": null,
      "terraza": false
    },
    {
      "id": "osm_node_4958148369",
      "nombre": "Chaquetón",
      "tipo": "bar",
      "lat": 43.3570933,
      "lon": -5.8490691,
      "direccion": null,
      "codigo_postal": null,
      "telefono": null,
      "web": null,
      "instagram": null,
      "horario": null,
      "terraza": false
    },
    {
      "id": "osm_node_4958162494",
      "nombre": "San Miguel",
      "tipo": "cafe",
      "lat": 43.3577987,
      "lon": -5.8483619,
      "direccion": null,
      "codigo_postal": null,
      "telefono": null,
      "web": null,
      "instagram": null,
      "horario": null,
      "terraza": false
    },
    {
      "id": "osm_node_4960637682",
      "nombre": "Clic Bar",
      "tipo": "pub",
      "lat": 43.3556017,
      "lon": -5.8627921,
      "direccion": null,
      "codigo_postal": null,
      "telefono": null,
      "web": null,
      "instagram": null,
      "horario": null,
      "terraza": false
    },
    {
      "id": "osm_node_4960637683",
      "nombre": "Dediez",
      "tipo": "pub",
      "lat": 43.354273,
      "lon": -5.8624624,
      "direccion": null,
      "codigo_postal": null,
      "telefono": null,
      "web": null,
      "instagram": null,
      "horario": null,
      "terraza": false
    },
    {
      "id": "osm_node_4971093553",
      "nombre": "Jota L 48",
      "tipo": "pub",
      "lat": 43.3634695,
      "lon": -5.8665614,
      "direccion": null,
      "codigo_postal": null,
      "telefono": null,
      "web": null,
      "instagram": null,
      "horario": null,
      "terraza": true
    },
    {
      "id": "osm_node_4971108150",
      "nombre": "La Pepica",
      "tipo": "pub",
      "lat": 43.363308,
      "lon": -5.866132,
      "direccion": null,
      "codigo_postal": null,
      "telefono": null,
      "web": null,
      "instagram": null,
      "horario": null,
      "terraza": true
    },
    {
      "id": "osm_node_4971108151",
      "nombre": "El Almacén",
      "tipo": "pub",
      "lat": 43.3633717,
      "lon": -5.8662887,
      "direccion": null,
      "codigo_postal": null,
      "telefono": null,
      "web": null,
      "instagram": null,
      "horario": null,
      "terraza": true
    },
    {
      "id": "osm_node_4972445685",
      "nombre": "Ópera Café",
      "tipo": "cafe",
      "lat": 43.3626332,
      "lon": -5.8475147,
      "direccion": "Calle Argüelles 35",
      "codigo_postal": "33003",
      "telefono": null,
      "web": null,
      "instagram": null,
      "horario": null,
      "terraza": true
    },
    {
      "id": "osm_node_4973998918",
      "nombre": "La Biela",
      "tipo": "cafe",
      "lat": 43.3805965,
      "lon": -5.8231513,
      "direccion": null,
      "codigo_postal": null,
      "telefono": null,
      "web": null,
      "instagram": null,
      "horario": null,
      "terraza": true
    },
    {
      "id": "osm_node_4976748225",
      "nombre": "Café Sr. Ó",
      "tipo": "cafe",
      "lat": 43.3643386,
      "lon": -5.850108,
      "direccion": "Calle Melquíades Álvarez 3",
      "codigo_postal": "33002",
      "telefono": null,
      "web": null,
      "instagram": null,
      "horario": null,
      "terraza": false
    },
    {
      "id": "osm_node_4985351621",
      "nombre": "Lata de Zinc - Chigre Cultural",
      "tipo": "bar",
      "lat": 43.3542068,
      "lon": -5.8403988,
      "direccion": null,
      "codigo_postal": null,
      "telefono": null,
      "web": null,
      "instagram": null,
      "horario": null,
      "terraza": false
    },
    {
      "id": "osm_node_5002821409",
      "nombre": "Cafe Bar Rodrigo",
      "tipo": "pub",
      "lat": 43.3776758,
      "lon": -5.8332538,
      "direccion": null,
      "codigo_postal": null,
      "telefono": null,
      "web": null,
      "instagram": null,
      "horario": null,
      "terraza": true
    },
    {
      "id": "osm_node_5003976333",
      "nombre": "The Black Bar",
      "tipo": "bar",
      "lat": 43.363348,
      "lon": -5.844997,
      "direccion": null,
      "codigo_postal": null,
      "telefono": null,
      "web": null,
      "instagram": null,
      "horario": null,
      "terraza": false
    },
    {
      "id": "osm_node_5017726922",
      "nombre": "La Pepa Gastrobar",
      "tipo": "cafe",
      "lat": 43.3686765,
      "lon": -5.8386473,
      "direccion": "Calle Murillo 1",
      "codigo_postal": "33011",
      "telefono": null,
      "web": null,
      "instagram": null,
      "horario": null,
      "terraza": true
    },
    {
      "id": "osm_node_5035497291",
      "nombre": "Tsaciana",
      "tipo": "pub",
      "lat": 43.3634558,
      "lon": -5.8661412,
      "direccion": null,
      "codigo_postal": null,
      "telefono": null,
      "web": null,
      "instagram": null,
      "horario": null,
      "terraza": true
    },
    {
      "id": "osm_node_5040024180",
      "nombre": "Mesón sidrería Montañés",
      "tipo": "pub",
      "lat": 43.3676735,
      "lon": -5.8391896,
      "direccion": null,
      "codigo_postal": null,
      "telefono": null,
      "web": null,
      "instagram": null,
      "horario": null,
      "terraza": false
    },
    {
      "id": "osm_node_5040024181",
      "nombre": "La Luna de Jovellanos",
      "tipo": "cafe",
      "lat": 43.3632678,
      "lon": -5.8457643,
      "direccion": null,
      "codigo_postal": null,
      "telefono": null,
      "web": null,
      "instagram": null,
      "horario": null,
      "terraza": false
    },
    {
      "id": "osm_node_5040024182",
      "nombre": "Factoría Pepinum",
      "tipo": "pub",
      "lat": 43.3671081,
      "lon": -5.8412499,
      "direccion": "Calle Ildefonso Sánchez del Río 10",
      "codigo_postal": null,
      "telefono": "+34 652629197",
      "web": "https://factoriapepinum.wixsite.com",
      "instagram": null,
      "horario": null,
      "terraza": false
    },
    {
      "id": "osm_node_5040024184",
      "nombre": "El Lúpulo Feroz",
      "tipo": "pub",
      "lat": 43.3669516,
      "lon": -5.8413437,
      "direccion": "Calle Ildefonso Sánchez del Río 8",
      "codigo_postal": null,
      "telefono": "+34 667 67 58 57",
      "web": null,
      "instagram": null,
      "horario": "Su-Th 18:00-24:00; Fr-Sa 18:00-02:30",
      "terraza": false
    },
    {
      "id": "osm_node_5063011034",
      "nombre": "Bar las tres vias",
      "tipo": "bar",
      "lat": 43.3542835,
      "lon": -5.9664886,
      "direccion": null,
      "codigo_postal": null,
      "telefono": null,
      "web": null,
      "instagram": null,
      "horario": null,
      "terraza": false
    },
    {
      "id": "osm_node_5067220815",
      "nombre": "Bar Diañu",
      "tipo": "pub",
      "lat": 43.3541777,
      "lon": -5.8446981,
      "direccion": null,
      "codigo_postal": null,
      "telefono": null,
      "web": null,
      "instagram": null,
      "horario": null,
      "terraza": false
    },
    {
      "id": "osm_node_5076776084",
      "nombre": "Las Tapias",
      "tipo": "pub",
      "lat": 43.3628367,
      "lon": -5.8662971,
      "direccion": null,
      "codigo_postal": null,
      "telefono": null,
      "web": null,
      "instagram": null,
      "horario": null,
      "terraza": false
    },
    {
      "id": "osm_node_5083994214",
      "nombre": "Cafetería Milán",
      "tipo": "cafe",
      "lat": 43.3665756,
      "lon": -5.8425351,
      "direccion": "Calle Emilio Alarcos Llorach",
      "codigo_postal": null,
      "telefono": null,
      "web": null,
      "instagram": null,
      "horario": null,
      "terraza": true
    },
    {
      "id": "osm_node_5083994216",
      "nombre": "La Mallorquina",
      "tipo": "cafe",
      "lat": 43.3666709,
      "lon": -5.8428239,
      "direccion": "Calle Emilio Alarcos Llorach",
      "codigo_postal": null,
      "telefono": null,
      "web": null,
      "instagram": null,
      "horario": null,
      "terraza": true
    },
    {
      "id": "osm_node_5111129621",
      "nombre": "La Tía Vivi",
      "tipo": "cafe",
      "lat": 43.3617941,
      "lon": -5.8659764,
      "direccion": null,
      "codigo_postal": null,
      "telefono": null,
      "web": null,
      "instagram": null,
      "horario": null,
      "terraza": false
    },
    {
      "id": "osm_node_5111129622",
      "nombre": "Café Bar La Ería",
      "tipo": "pub",
      "lat": 43.3604379,
      "lon": -5.8667025,
      "direccion": null,
      "codigo_postal": null,
      "telefono": null,
      "web": null,
      "instagram": null,
      "horario": "Mo-Fr 07:00-21:00",
      "terraza": true
    },
    {
      "id": "osm_node_5111729322",
      "nombre": "El Molinín 2",
      "tipo": "bar",
      "lat": 43.3679738,
      "lon": -5.854886,
      "direccion": null,
      "codigo_postal": null,
      "telefono": null,
      "web": null,
      "instagram": null,
      "horario": null,
      "terraza": false
    },
    {
      "id": "osm_node_5111729421",
      "nombre": "neo",
      "tipo": "bar",
      "lat": 43.366968,
      "lon": -5.8563001,
      "direccion": null,
      "codigo_postal": null,
      "telefono": null,
      "web": null,
      "instagram": null,
      "horario": null,
      "terraza": false
    },
    {
      "id": "osm_node_5111770023",
      "nombre": "Traslacerca",
      "tipo": "bar",
      "lat": 43.3633232,
      "lon": -5.845493,
      "direccion": null,
      "codigo_postal": null,
      "telefono": null,
      "web": null,
      "instagram": null,
      "horario": null,
      "terraza": false
    },
    {
      "id": "osm_node_5111785721",
      "nombre": "Café-Bar Los Campos",
      "tipo": "bar",
      "lat": 43.3683839,
      "lon": -5.8548384,
      "direccion": "Calle Monte Auseva 7",
      "codigo_postal": "33012",
      "telefono": null,
      "web": null,
      "instagram": null,
      "horario": null,
      "terraza": false
    },
    {
      "id": "osm_node_5122610724",
      "nombre": "El Sueño",
      "tipo": "pub",
      "lat": 43.3681707,
      "lon": -5.8694127,
      "direccion": null,
      "codigo_postal": null,
      "telefono": null,
      "web": null,
      "instagram": null,
      "horario": null,
      "terraza": true
    },
    {
      "id": "osm_node_5128949026",
      "nombre": "Kiko Maracas",
      "tipo": "bar",
      "lat": 43.3614043,
      "lon": -5.8440569,
      "direccion": "Calle San Antonio 3",
      "codigo_postal": "33003",
      "telefono": null,
      "web": null,
      "instagram": null,
      "horario": null,
      "terraza": true
    },
    {
      "id": "osm_node_5132761324",
      "nombre": "La mallorquina",
      "tipo": "cafe",
      "lat": 43.3633332,
      "lon": -5.849402,
      "direccion": null,
      "codigo_postal": null,
      "telefono": null,
      "web": null,
      "instagram": null,
      "horario": null,
      "terraza": true
    },
    {
      "id": "osm_node_5161543192",
      "nombre": "Cafetería Masip 25",
      "tipo": "cafe",
      "lat": 43.3625222,
      "lon": -5.8636206,
      "direccion": null,
      "codigo_postal": null,
      "telefono": null,
      "web": null,
      "instagram": null,
      "horario": null,
      "terraza": false
    },
    {
      "id": "osm_node_5161866645",
      "nombre": "La Internacional",
      "tipo": "pub",
      "lat": 43.3625476,
      "lon": -5.8608918,
      "direccion": null,
      "codigo_postal": null,
      "telefono": null,
      "web": null,
      "instagram": null,
      "horario": null,
      "terraza": false
    },
    {
      "id": "osm_node_5161866646",
      "nombre": "Divinos Taberna",
      "tipo": "pub",
      "lat": 43.3624717,
      "lon": -5.8608981,
      "direccion": null,
      "codigo_postal": null,
      "telefono": null,
      "web": null,
      "instagram": null,
      "horario": null,
      "terraza": true
    },
    {
      "id": "osm_node_5163680218",
      "nombre": "La Tabernilla",
      "tipo": "pub",
      "lat": 43.3624582,
      "lon": -5.8659065,
      "direccion": null,
      "codigo_postal": null,
      "telefono": null,
      "web": null,
      "instagram": null,
      "horario": null,
      "terraza": false
    },
    {
      "id": "osm_node_5168756152",
      "nombre": "Vinoteca La Sal",
      "tipo": "pub",
      "lat": 43.361911,
      "lon": -5.8663673,
      "direccion": null,
      "codigo_postal": null,
      "telefono": null,
      "web": null,
      "instagram": null,
      "horario": null,
      "terraza": false
    },
    {
      "id": "osm_node_5205006784",
      "nombre": "Café Punta Galea",
      "tipo": "cafe",
      "lat": 43.3554452,
      "lon": -5.8483473,
      "direccion": null,
      "codigo_postal": null,
      "telefono": null,
      "web": null,
      "instagram": null,
      "horario": null,
      "terraza": false
    },
    {
      "id": "osm_node_5262479823",
      "nombre": "Starbucks",
      "tipo": "cafe",
      "lat": 28.6633124,
      "lon": -81.2347948,
      "direccion": null,
      "codigo_postal": null,
      "telefono": null,
      "web": null,
      "instagram": null,
      "horario": null,
      "terraza": false
    },
    {
      "id": "osm_node_5262493526",
      "nombre": "Amarena",
      "tipo": "bar",
      "lat": 28.6623995,
      "lon": -81.2366454,
      "direccion": null,
      "codigo_postal": null,
      "telefono": null,
      "web": null,
      "instagram": null,
      "horario": null,
      "terraza": false
    },
    {
      "id": "osm_node_5272763589",
      "nombre": "La gran via",
      "tipo": "cafe",
      "lat": 43.3877567,
      "lon": -5.8211949,
      "direccion": null,
      "codigo_postal": null,
      "telefono": null,
      "web": null,
      "instagram": null,
      "horario": null,
      "terraza": false
    },
    {
      "id": "osm_node_5327897922",
      "nombre": "Cuesta & Cía.",
      "tipo": "pub",
      "lat": 43.3677214,
      "lon": -5.8729342,
      "direccion": null,
      "codigo_postal": null,
      "telefono": null,
      "web": null,
      "instagram": null,
      "horario": null,
      "terraza": true
    },
    {
      "id": "osm_node_5339762801",
      "nombre": "La Senda de los Elefantes",
      "tipo": "cafe",
      "lat": 43.3647357,
      "lon": -5.8499288,
      "direccion": "Calle San Bernabé 7",
      "codigo_postal": "33002",
      "telefono": null,
      "web": null,
      "instagram": null,
      "horario": null,
      "terraza": false
    },
    {
      "id": "osm_node_5441147165",
      "nombre": "La Forja",
      "tipo": "bar",
      "lat": 43.36032,
      "lon": -5.8442344,
      "direccion": "Plaza del Sol 1",
      "codigo_postal": "33009",
      "telefono": null,
      "web": null,
      "instagram": null,
      "horario": "Mo-Th 09:00-01:30; Fr-Sa 11:00-02:30; Su 11:00-01:30",
      "terraza": true
    },
    {
      "id": "osm_node_5468788426",
      "nombre": "Cafetería Gourmet",
      "tipo": "cafe",
      "lat": 43.3642446,
      "lon": -5.864038,
      "direccion": null,
      "codigo_postal": null,
      "telefono": null,
      "web": null,
      "instagram": null,
      "horario": null,
      "terraza": false
    },
    {
      "id": "osm_node_5537868871",
      "nombre": "La Belmontina",
      "tipo": "bar",
      "lat": 43.3630492,
      "lon": -5.8441015,
      "direccion": "Calle del Águila",
      "codigo_postal": null,
      "telefono": null,
      "web": null,
      "instagram": null,
      "horario": null,
      "terraza": true
    },
    {
      "id": "osm_node_5538029857",
      "nombre": "D'Pipas",
      "tipo": "pub",
      "lat": 43.3543082,
      "lon": -5.8629069,
      "direccion": null,
      "codigo_postal": null,
      "telefono": null,
      "web": null,
      "instagram": null,
      "horario": null,
      "terraza": false
    },
    {
      "id": "osm_node_5568575679",
      "nombre": "La Esquina",
      "tipo": "pub",
      "lat": 43.3627916,
      "lon": -5.861131,
      "direccion": null,
      "codigo_postal": null,
      "telefono": null,
      "web": null,
      "instagram": null,
      "horario": null,
      "terraza": true
    },
    {
      "id": "osm_node_5568589774",
      "nombre": "Café Colón",
      "tipo": "cafe",
      "lat": 43.3633142,
      "lon": -5.8608828,
      "direccion": null,
      "codigo_postal": null,
      "telefono": null,
      "web": null,
      "instagram": null,
      "horario": null,
      "terraza": false
    },
    {
      "id": "osm_node_5568589775",
      "nombre": "Buenos Aires",
      "tipo": "pub",
      "lat": 43.3631309,
      "lon": -5.8607259,
      "direccion": null,
      "codigo_postal": null,
      "telefono": null,
      "web": null,
      "instagram": null,
      "horario": null,
      "terraza": true
    },
    {
      "id": "osm_node_5592808878",
      "nombre": "El Cajón",
      "tipo": "pub",
      "lat": 43.361658,
      "lon": -5.8573645,
      "direccion": null,
      "codigo_postal": null,
      "telefono": null,
      "web": null,
      "instagram": null,
      "horario": null,
      "terraza": false
    },
    {
      "id": "osm_node_5592814346",
      "nombre": "Zaperoco",
      "tipo": "pub",
      "lat": 43.3606508,
      "lon": -5.8555119,
      "direccion": null,
      "codigo_postal": null,
      "telefono": null,
      "web": null,
      "instagram": null,
      "horario": null,
      "terraza": true
    },
    {
      "id": "osm_node_5617761355",
      "nombre": "Riomar",
      "tipo": "bar",
      "lat": 43.3598773,
      "lon": -5.8449731,
      "direccion": null,
      "codigo_postal": null,
      "telefono": null,
      "web": null,
      "instagram": null,
      "horario": null,
      "terraza": false
    },
    {
      "id": "osm_node_5617761357",
      "nombre": "Magdalena",
      "tipo": "cafe",
      "lat": 43.3599185,
      "lon": -5.8449498,
      "direccion": null,
      "codigo_postal": null,
      "telefono": null,
      "web": null,
      "instagram": null,
      "horario": null,
      "terraza": false
    },
    {
      "id": "osm_node_5617938451",
      "nombre": "Florida",
      "tipo": "cafe",
      "lat": 43.3608824,
      "lon": -5.8535905,
      "direccion": null,
      "codigo_postal": null,
      "telefono": null,
      "web": null,
      "instagram": null,
      "horario": null,
      "terraza": false
    },
    {
      "id": "osm_node_5617938453",
      "nombre": "Dos Tiempos",
      "tipo": "cafe",
      "lat": 43.361069,
      "lon": -5.8538018,
      "direccion": null,
      "codigo_postal": null,
      "telefono": null,
      "web": null,
      "instagram": null,
      "horario": "Mo-Fr 08:30-16:30; Su 12:30-16:30",
      "terraza": false
    },
    {
      "id": "osm_node_5618176354",
      "nombre": "Entrecalles",
      "tipo": "cafe",
      "lat": 43.3619846,
      "lon": -5.853564,
      "direccion": null,
      "codigo_postal": null,
      "telefono": null,
      "web": null,
      "instagram": null,
      "horario": null,
      "terraza": false
    },
    {
      "id": "osm_node_5618209181",
      "nombre": "el de diez de la gorda",
      "tipo": "bar",
      "lat": 43.3618894,
      "lon": -5.8468516,
      "direccion": "Calle San Francisco 5",
      "codigo_postal": "33003",
      "telefono": null,
      "web": null,
      "instagram": null,
      "horario": "Mo-Sa 08:00-01:45",
      "terraza": true
    },
    {
      "id": "osm_node_5620546439",
      "nombre": "El Quinto de la Tarde",
      "tipo": "bar",
      "lat": 43.3610928,
      "lon": -5.8455177,
      "direccion": null,
      "codigo_postal": null,
      "telefono": null,
      "web": null,
      "instagram": null,
      "horario": null,
      "terraza": true
    },
    {
      "id": "osm_node_5620591762",
      "nombre": "Rocket",
      "tipo": "bar",
      "lat": 43.3595219,
      "lon": -5.8430623,
      "direccion": "Calle Oscura",
      "codigo_postal": null,
      "telefono": null,
      "web": null,
      "instagram": null,
      "horario": null,
      "terraza": false
    },
    {
      "id": "osm_node_5654935592",
      "nombre": "Las Campanas de San Bernabé",
      "tipo": "bar",
      "lat": 43.3648469,
      "lon": -5.8498914,
      "direccion": null,
      "codigo_postal": null,
      "telefono": null,
      "web": null,
      "instagram": null,
      "horario": null,
      "terraza": false
    },
    {
      "id": "osm_node_5654935593",
      "nombre": "Casa Montoto",
      "tipo": "bar",
      "lat": 43.3649441,
      "lon": -5.8498553,
      "direccion": null,
      "codigo_postal": null,
      "telefono": null,
      "web": null,
      "instagram": null,
      "horario": null,
      "terraza": false
    },
    {
      "id": "osm_node_5654952786",
      "nombre": "Cafetería Arlequín",
      "tipo": "cafe",
      "lat": 43.3547085,
      "lon": -5.8440205,
      "direccion": null,
      "codigo_postal": null,
      "telefono": null,
      "web": null,
      "instagram": null,
      "horario": null,
      "terraza": false
    },
    {
      "id": "osm_node_5654972748",
      "nombre": "Cafetería San Francisco",
      "tipo": "cafe",
      "lat": 43.356883,
      "lon": -5.8520931,
      "direccion": null,
      "codigo_postal": null,
      "telefono": null,
      "web": null,
      "instagram": null,
      "horario": null,
      "terraza": true
    },
    {
      "id": "osm_node_5654973155",
      "nombre": "Café Harris",
      "tipo": "cafe",
      "lat": 43.3570382,
      "lon": -5.8520044,
      "direccion": null,
      "codigo_postal": null,
      "telefono": null,
      "web": null,
      "instagram": null,
      "horario": null,
      "terraza": true
    },
    {
      "id": "osm_node_5654973737",
      "nombre": "Piano-Bar",
      "tipo": "bar",
      "lat": 43.3578185,
      "lon": -5.8471669,
      "direccion": null,
      "codigo_postal": null,
      "telefono": null,
      "web": null,
      "instagram": null,
      "horario": null,
      "terraza": false
    },
    {
      "id": "osm_node_5655864132",
      "nombre": "+ke Churros",
      "tipo": "cafe",
      "lat": 43.3553249,
      "lon": -5.8437169,
      "direccion": null,
      "codigo_postal": null,
      "telefono": null,
      "web": null,
      "instagram": null,
      "horario": null,
      "terraza": false
    },
    {
      "id": "osm_node_5711739282",
      "nombre": "Starbucks",
      "tipo": "cafe",
      "lat": 43.3625635,
      "lon": -5.8482167,
      "direccion": "Plaza La Escandalera",
      "codigo_postal": "33003",
      "telefono": null,
      "web": "https://www.starbucks.co.uk/store-locator/51507-276860/sbux-plaza-escandalera",
      "instagram": null,
      "horario": null,
      "terraza": true
    },
    {
      "id": "osm_node_5715186921",
      "nombre": "Manolín Campa",
      "tipo": "bar",
      "lat": 43.3607007,
      "lon": -5.846013,
      "direccion": "Calle Jesús",
      "codigo_postal": null,
      "telefono": null,
      "web": null,
      "instagram": null,
      "horario": null,
      "terraza": false
    },
    {
      "id": "osm_node_5825840204",
      "nombre": "Caprichos",
      "tipo": "pub",
      "lat": 43.3613828,
      "lon": -5.8557501,
      "direccion": "Avenida de Galicia 16",
      "codigo_postal": "33005",
      "telefono": null,
      "web": null,
      "instagram": null,
      "horario": null,
      "terraza": true
    },
    {
      "id": "osm_node_5825840206",
      "nombre": "Rdoble",
      "tipo": "pub",
      "lat": 43.3613439,
      "lon": -5.8560534,
      "direccion": null,
      "codigo_postal": null,
      "telefono": null,
      "web": null,
      "instagram": null,
      "horario": null,
      "terraza": true
    },
    {
      "id": "osm_node_6338299457",
      "nombre": "Besullo",
      "tipo": "bar",
      "lat": 43.362747,
      "lon": -5.8670541,
      "direccion": "Calle Facetos 36",
      "codigo_postal": "33013",
      "telefono": null,
      "web": null,
      "instagram": null,
      "horario": null,
      "terraza": false
    },
    {
      "id": "osm_node_6338299458",
      "nombre": "Macor",
      "tipo": "cafe",
      "lat": 43.3630664,
      "lon": -5.8669306,
      "direccion": "Calle Lola Mateos 35",
      "codigo_postal": "33013",
      "telefono": null,
      "web": null,
      "instagram": null,
      "horario": null,
      "terraza": true
    },
    {
      "id": "osm_node_6409080880",
      "nombre": "Ritmo&Aroma",
      "tipo": "cafe",
      "lat": 43.3523202,
      "lon": -5.8616257,
      "direccion": null,
      "codigo_postal": null,
      "telefono": null,
      "web": null,
      "instagram": null,
      "horario": null,
      "terraza": false
    },
    {
      "id": "osm_node_6555805062",
      "nombre": "Ego",
      "tipo": "cafe",
      "lat": 43.3582306,
      "lon": -5.8527401,
      "direccion": null,
      "codigo_postal": null,
      "telefono": null,
      "web": null,
      "instagram": null,
      "horario": "Mo-Th 06:00-01:30; Fr,Sa 06:00-02:30",
      "terraza": true
    },
    {
      "id": "osm_node_6555805065",
      "nombre": "Cafe Bar Master",
      "tipo": "bar",
      "lat": 43.3564549,
      "lon": -5.8518412,
      "direccion": null,
      "codigo_postal": null,
      "telefono": "+34 985 23 00 69",
      "web": null,
      "instagram": null,
      "horario": null,
      "terraza": false
    },
    {
      "id": "osm_node_6569551936",
      "nombre": "Cafetería La Fonte",
      "tipo": "cafe",
      "lat": 43.3572164,
      "lon": -5.8488986,
      "direccion": null,
      "codigo_postal": null,
      "telefono": "+34 985 73 74 11",
      "web": null,
      "instagram": null,
      "horario": null,
      "terraza": false
    },
    {
      "id": "osm_node_6569551940",
      "nombre": "Bar Tertulias",
      "tipo": "pub",
      "lat": 43.3569721,
      "lon": -5.8528212,
      "direccion": null,
      "codigo_postal": null,
      "telefono": "+34 984 08 07 03",
      "web": null,
      "instagram": null,
      "horario": null,
      "terraza": true
    },
    {
      "id": "osm_node_6727698185",
      "nombre": "El Casto",
      "tipo": "bar",
      "lat": 43.3626125,
      "lon": -5.8440478,
      "direccion": "Calle del Águila 1",
      "codigo_postal": "33003",
      "telefono": "+34 985738087",
      "web": null,
      "instagram": null,
      "horario": null,
      "terraza": true
    },
    {
      "id": "osm_node_7049122268",
      "nombre": "Café Bar Bambú",
      "tipo": "pub",
      "lat": 43.3692437,
      "lon": -5.8383856,
      "direccion": null,
      "codigo_postal": null,
      "telefono": "+34 985 28 00 62",
      "web": null,
      "instagram": null,
      "horario": null,
      "terraza": true
    },
    {
      "id": "osm_node_7539958872",
      "nombre": "Bar Casa Luisa",
      "tipo": "cafe",
      "lat": 43.2989093,
      "lon": -5.8246756,
      "direccion": "Carretera de Oviedo a Campomanes 85",
      "codigo_postal": "33660",
      "telefono": null,
      "web": null,
      "instagram": null,
      "horario": null,
      "terraza": false
    },
    {
      "id": "osm_node_7597613913",
      "nombre": "MDP",
      "tipo": "cafe",
      "lat": 43.3615571,
      "lon": -5.85623,
      "direccion": "Calle Marqués de Teverga 13",
      "codigo_postal": "33005",
      "telefono": null,
      "web": null,
      "instagram": null,
      "horario": null,
      "terraza": false
    },
    {
      "id": "osm_node_7608159743",
      "nombre": "Café Astros",
      "tipo": "pub",
      "lat": 43.3597955,
      "lon": -5.8612736,
      "direccion": null,
      "codigo_postal": null,
      "telefono": null,
      "web": null,
      "instagram": null,
      "horario": null,
      "terraza": false
    },
    {
      "id": "osm_node_7650674249",
      "nombre": "Gastrobar Morena Clara",
      "tipo": "pub",
      "lat": 43.3720394,
      "lon": -5.8312358,
      "direccion": null,
      "codigo_postal": null,
      "telefono": null,
      "web": null,
      "instagram": null,
      "horario": null,
      "terraza": false
    },
    {
      "id": "osm_node_7650674250",
      "nombre": "UNIC",
      "tipo": "pub",
      "lat": 43.3728158,
      "lon": -5.8308854,
      "direccion": null,
      "codigo_postal": null,
      "telefono": null,
      "web": null,
      "instagram": null,
      "horario": null,
      "terraza": false
    },
    {
      "id": "osm_node_7673227174",
      "nombre": "Cafe Cuore",
      "tipo": "pub",
      "lat": 43.3729351,
      "lon": -5.8312219,
      "direccion": null,
      "codigo_postal": null,
      "telefono": null,
      "web": null,
      "instagram": null,
      "horario": null,
      "terraza": false
    },
    {
      "id": "osm_node_7811013769",
      "nombre": "Chocolatería Valor",
      "tipo": "cafe",
      "lat": 43.3639632,
      "lon": -5.8589527,
      "direccion": null,
      "codigo_postal": null,
      "telefono": null,
      "web": null,
      "instagram": null,
      "horario": null,
      "terraza": false
    },
    {
      "id": "osm_node_7811013770",
      "nombre": "El Andén",
      "tipo": "cafe",
      "lat": 43.364048,
      "lon": -5.8585933,
      "direccion": null,
      "codigo_postal": null,
      "telefono": null,
      "web": null,
      "instagram": null,
      "horario": null,
      "terraza": true
    },
    {
      "id": "osm_node_7837238964",
      "nombre": "Robi",
      "tipo": "cafe",
      "lat": 43.36021,
      "lon": -5.8466741,
      "direccion": "Calle Rosal 11",
      "codigo_postal": "33009",
      "telefono": "+34 609973876",
      "web": null,
      "instagram": null,
      "horario": null,
      "terraza": true
    },
    {
      "id": "osm_node_7837262548",
      "nombre": "Casa González Suárez",
      "tipo": "pub",
      "lat": 43.361765,
      "lon": -5.8457579,
      "direccion": "Calle Ramón y Cajal 8",
      "codigo_postal": "33003",
      "telefono": "+34 984 83 96 36",
      "web": "https://casagonzalezsuarez.com/",
      "instagram": null,
      "horario": null,
      "terraza": false
    },
    {
      "id": "osm_node_7837264961",
      "nombre": "Jamón Jamón",
      "tipo": "pub",
      "lat": 43.3620372,
      "lon": -5.8458407,
      "direccion": "Calle Ramón y Cajal 16",
      "codigo_postal": "33003",
      "telefono": "+34 984706984",
      "web": null,
      "instagram": null,
      "horario": null,
      "terraza": false
    },
    {
      "id": "osm_node_7878559246",
      "nombre": "La Fragua",
      "tipo": "pub",
      "lat": 43.3602619,
      "lon": -5.844278,
      "direccion": null,
      "codigo_postal": null,
      "telefono": null,
      "web": null,
      "instagram": null,
      "horario": null,
      "terraza": false
    },
    {
      "id": "osm_node_7878602431",
      "nombre": "Barra Brava",
      "tipo": "bar",
      "lat": 43.3598138,
      "lon": -5.8435967,
      "direccion": null,
      "codigo_postal": null,
      "telefono": null,
      "web": null,
      "instagram": null,
      "horario": null,
      "terraza": false
    },
    {
      "id": "osm_node_7878659002",
      "nombre": "Mala Saña",
      "tipo": "bar",
      "lat": 43.3628752,
      "lon": -5.8456083,
      "direccion": "Plaza de Juan XXIII 2",
      "codigo_postal": "33003",
      "telefono": null,
      "web": "http://mlscoctelesoviedo.com/",
      "instagram": null,
      "horario": null,
      "terraza": true
    },
    {
      "id": "osm_node_7878866338",
      "nombre": "Café Palacio de Tristán",
      "tipo": "cafe",
      "lat": 43.3638729,
      "lon": -5.8495505,
      "direccion": "Calle Palacio Valdés 7",
      "codigo_postal": "33002",
      "telefono": null,
      "web": null,
      "instagram": null,
      "horario": "Su-Th 06:00-01:30, Fr,Sa 06:00-02:30",
      "terraza": true
    },
    {
      "id": "osm_node_7879075055",
      "nombre": "La Cantina de Gascona",
      "tipo": "pub",
      "lat": 43.3645786,
      "lon": -5.8452075,
      "direccion": null,
      "codigo_postal": null,
      "telefono": null,
      "web": null,
      "instagram": null,
      "horario": null,
      "terraza": true
    },
    {
      "id": "osm_node_7882023423",
      "nombre": "Me Aptc",
      "tipo": "cafe",
      "lat": 43.3647335,
      "lon": -5.849743,
      "direccion": null,
      "codigo_postal": null,
      "telefono": null,
      "web": null,
      "instagram": null,
      "horario": null,
      "terraza": false
    },
    {
      "id": "osm_node_7882066920",
      "nombre": "Punto Zero",
      "tipo": "pub",
      "lat": 43.362919,
      "lon": -5.8652018,
      "direccion": null,
      "codigo_postal": null,
      "telefono": null,
      "web": null,
      "instagram": null,
      "horario": null,
      "terraza": false
    },
    {
      "id": "osm_node_7882066921",
      "nombre": "Lord Vader",
      "tipo": "pub",
      "lat": 43.3629863,
      "lon": -5.8653981,
      "direccion": null,
      "codigo_postal": null,
      "telefono": null,
      "web": null,
      "instagram": "https://www.instagram.com/sr.lordvader/",
      "horario": null,
      "terraza": false
    },
    {
      "id": "osm_node_7882118067",
      "nombre": "Cafetería MQ",
      "tipo": "cafe",
      "lat": 43.3680958,
      "lon": -5.8767647,
      "direccion": null,
      "codigo_postal": null,
      "telefono": null,
      "web": null,
      "instagram": null,
      "horario": null,
      "terraza": false
    },
    {
      "id": "osm_node_7884384662",
      "nombre": "Rezeta Cantina",
      "tipo": "pub",
      "lat": 43.3573552,
      "lon": -5.8477749,
      "direccion": null,
      "codigo_postal": null,
      "telefono": null,
      "web": null,
      "instagram": null,
      "horario": null,
      "terraza": false
    },
    {
      "id": "osm_node_7884424365",
      "nombre": "El Veintiuno",
      "tipo": "pub",
      "lat": 43.3566112,
      "lon": -5.8495887,
      "direccion": null,
      "codigo_postal": null,
      "telefono": null,
      "web": null,
      "instagram": null,
      "horario": null,
      "terraza": false
    },
    {
      "id": "osm_node_7884467970",
      "nombre": "Picos Jazz Bar",
      "tipo": "bar",
      "lat": 43.3567053,
      "lon": -5.8536395,
      "direccion": null,
      "codigo_postal": null,
      "telefono": null,
      "web": null,
      "instagram": null,
      "horario": null,
      "terraza": false
    },
    {
      "id": "osm_node_7884610969",
      "nombre": "Café Chistera",
      "tipo": "cafe",
      "lat": 43.3632058,
      "lon": -5.8524635,
      "direccion": null,
      "codigo_postal": null,
      "telefono": null,
      "web": null,
      "instagram": null,
      "horario": null,
      "terraza": false
    },
    {
      "id": "osm_node_7885204824",
      "nombre": "Willl Bar",
      "tipo": "pub",
      "lat": 43.3606563,
      "lon": -5.8554058,
      "direccion": null,
      "codigo_postal": null,
      "telefono": null,
      "web": null,
      "instagram": null,
      "horario": null,
      "terraza": true
    },
    {
      "id": "osm_node_7885216451",
      "nombre": "No Te Cortes Con El Jamón",
      "tipo": "pub",
      "lat": 43.3618449,
      "lon": -5.8457834,
      "direccion": "Calle Ramón y Cajal 10",
      "codigo_postal": "33003",
      "telefono": "+34 984 83 96 36",
      "web": "https://notecortesconeljamon.com",
      "instagram": null,
      "horario": null,
      "terraza": false
    },
    {
      "id": "osm_node_7885231319",
      "nombre": "Café Riego",
      "tipo": "pub",
      "lat": 43.3614123,
      "lon": -5.8456435,
      "direccion": null,
      "codigo_postal": null,
      "telefono": null,
      "web": null,
      "instagram": null,
      "horario": null,
      "terraza": false
    },
    {
      "id": "osm_node_7885281791",
      "nombre": "Valentina Bakery Bar",
      "tipo": "cafe",
      "lat": 43.360667,
      "lon": -5.8552931,
      "direccion": null,
      "codigo_postal": null,
      "telefono": null,
      "web": null,
      "instagram": null,
      "horario": null,
      "terraza": true
    },
    {
      "id": "osm_node_7885307929",
      "nombre": "Taberna Del Arco",
      "tipo": "pub",
      "lat": 43.3613578,
      "lon": -5.8575992,
      "direccion": "Plaza de América",
      "codigo_postal": "33005",
      "telefono": null,
      "web": null,
      "instagram": null,
      "horario": null,
      "terraza": true
    },
    {
      "id": "osm_node_7886358365",
      "nombre": "Bayres Café Bar",
      "tipo": "cafe",
      "lat": 43.3580627,
      "lon": -5.8498593,
      "direccion": null,
      "codigo_postal": null,
      "telefono": null,
      "web": null,
      "instagram": null,
      "horario": null,
      "terraza": true
    },
    {
      "id": "osm_node_7887036633",
      "nombre": "Cervecería L'Artesana",
      "tipo": "pub",
      "lat": 43.3642276,
      "lon": -5.8470479,
      "direccion": "Calle Santa Clara 8",
      "codigo_postal": null,
      "telefono": "+34 664 61 89 70",
      "web": null,
      "instagram": null,
      "horario": "Mo-Su 17:30-01:00",
      "terraza": false
    },
    {
      "id": "osm_node_7897375760",
      "nombre": "SR Fox",
      "tipo": "bar",
      "lat": 43.3619272,
      "lon": -5.8574947,
      "direccion": null,
      "codigo_postal": null,
      "telefono": null,
      "web": null,
      "instagram": null,
      "horario": null,
      "terraza": false
    },
    {
      "id": "osm_node_7897410382",
      "nombre": "Cuarto y Mitá",
      "tipo": "pub",
      "lat": 43.3630206,
      "lon": -5.8557378,
      "direccion": null,
      "codigo_postal": null,
      "telefono": null,
      "web": null,
      "instagram": null,
      "horario": null,
      "terraza": false
    },
    {
      "id": "osm_node_7900746480",
      "nombre": "Moon",
      "tipo": "pub",
      "lat": 43.367102,
      "lon": -5.8739877,
      "direccion": null,
      "codigo_postal": null,
      "telefono": null,
      "web": null,
      "instagram": "https://www.instagram.com/cafe_moon2024/",
      "horario": null,
      "terraza": true
    },
    {
      "id": "osm_node_7916676284",
      "nombre": "Cervecería Cimmeria",
      "tipo": "pub",
      "lat": 43.3641468,
      "lon": -5.84176,
      "direccion": "Calle Martínez Vigil 8",
      "codigo_postal": null,
      "telefono": "+34 648 25 87 62",
      "web": null,
      "instagram": "https://www.instagram.com/cimmeria_oviedo/",
      "horario": "Tu-Th 18:30-23:00; Fr-Sa 18:30-01:00; Mo,Su off",
      "terraza": false
    },
    {
      "id": "osm_node_7917551077",
      "nombre": "Café Mesón Cami",
      "tipo": "pub",
      "lat": 43.367389,
      "lon": -5.8680511,
      "direccion": null,
      "codigo_postal": null,
      "telefono": null,
      "web": null,
      "instagram": null,
      "horario": null,
      "terraza": false
    },
    {
      "id": "osm_node_8315190580",
      "nombre": "Café Campillin",
      "tipo": "pub",
      "lat": 43.3578512,
      "lon": -5.8424162,
      "direccion": null,
      "codigo_postal": null,
      "telefono": null,
      "web": null,
      "instagram": null,
      "horario": null,
      "terraza": false
    },
    {
      "id": "osm_node_8595475357",
      "nombre": "London",
      "tipo": "cafe",
      "lat": 43.3623063,
      "lon": -5.8569136,
      "direccion": null,
      "codigo_postal": null,
      "telefono": null,
      "web": null,
      "instagram": null,
      "horario": null,
      "terraza": false
    },
    {
      "id": "osm_node_8699168368",
      "nombre": "Gator's Dockside - Oviedo",
      "tipo": "bar",
      "lat": 28.6572893,
      "lon": -81.2068122,
      "direccion": null,
      "codigo_postal": null,
      "telefono": null,
      "web": null,
      "instagram": null,
      "horario": null,
      "terraza": false
    },
    {
      "id": "osm_node_8699168369",
      "nombre": "Irish 31 Pub",
      "tipo": "pub",
      "lat": 28.6561761,
      "lon": -81.2094649,
      "direccion": null,
      "codigo_postal": null,
      "telefono": null,
      "web": null,
      "instagram": null,
      "horario": null,
      "terraza": false
    },
    {
      "id": "osm_node_8772930940",
      "nombre": "Bar Ortea",
      "tipo": "pub",
      "lat": 43.3317038,
      "lon": -5.7776954,
      "direccion": null,
      "codigo_postal": null,
      "telefono": "+34 985 788 059",
      "web": null,
      "instagram": null,
      "horario": null,
      "terraza": false
    },
    {
      "id": "osm_node_8846979640",
      "nombre": "II milenio",
      "tipo": "cafe",
      "lat": 43.3679842,
      "lon": -5.8440392,
      "direccion": "Calle Joaquín Vaquero Palacios",
      "codigo_postal": null,
      "telefono": null,
      "web": null,
      "instagram": null,
      "horario": null,
      "terraza": true
    },
    {
      "id": "osm_node_8855281017",
      "nombre": "Café Regenta",
      "tipo": "cafe",
      "lat": 43.361458,
      "lon": -5.8636963,
      "direccion": null,
      "codigo_postal": null,
      "telefono": null,
      "web": null,
      "instagram": null,
      "horario": null,
      "terraza": false
    },
    {
      "id": "osm_node_8861302203",
      "nombre": "Café Solera",
      "tipo": "cafe",
      "lat": 43.3598474,
      "lon": -5.8472463,
      "direccion": "Calle Rosal",
      "codigo_postal": null,
      "telefono": null,
      "web": null,
      "instagram": null,
      "horario": null,
      "terraza": true
    },
    {
      "id": "osm_node_8911427181",
      "nombre": "Bar Trópico",
      "tipo": "cafe",
      "lat": 43.3678787,
      "lon": -5.8441404,
      "direccion": "Calle Joaquín Vaquero Palacios",
      "codigo_postal": null,
      "telefono": null,
      "web": null,
      "instagram": null,
      "horario": null,
      "terraza": true
    },
    {
      "id": "osm_node_9088623556",
      "nombre": "La Chica de Ayer",
      "tipo": "bar",
      "lat": 43.3615346,
      "lon": -5.8445699,
      "direccion": null,
      "codigo_postal": null,
      "telefono": null,
      "web": null,
      "instagram": null,
      "horario": null,
      "terraza": true
    },
    {
      "id": "osm_node_9178768423",
      "nombre": "Cafetería La Cooperativa",
      "tipo": "cafe",
      "lat": 43.3629184,
      "lon": -5.8529985,
      "direccion": null,
      "codigo_postal": null,
      "telefono": "+34 650 544 133",
      "web": null,
      "instagram": null,
      "horario": null,
      "terraza": false
    },
    {
      "id": "osm_node_9179987942",
      "nombre": "Distrito 50",
      "tipo": "cafe",
      "lat": 43.3606821,
      "lon": -5.8612587,
      "direccion": null,
      "codigo_postal": null,
      "telefono": null,
      "web": null,
      "instagram": null,
      "horario": null,
      "terraza": false
    },
    {
      "id": "osm_node_9215697393",
      "nombre": "Thyrsus",
      "tipo": "pub",
      "lat": 43.3666504,
      "lon": -5.8530935,
      "direccion": null,
      "codigo_postal": null,
      "telefono": null,
      "web": null,
      "instagram": null,
      "horario": null,
      "terraza": false
    },
    {
      "id": "osm_node_9215697397",
      "nombre": "Café Y Tapas Con Calma",
      "tipo": "cafe",
      "lat": 43.3655825,
      "lon": -5.851881,
      "direccion": null,
      "codigo_postal": null,
      "telefono": null,
      "web": null,
      "instagram": "https://www.instagram.com/cafe_concalma",
      "horario": null,
      "terraza": false
    },
    {
      "id": "osm_node_9215710100",
      "nombre": "La Tortilla",
      "tipo": "cafe",
      "lat": 43.3671471,
      "lon": -5.8506697,
      "direccion": null,
      "codigo_postal": null,
      "telefono": null,
      "web": null,
      "instagram": null,
      "horario": null,
      "terraza": false
    },
    {
      "id": "osm_node_9225335203",
      "nombre": "Kapy Bar",
      "tipo": "cafe",
      "lat": 43.3657807,
      "lon": -5.8512885,
      "direccion": null,
      "codigo_postal": null,
      "telefono": null,
      "web": null,
      "instagram": null,
      "horario": null,
      "terraza": true
    },
    {
      "id": "osm_node_9225440985",
      "nombre": "El Parreiro",
      "tipo": "cafe",
      "lat": 43.3670113,
      "lon": -5.852879,
      "direccion": null,
      "codigo_postal": null,
      "telefono": null,
      "web": null,
      "instagram": null,
      "horario": null,
      "terraza": false
    },
    {
      "id": "osm_node_9225449333",
      "nombre": "Cafetería Santa Fe",
      "tipo": "cafe",
      "lat": 43.3647183,
      "lon": -5.8542576,
      "direccion": null,
      "codigo_postal": null,
      "telefono": null,
      "web": null,
      "instagram": null,
      "horario": null,
      "terraza": true
    },
    {
      "id": "osm_node_9226907621",
      "nombre": "Teitos",
      "tipo": "bar",
      "lat": 43.3710106,
      "lon": -5.834872,
      "direccion": null,
      "codigo_postal": null,
      "telefono": null,
      "web": null,
      "instagram": null,
      "horario": null,
      "terraza": false
    },
    {
      "id": "osm_node_9309543893",
      "nombre": "Casa Silo",
      "tipo": "bar",
      "lat": 43.367039,
      "lon": -5.8422095,
      "direccion": null,
      "codigo_postal": null,
      "telefono": null,
      "web": null,
      "instagram": null,
      "horario": null,
      "terraza": true
    },
    {
      "id": "osm_node_9325133101",
      "nombre": "Montevideo",
      "tipo": "cafe",
      "lat": 43.3684429,
      "lon": -5.8234902,
      "direccion": null,
      "codigo_postal": null,
      "telefono": null,
      "web": null,
      "instagram": null,
      "horario": null,
      "terraza": false
    },
    {
      "id": "osm_node_9325168305",
      "nombre": "Sweet Coffee",
      "tipo": "cafe",
      "lat": 43.3677026,
      "lon": -5.8257044,
      "direccion": null,
      "codigo_postal": null,
      "telefono": null,
      "web": null,
      "instagram": null,
      "horario": null,
      "terraza": false
    },
    {
      "id": "osm_node_9382111999",
      "nombre": "The Burlesque Club",
      "tipo": "pub",
      "lat": 43.3638356,
      "lon": -5.8420142,
      "direccion": "Calle Martínez Vigil 4",
      "codigo_postal": "33010",
      "telefono": null,
      "web": null,
      "instagram": null,
      "horario": null,
      "terraza": true
    },
    {
      "id": "osm_node_9431035926",
      "nombre": "La Cupula",
      "tipo": "cafe",
      "lat": 43.3670046,
      "lon": -5.8468705,
      "direccion": null,
      "codigo_postal": null,
      "telefono": null,
      "web": null,
      "instagram": null,
      "horario": null,
      "terraza": true
    },
    {
      "id": "osm_node_9431035927",
      "nombre": "Cafeteria La Galerna",
      "tipo": "cafe",
      "lat": 43.3669582,
      "lon": -5.8474815,
      "direccion": null,
      "codigo_postal": null,
      "telefono": null,
      "web": null,
      "instagram": null,
      "horario": null,
      "terraza": true
    },
    {
      "id": "osm_node_9551881576",
      "nombre": "Cafeteria Sousas",
      "tipo": "cafe",
      "lat": 43.3653797,
      "lon": -5.8463523,
      "direccion": null,
      "codigo_postal": null,
      "telefono": null,
      "web": null,
      "instagram": null,
      "horario": null,
      "terraza": true
    },
    {
      "id": "osm_node_9672988468",
      "nombre": "Sidreria Rio la Plata",
      "tipo": "bar",
      "lat": 43.3695228,
      "lon": -5.8336574,
      "direccion": null,
      "codigo_postal": null,
      "telefono": null,
      "web": null,
      "instagram": null,
      "horario": null,
      "terraza": false
    },
    {
      "id": "osm_node_10089898415",
      "nombre": "Glam",
      "tipo": "pub",
      "lat": 43.3607261,
      "lon": -5.8435524,
      "direccion": "Calle Mon 9",
      "codigo_postal": "33009",
      "telefono": null,
      "web": null,
      "instagram": null,
      "horario": null,
      "terraza": false
    },
    {
      "id": "osm_node_10089912041",
      "nombre": "Babia",
      "tipo": "pub",
      "lat": 43.3610172,
      "lon": -5.8435466,
      "direccion": "Calle Mon 21",
      "codigo_postal": "33003",
      "telefono": null,
      "web": null,
      "instagram": null,
      "horario": null,
      "terraza": false
    },
    {
      "id": "osm_node_10089942385",
      "nombre": "Valentina Bakery Bar",
      "tipo": "cafe",
      "lat": 43.3598715,
      "lon": -5.845296,
      "direccion": "Calle Fierro 13",
      "codigo_postal": "33009",
      "telefono": null,
      "web": null,
      "instagram": null,
      "horario": null,
      "terraza": false
    },
    {
      "id": "osm_node_10095479340",
      "nombre": "Cafetería Rivoli",
      "tipo": "cafe",
      "lat": 43.3638455,
      "lon": -5.8512763,
      "direccion": "Calle Uría / Cai Uría 7",
      "codigo_postal": "33003",
      "telefono": null,
      "web": null,
      "instagram": null,
      "horario": null,
      "terraza": true
    },
    {
      "id": "osm_node_10095487317",
      "nombre": "Santagloria",
      "tipo": "cafe",
      "lat": 43.3627793,
      "lon": -5.8492299,
      "direccion": "Calle Uría / Cai Uría 14",
      "codigo_postal": "33003",
      "telefono": null,
      "web": null,
      "instagram": null,
      "horario": null,
      "terraza": true
    },
    {
      "id": "osm_node_10095487318",
      "nombre": "Quemedas Oviedo",
      "tipo": "cafe",
      "lat": 43.3644052,
      "lon": -5.8533157,
      "direccion": "Calle Marqués de Pidal 18",
      "codigo_postal": "33004",
      "telefono": null,
      "web": null,
      "instagram": null,
      "horario": null,
      "terraza": false
    },
    {
      "id": "osm_node_10096345759",
      "nombre": "Pionero Coffee Roasters",
      "tipo": "cafe",
      "lat": 43.3646711,
      "lon": -5.8538721,
      "direccion": "Calle Marqués de Pidal 21",
      "codigo_postal": "33004",
      "telefono": null,
      "web": null,
      "instagram": null,
      "horario": null,
      "terraza": false
    },
    {
      "id": "osm_node_10096359905",
      "nombre": "Travel 18",
      "tipo": "cafe",
      "lat": 43.367736,
      "lon": -5.8516323,
      "direccion": null,
      "codigo_postal": null,
      "telefono": null,
      "web": null,
      "instagram": null,
      "horario": null,
      "terraza": true
    },
    {
      "id": "osm_node_10096370504",
      "nombre": "Antiguo Colonial",
      "tipo": "cafe",
      "lat": 43.3656722,
      "lon": -5.8498259,
      "direccion": "Calle Nueve de Mayo 2",
      "codigo_postal": "33002",
      "telefono": null,
      "web": null,
      "instagram": null,
      "horario": null,
      "terraza": true
    },
    {
      "id": "osm_node_10106740098",
      "nombre": "Cafetería Titanic",
      "tipo": "cafe",
      "lat": 43.3675508,
      "lon": -5.8419666,
      "direccion": "Calle Padre Florencio 2",
      "codigo_postal": "33011",
      "telefono": null,
      "web": null,
      "instagram": null,
      "horario": null,
      "terraza": true
    },
    {
      "id": "osm_node_10106868494",
      "nombre": "Urban's",
      "tipo": "pub",
      "lat": 43.3848324,
      "lon": -5.82125,
      "direccion": "Calle Ignacio Herrero Garralda 6",
      "codigo_postal": "33011",
      "telefono": null,
      "web": null,
      "instagram": null,
      "horario": null,
      "terraza": false
    },
    {
      "id": "osm_node_10106868495",
      "nombre": "Cafetería Aloha",
      "tipo": "cafe",
      "lat": 43.3842232,
      "lon": -5.8186667,
      "direccion": "Calle Jaime Truyols Santonja 5",
      "codigo_postal": "33011",
      "telefono": null,
      "web": null,
      "instagram": null,
      "horario": null,
      "terraza": false
    },
    {
      "id": "osm_node_10107197302",
      "nombre": "Go! Coffee",
      "tipo": "cafe",
      "lat": 43.3647913,
      "lon": -5.850535,
      "direccion": "Calle Doctor Casal 6",
      "codigo_postal": "33002",
      "telefono": null,
      "web": null,
      "instagram": null,
      "horario": null,
      "terraza": false
    },
    {
      "id": "osm_node_10115150104",
      "nombre": "Cervecería El Bulldog",
      "tipo": "bar",
      "lat": 43.3668704,
      "lon": -5.8297169,
      "direccion": "Calle Río Dobra 4",
      "codigo_postal": "33010",
      "telefono": null,
      "web": null,
      "instagram": null,
      "horario": null,
      "terraza": false
    },
    {
      "id": "osm_node_10115150105",
      "nombre": "Cafetería Express",
      "tipo": "cafe",
      "lat": 43.3671668,
      "lon": -5.829971,
      "direccion": "Calle Río Ibias 1",
      "codigo_postal": "33010",
      "telefono": null,
      "web": null,
      "instagram": null,
      "horario": null,
      "terraza": false
    },
    {
      "id": "osm_node_10117016348",
      "nombre": "Bistrot & Coffee",
      "tipo": "cafe",
      "lat": 43.3646575,
      "lon": -5.8520766,
      "direccion": "Calle Uría / Cai Uría 56",
      "codigo_postal": "33003",
      "telefono": null,
      "web": null,
      "instagram": null,
      "horario": null,
      "terraza": true
    },
    {
      "id": "osm_node_10117064247",
      "nombre": "26 Grados",
      "tipo": "cafe",
      "lat": 43.3545433,
      "lon": -5.8620773,
      "direccion": "Calle José Ramón Tolívar Faes 5",
      "codigo_postal": "33006",
      "telefono": null,
      "web": null,
      "instagram": null,
      "horario": null,
      "terraza": false
    },
    {
      "id": "osm_node_10121455100",
      "nombre": "Casadiella & Café",
      "tipo": "cafe",
      "lat": 43.3661012,
      "lon": -5.8468146,
      "direccion": "Calle Los Avellanos 3",
      "codigo_postal": "33002",
      "telefono": null,
      "web": null,
      "instagram": null,
      "horario": null,
      "terraza": false
    },