{
  "ciudad": "Palencia",
  "total": 478,
  "locales": [
    {
      "id": "osm_node_536615085",
      "nombre": "Hostal Puente Fitero",
      "tipo": "pub",
      "lat": 42.2865668,
      "lon": -4.2557293,
      "direccion": "Calle Santa María 3",
      "codigo_postal": "34468",
      "telefono": "+34 979151822",
      "web": null,
      "instagram": null,
      "horario": null,
      "terraza": false
    },
    {
      "id": "osm_node_536686386",
      "nombre": "Albergue Jacques de Molay",
      "tipo": "bar",
      "lat": 42.3625652,
      "lon": -4.8905548,
      "direccion": "Calle Iglesia 18",
      "codigo_postal": "34349",
      "telefono": "+34 979883679;+34 657165011",
      "web": null,
      "instagram": null,
      "horario": "Feb 01-Dec 10: 07:00-23:00",
      "terraza": false
    },
    {
      "id": "osm_node_876530199",
      "nombre": "Peña Jones",
      "tipo": "biergarten",
      "lat": 42.4140346,
      "lon": -4.4954672,
      "direccion": null,
      "codigo_postal": null,
      "telefono": null,
      "web": null,
      "instagram": null,
      "horario": null,
      "terraza": false
    },
    {
      "id": "osm_node_876530248",
      "nombre": "Bar Eugenia",
      "tipo": "pub",
      "lat": 42.4115603,
      "lon": -4.4965236,
      "direccion": null,
      "codigo_postal": null,
      "telefono": null,
      "web": null,
      "instagram": null,
      "horario": null,
      "terraza": false
    },
    {
      "id": "osm_node_1079076189",
      "nombre": "Las Cantigas",
      "tipo": "cafe",
      "lat": 42.3163648,
      "lon": -4.5424482,
      "direccion": null,
      "codigo_postal": null,
      "telefono": null,
      "web": null,
      "instagram": null,
      "horario": null,
      "terraza": true
    },
    {
      "id": "osm_node_1369731290",
      "nombre": "Los Fresnos",
      "tipo": "bar",
      "lat": 42.0139369,
      "lon": -4.5246844,
      "direccion": null,
      "codigo_postal": null,
      "telefono": null,
      "web": null,
      "instagram": null,
      "horario": null,
      "terraza": false
    },
    {
      "id": "osm_node_1372903745",
      "nombre": "Niza",
      "tipo": "bar",
      "lat": 42.1927595,
      "lon": -4.2935386,
      "direccion": null,
      "codigo_postal": null,
      "telefono": null,
      "web": null,
      "instagram": null,
      "horario": null,
      "terraza": false
    },
    {
      "id": "osm_node_1372903746",
      "nombre": "Central",
      "tipo": "bar",
      "lat": 42.1927669,
      "lon": -4.2930416,
      "direccion": null,
      "codigo_postal": null,
      "telefono": null,
      "web": null,
      "instagram": null,
      "horario": null,
      "terraza": false
    },
    {
      "id": "osm_node_1396833828",
      "nombre": "Zeus",
      "tipo": "bar",
      "lat": 42.1935601,
      "lon": -4.2928385,
      "direccion": null,
      "codigo_postal": null,
      "telefono": null,
      "web": null,
      "instagram": null,
      "horario": null,
      "terraza": false
    },
    {
      "id": "osm_node_1396833832",
      "nombre": "Babis",
      "tipo": "cafe",
      "lat": 42.1931759,
      "lon": -4.2934312,
      "direccion": null,
      "codigo_postal": null,
      "telefono": null,
      "web": null,
      "instagram": null,
      "horario": null,
      "terraza": false
    },
    {
      "id": "osm_node_1502323570",
      "nombre": "Bar el Refugio",
      "tipo": "bar",
      "lat": 42.0832775,
      "lon": -4.7837349,
      "direccion": null,
      "codigo_postal": null,
      "telefono": null,
      "web": null,
      "instagram": null,
      "horario": null,
      "terraza": false
    },
    {
      "id": "osm_node_1502323572",
      "nombre": "Café-Bar Mayor 24",
      "tipo": "bar",
      "lat": 42.0833934,
      "lon": -4.7854596,
      "direccion": null,
      "codigo_postal": null,
      "telefono": null,
      "web": null,
      "instagram": null,
      "horario": null,
      "terraza": false
    },
    {
      "id": "osm_node_1505776241",
      "nombre": "Bar Arrabal",
      "tipo": "pub",
      "lat": 42.2690113,
      "lon": -4.4460484,
      "direccion": null,
      "codigo_postal": null,
      "telefono": null,
      "web": null,
      "instagram": null,
      "horario": null,
      "terraza": false
    },
    {
      "id": "osm_node_1505776243",
      "nombre": "Bar Las Escuelas",
      "tipo": "pub",
      "lat": 42.2596737,
      "lon": -4.3461827,
      "direccion": null,
      "codigo_postal": null,
      "telefono": null,
      "web": null,
      "instagram": null,
      "horario": null,
      "terraza": false
    },
    {
      "id": "osm_node_1505776244",
      "nombre": "Bar Tachu",
      "tipo": "pub",
      "lat": 42.2873659,
      "lon": -4.2585853,
      "direccion": null,
      "codigo_postal": null,
      "telefono": null,
      "web": null,
      "instagram": null,
      "horario": null,
      "terraza": false
    },
    {
      "id": "osm_node_1505776246",
      "nombre": "Bar de Paso",
      "tipo": "pub",
      "lat": 42.268831,
      "lon": -4.4471611,
      "direccion": null,
      "codigo_postal": null,
      "telefono": null,
      "web": null,
      "instagram": null,
      "horario": null,
      "terraza": false
    },
    {
      "id": "osm_node_1506280664",
      "nombre": "Albergue Amanecer",
      "tipo": "bar",
      "lat": 42.297744,
      "lon": -4.4987214,
      "direccion": "Calle José Antonio 2",
      "codigo_postal": "34447",
      "telefono": "+34 629178543",
      "web": "http://www.youtube.com/watch?v=T-Y42wED9sg",
      "instagram": null,
      "horario": null,
      "terraza": false
    },
    {
      "id": "osm_node_1506280687",
      "nombre": "Chiringuito de Villovieco",
      "tipo": "pub",
      "lat": 42.2934037,
      "lon": -4.482903,
      "direccion": null,
      "codigo_postal": "34449",
      "telefono": null,
      "web": null,
      "instagram": null,
      "horario": null,
      "terraza": true
    },
    {
      "id": "osm_node_1513405564",
      "nombre": "Carolina",
      "tipo": "bar",
      "lat": 42.1523615,
      "lon": -4.6931346,
      "direccion": null,
      "codigo_postal": null,
      "telefono": null,
      "web": null,
      "instagram": null,
      "horario": null,
      "terraza": false
    },
    {
      "id": "osm_node_1513405569",
      "nombre": "Puerta la Villa",
      "tipo": "bar",
      "lat": 42.1517021,
      "lon": -4.6885607,
      "direccion": null,
      "codigo_postal": null,
      "telefono": null,
      "web": "http://www.paredesdenava.com/Informacion/Servicios/Cafeterias/Puerta_Villa.htm",
      "instagram": null,
      "horario": null,
      "terraza": false
    },
    {
      "id": "osm_node_1513405594",
      "nombre": "Castilla",
      "tipo": "bar",
      "lat": 42.1519975,
      "lon": -4.6961085,
      "direccion": null,
      "codigo_postal": null,
      "telefono": null,
      "web": null,
      "instagram": null,
      "horario": null,
      "terraza": false
    },
    {
      "id": "osm_node_1513405723",
      "nombre": "Los Picos Pardos",
      "tipo": "bar",
      "lat": 42.1521727,
      "lon": -4.6921409,
      "direccion": null,
      "codigo_postal": null,
      "telefono": null,
      "web": null,
      "instagram": null,
      "horario": null,
      "terraza": false
    },
    {
      "id": "osm_node_1574627046",
      "nombre": "Las Lagunas",
      "tipo": "bar",
      "lat": 42.0508305,
      "lon": -4.253311,
      "direccion": null,
      "codigo_postal": null,
      "telefono": null,
      "web": null,
      "instagram": null,
      "horario": null,
      "terraza": false
    },
    {
      "id": "osm_node_1574627048",
      "nombre": "Pasarela",
      "tipo": "bar",
      "lat": 42.082799,
      "lon": -4.2089269,
      "direccion": null,
      "codigo_postal": null,
      "telefono": null,
      "web": null,
      "instagram": null,
      "horario": null,
      "terraza": false
    },
    {
      "id": "osm_node_1585523321",
      "nombre": "Sandino",
      "tipo": "cafe",
      "lat": 42.1505119,
      "lon": -4.087101,
      "direccion": null,
      "codigo_postal": null,
      "telefono": null,
      "web": null,
      "instagram": null,
      "horario": null,
      "terraza": false
    },
    {
      "id": "osm_node_1596829828",
      "nombre": "Venta La Campa",
      "tipo": "bar",
      "lat": 42.9694322,
      "lon": -4.4935401,
      "direccion": null,
      "codigo_postal": null,
      "telefono": null,
      "web": null,
      "instagram": null,
      "horario": null,
      "terraza": false
    },
    {
      "id": "osm_node_1617706078",
      "nombre": "Vikingos",
      "tipo": "bar",
      "lat": 42.1523844,
      "lon": -4.6932873,
      "direccion": null,
      "codigo_postal": null,
      "telefono": null,
      "web": null,
      "instagram": null,
      "horario": null,
      "terraza": false
    },
    {
      "id": "osm_node_1622370086",
      "nombre": "Alaska",
      "tipo": "bar",
      "lat": 42.01179,
      "lon": -4.5338851,
      "direccion": null,
      "codigo_postal": null,
      "telefono": null,
      "web": null,
      "instagram": null,
      "horario": null,
      "terraza": false
    },
    {
      "id": "osm_node_1622592667",
      "nombre": "Brasilia",
      "tipo": "bar",
      "lat": 42.0126009,
      "lon": -4.5211409,
      "direccion": null,
      "codigo_postal": null,
      "telefono": null,
      "web": null,
      "instagram": null,
      "horario": null,
      "terraza": false
    },
    {
      "id": "osm_node_1640848036",
      "nombre": "Real Istambul",
      "tipo": "cafe",
      "lat": 42.0030504,
      "lon": -4.5279907,
      "direccion": null,
      "codigo_postal": null,
      "telefono": null,
      "web": null,
      "instagram": null,
      "horario": null,
      "terraza": false
    },
    {
      "id": "osm_node_1781100340",
      "nombre": "El Rincón del Rubio",
      "tipo": "bar",
      "lat": 42.151836,
      "lon": -4.6927041,
      "direccion": null,
      "codigo_postal": null,
      "telefono": null,
      "web": null,
      "instagram": null,
      "horario": null,
      "terraza": false
    },
    {
      "id": "osm_node_1832676498",
      "nombre": "Bar Adrián",
      "tipo": "bar",
      "lat": 42.0079242,
      "lon": -4.5289915,
      "direccion": null,
      "codigo_postal": null,
      "telefono": null,
      "web": null,
      "instagram": null,
      "horario": null,
      "terraza": false
    },
    {
      "id": "osm_node_1832676499",
      "nombre": "Bar Moreno",
      "tipo": "bar",
      "lat": 42.0080795,
      "lon": -4.528555,
      "direccion": null,
      "codigo_postal": null,
      "telefono": null,
      "web": null,
      "instagram": null,
      "horario": null,
      "terraza": false
    },
    {
      "id": "osm_node_1832676501",
      "nombre": "Blue Velvet",
      "tipo": "bar",
      "lat": 42.0069833,
      "lon": -4.5305577,
      "direccion": null,
      "codigo_postal": null,
      "telefono": null,
      "web": null,
      "instagram": null,
      "horario": null,
      "terraza": false
    },
    {
      "id": "osm_node_1832676504",
      "nombre": "Baobab",
      "tipo": "bar",
      "lat": 42.0076337,
      "lon": -4.5283126,
      "direccion": null,
      "codigo_postal": null,
      "telefono": null,
      "web": null,
      "instagram": null,
      "horario": null,
      "terraza": true
    },
    {
      "id": "osm_node_1832676506",
      "nombre": "Donde El Pere",
      "tipo": "bar",
      "lat": 42.0075426,
      "lon": -4.5277309,
      "direccion": null,
      "codigo_postal": null,
      "telefono": null,
      "web": null,
      "instagram": null,
      "horario": null,
      "terraza": false
    },
    {
      "id": "osm_node_1832676508",
      "nombre": "El Nuevo Timbal",
      "tipo": "bar",
      "lat": 42.007574,
      "lon": -4.5277607,
      "direccion": null,
      "codigo_postal": null,
      "telefono": null,
      "web": null,
      "instagram": null,
      "horario": null,
      "terraza": false
    },
    {
      "id": "osm_node_1832676522",
      "nombre": "Stella",
      "tipo": "cafe",
      "lat": 42.0060956,
      "lon": -4.5304372,
      "direccion": null,
      "codigo_postal": null,
      "telefono": null,
      "web": null,
      "instagram": null,
      "horario": null,
      "terraza": false
    },
    {
      "id": "osm_node_1833315117",
      "nombre": "El Taller",
      "tipo": "pub",
      "lat": 42.0102704,
      "lon": -4.5440662,
      "direccion": null,
      "codigo_postal": null,
      "telefono": null,
      "web": null,
      "instagram": null,
      "horario": null,
      "terraza": false
    },
    {
      "id": "osm_node_1884338682",
      "nombre": "Carma",
      "tipo": "cafe",
      "lat": 42.7940625,
      "lon": -4.264502,
      "direccion": null,
      "codigo_postal": null,
      "telefono": null,
      "web": null,
      "instagram": null,
      "horario": null,
      "terraza": false
    },
    {
      "id": "osm_node_1885334240",
      "nombre": "Monasterio Santa María la Real",
      "tipo": "cafe",
      "lat": 42.7963748,
      "lon": -4.2727243,
      "direccion": null,
      "codigo_postal": null,
      "telefono": null,
      "web": null,
      "instagram": null,
      "horario": null,
      "terraza": false
    },
    {
      "id": "osm_node_1940274741",
      "nombre": "La Gomila",
      "tipo": "bar",
      "lat": 42.0086485,
      "lon": -4.5295087,
      "direccion": null,
      "codigo_postal": null,
      "telefono": null,
      "web": null,
      "instagram": null,
      "horario": null,
      "terraza": false
    },
    {
      "id": "osm_node_1940274868",
      "nombre": "Universonoro",
      "tipo": "bar",
      "lat": 42.0085339,
      "lon": -4.5295191,
      "direccion": null,
      "codigo_postal": null,
      "telefono": null,
      "web": null,
      "instagram": null,
      "horario": null,
      "terraza": false
    },
    {
      "id": "osm_node_1942834817",
      "nombre": "San Miguel",
      "tipo": "pub",
      "lat": 42.1372019,
      "lon": -4.8412782,
      "direccion": null,
      "codigo_postal": null,
      "telefono": null,
      "web": null,
      "instagram": null,
      "horario": null,
      "terraza": false
    },
    {
      "id": "osm_node_2219901571",
      "nombre": "JAZZ",
      "tipo": "pub",
      "lat": 42.5226255,
      "lon": -4.7383374,
      "direccion": null,
      "codigo_postal": null,
      "telefono": null,
      "web": null,
      "instagram": null,
      "horario": null,
      "terraza": false
    },
    {
      "id": "osm_node_2219902285",
      "nombre": "Mónaco",
      "tipo": "bar",
      "lat": 42.5227164,
      "lon": -4.7378814,
      "direccion": null,
      "codigo_postal": null,
      "telefono": null,
      "web": null,
      "instagram": null,
      "horario": null,
      "terraza": false
    },
    {
      "id": "osm_node_2219902921",
      "nombre": "Oro Negro",
      "tipo": "bar",
      "lat": 42.522418,
      "lon": -4.7372248,
      "direccion": null,
      "codigo_postal": null,
      "telefono": null,
      "web": null,
      "instagram": null,
      "horario": null,
      "terraza": false
    },
    {
      "id": "osm_node_2295039878",
      "nombre": "Teleclub",
      "tipo": "bar",
      "lat": 42.5319919,
      "lon": -4.559644,
      "direccion": null,
      "codigo_postal": null,
      "telefono": null,
      "web": null,
      "instagram": null,
      "horario": null,
      "terraza": false
    },
    {
      "id": "osm_node_2432636393",
      "nombre": "Bar Cigarro",
      "tipo": "bar",
      "lat": 42.5642597,
      "lon": -4.5837394,
      "direccion": null,
      "codigo_postal": "34475",
      "telefono": null,
      "web": null,
      "instagram": null,
      "horario": null,
      "terraza": false
    },
    {
      "id": "osm_node_2458508766",
      "nombre": "Cáceres",
      "tipo": "pub",
      "lat": 42.0187622,
      "lon": -4.5337674,
      "direccion": null,
      "codigo_postal": null,
      "telefono": null,
      "web": null,
      "instagram": null,
      "horario": null,
      "terraza": false
    },
    {
      "id": "osm_node_2458508768",
      "nombre": "Josmi",
      "tipo": "pub",
      "lat": 42.0185708,
      "lon": -4.5336064,
      "direccion": null,
      "codigo_postal": null,
      "telefono": null,
      "web": null,
      "instagram": null,
      "horario": null,
      "terraza": false
    },
    {
      "id": "osm_node_2458508785",
      "nombre": "El Bulevar",
      "tipo": "bar",
      "lat": 42.0199537,
      "lon": -4.5306748,
      "direccion": null,
      "codigo_postal": null,
      "telefono": null,
      "web": null,
      "instagram": null,
      "horario": null,
      "terraza": false
    },
    {
      "id": "osm_node_2458508806",
      "nombre": "Buenos Aires",
      "tipo": "bar",
      "lat": 42.0158866,
      "lon": -4.5333463,
      "direccion": null,
      "codigo_postal": null,
      "telefono": null,
      "web": null,
      "instagram": null,
      "horario": null,
      "terraza": false
    },
    {
      "id": "osm_node_2458566406",
      "nombre": "Gon-Mar",
      "tipo": "bar",
      "lat": 42.1722417,
      "lon": -4.4703582,
      "direccion": null,
      "codigo_postal": null,
      "telefono": null,
      "web": null,
      "instagram": null,
      "horario": null,
      "terraza": false
    },
    {
      "id": "osm_node_2458567092",
      "nombre": "La Sinagoga",
      "tipo": "bar",
      "lat": 42.1727466,
      "lon": -4.4700256,
      "direccion": null,
      "codigo_postal": null,
      "telefono": null,
      "web": null,
      "instagram": null,
      "horario": null,
      "terraza": false
    },
    {
      "id": "osm_node_2459021747",
      "nombre": "Stop",
      "tipo": "pub",
      "lat": 41.862301,
      "lon": -4.1833301,
      "direccion": null,
      "codigo_postal": null,
      "telefono": null,
      "web": null,
      "instagram": null,
      "horario": null,
      "terraza": false
    },
    {
      "id": "osm_node_2459021754",
      "nombre": "Alfoz",
      "tipo": "pub",
      "lat": 41.8625673,
      "lon": -4.1841261,
      "direccion": null,
      "codigo_postal": null,
      "telefono": null,
      "web": null,
      "instagram": null,
      "horario": null,
      "terraza": false
    },
    {
      "id": "osm_node_3004066792",
      "nombre": "La Taberna del Capitán",
      "tipo": "bar",
      "lat": 42.0019721,
      "lon": -4.5198712,
      "direccion": "Calle Matías Nieto Serrano 2",
      "codigo_postal": "34004",
      "telefono": "+34979102016",
      "web": null,
      "instagram": null,
      "horario": null,
      "terraza": false
    },
    {
      "id": "osm_node_3004621620",
      "nombre": "La Casa Pequeña",
      "tipo": "bar",
      "lat": 41.9763268,
      "lon": -4.550539,
      "direccion": null,
      "codigo_postal": null,
      "telefono": null,
      "web": null,
      "instagram": null,
      "horario": null,
      "terraza": false
    },
    {
      "id": "osm_node_3006702010",
      "nombre": "Hostal Bar Ceres",
      "tipo": "bar",
      "lat": 41.9828802,
      "lon": -4.4273285,
      "direccion": null,
      "codigo_postal": null,
      "telefono": null,
      "web": null,
      "instagram": null,
      "horario": null,
      "terraza": false
    },
    {
      "id": "osm_node_3809251613",
      "nombre": "La Boca del Lobo",
      "tipo": "bar",
      "lat": 42.0181778,
      "lon": -4.5324689,
      "direccion": null,
      "codigo_postal": null,
      "telefono": null,
      "web": null,
      "instagram": null,
      "horario": null,
      "terraza": false
    },
    {
      "id": "osm_node_3809251614",
      "nombre": "La Parra",
      "tipo": "pub",
      "lat": 42.0188481,
      "lon": -4.5341755,
      "direccion": null,
      "codigo_postal": null,
      "telefono": null,
      "web": null,
      "instagram": null,
      "horario": null,
      "terraza": false
    },
    {
      "id": "osm_node_3809255416",
      "nombre": "Nueve Siete Nueve",
      "tipo": "bar",
      "lat": 42.0202376,
      "lon": -4.5317852,
      "direccion": null,
      "codigo_postal": null,
      "telefono": null,
      "web": null,
      "instagram": null,
      "horario": null,
      "terraza": false
    },
    {
      "id": "osm_node_3809255417",
      "nombre": "Moesia",
      "tipo": "bar",
      "lat": 42.0201569,
      "lon": -4.5314075,
      "direccion": null,
      "codigo_postal": null,
      "telefono": null,
      "web": null,
      "instagram": null,
      "horario": null,
      "terraza": false
    },
    {
      "id": "osm_node_3809255418",
      "nombre": "El Patio de Mi Casa",
      "tipo": "bar",
      "lat": 42.0192004,
      "lon": -4.5306179,
      "direccion": null,
      "codigo_postal": null,
      "telefono": null,
      "web": null,
      "instagram": null,
      "horario": null,
      "terraza": false
    },
    {
      "id": "osm_node_3809255422",
      "nombre": "Villar",
      "tipo": "bar",
      "lat": 42.01673,
      "lon": -4.5307729,
      "direccion": null,
      "codigo_postal": null,
      "telefono": null,
      "web": null,
      "instagram": null,
      "horario": null,
      "terraza": false
    },
    {
      "id": "osm_node_3812748388",
      "nombre": "Tele Club",
      "tipo": "bar",
      "lat": 42.7527643,
      "lon": -4.8409141,
      "direccion": null,
      "codigo_postal": null,
      "telefono": null,
      "web": null,
      "instagram": null,
      "horario": null,
      "terraza": false
    },
    {
      "id": "osm_node_3845991457",
      "nombre": "Bar Asun",
      "tipo": "bar",
      "lat": 42.3658088,
      "lon": -4.3818846,
      "direccion": "Plaza Francisco Uriarte",
      "codigo_postal": null,
      "telefono": "+34 979 817 132",
      "web": null,
      "instagram": null,
      "horario": null,
      "terraza": false
    },
    {
      "id": "osm_node_3846501468",
      "nombre": "Bar Garigolo",
      "tipo": "pub",
      "lat": 42.2661312,
      "lon": -4.4065743,
      "direccion": "Calle Carremonzón 2",
      "codigo_postal": null,
      "telefono": null,
      "web": null,
      "instagram": null,
      "horario": null,
      "terraza": false
    },
    {
      "id": "osm_node_3846501469",
      "nombre": "Bar El Manchego",
      "tipo": "pub",
      "lat": 42.2665093,
      "lon": -4.4064116,
      "direccion": "Calle Arquitecto Aníbal",
      "codigo_postal": null,
      "telefono": "+34 979 810 428",
      "web": null,
      "instagram": null,
      "horario": null,
      "terraza": false
    },
    {
      "id": "osm_node_3846501470",
      "nombre": "Bar París",
      "tipo": "bar",
      "lat": 42.265499,
      "lon": -4.4069187,
      "direccion": "Calle Ingeniero Rivera",
      "codigo_postal": null,
      "telefono": "+34 979 810 024",
      "web": null,
      "instagram": null,
      "horario": null,
      "terraza": false
    },
    {
      "id": "osm_node_3846501471",
      "nombre": "Bar la Plaza",
      "tipo": "pub",
      "lat": 42.2679249,
      "lon": -4.4055789,
      "direccion": "Plaza de Tuy",
      "codigo_postal": null,
      "telefono": "+34 979 810 368;+34 654853898",
      "web": null,
      "instagram": null,
      "horario": null,
      "terraza": false
    },
    {
      "id": "osm_node_3846501472",
      "nombre": "Café-Bar Puzzle's",
      "tipo": "pub",
      "lat": 42.2663608,
      "lon": -4.4064002,
      "direccion": "Calle Arquitecto Aníbal",
      "codigo_postal": null,
      "telefono": "+34 660 78 01 01",
      "web": null,
      "instagram": null,
      "horario": null,
      "terraza": false
    },
    {
      "id": "osm_node_3846501473",
      "nombre": "Café-Bar Vulcan",
      "tipo": "pub",
      "lat": 42.2661693,
      "lon": -4.4075433,
      "direccion": "Calle Carremonzón 3",
      "codigo_postal": null,
      "telefono": "+34 979 810 126",
      "web": null,
      "instagram": null,
      "horario": null,
      "terraza": false
    },
    {
      "id": "osm_node_3847379075",
      "nombre": "Cedazo",
      "tipo": "pub",
      "lat": 42.2045331,
      "lon": -4.4960126,
      "direccion": "Plaza de la Iglesia 5",
      "codigo_postal": null,
      "telefono": "+34 979 154 022",
      "web": null,
      "instagram": null,
      "horario": null,
      "terraza": false
    },
    {
      "id": "osm_node_3853403480",
      "nombre": "Bar Paquillo",
      "tipo": "bar",
      "lat": 42.0516328,
      "lon": -4.5829024,
      "direccion": "Calle Mayor 36",
      "codigo_postal": null,
      "telefono": "+34 979 767 130",
      "web": null,
      "instagram": null,
      "horario": null,
      "terraza": false
    },
    {
      "id": "osm_node_3857167366",
      "nombre": "El Palomar del Camino",
      "tipo": "bar",
      "lat": 42.3171584,
      "lon": -4.5386399,
      "direccion": null,
      "codigo_postal": null,
      "telefono": null,
      "web": null,
      "instagram": null,
      "horario": null,
      "terraza": false
    },
    {
      "id": "osm_node_3873376898",
      "nombre": "LosSiete Linajes",
      "tipo": "cafe",
      "lat": 42.793015,
      "lon": -4.2605357,
      "direccion": null,
      "codigo_postal": null,
      "telefono": null,
      "web": null,
      "instagram": null,
      "horario": "Su-We 08:30-01:30, Th 08:30-02:00, Fr,Sa 08:30-02:30",
      "terraza": true
    },
    {
      "id": "osm_node_3873376899",
      "nombre": "Dreams",
      "tipo": "bar",
      "lat": 42.7929618,
      "lon": -4.2611823,
      "direccion": null,
      "codigo_postal": null,
      "telefono": null,
      "web": null,
      "instagram": null,
      "horario": null,
      "terraza": false
    },
    {
      "id": "osm_node_3873376901",
      "nombre": "El Arco",
      "tipo": "bar",
      "lat": 42.7934271,
      "lon": -4.2568308,
      "direccion": null,
      "codigo_postal": null,
      "telefono": null,
      "web": null,
      "instagram": null,
      "horario": null,
      "terraza": false
    },
    {
      "id": "osm_node_3873376902",
      "nombre": "El Portón",
      "tipo": "bar",
      "lat": 42.793356,
      "lon": -4.2608201,
      "direccion": null,
      "codigo_postal": null,
      "telefono": null,
      "web": null,
      "instagram": null,
      "horario": null,
      "terraza": false
    },
    {
      "id": "osm_node_3873376903",
      "nombre": "El Pueblo",
      "tipo": "bar",
      "lat": 42.7926317,
      "lon": -4.262742,
      "direccion": null,
      "codigo_postal": null,
      "telefono": null,
      "web": null,
      "instagram": null,
      "horario": null,
      "terraza": false
    },
    {
      "id": "osm_node_3873376905",
      "nombre": "Guillén",
      "tipo": "cafe",
      "lat": 42.7930334,
      "lon": -4.2607,
      "direccion": null,
      "codigo_postal": null,
      "telefono": null,
      "web": null,
      "instagram": null,
      "horario": null,
      "terraza": false
    },
    {
      "id": "osm_node_3873376907",
      "nombre": "Laser 2",
      "tipo": "bar",
      "lat": 42.7934981,
      "lon": -4.2608037,
      "direccion": null,
      "codigo_postal": null,
      "telefono": null,
      "web": null,
      "instagram": null,
      "horario": null,
      "terraza": false
    },
    {
      "id": "osm_node_3873376909",
      "nombre": "Manrique",
      "tipo": "bar",
      "lat": 42.7939184,
      "lon": -4.2628143,
      "direccion": null,
      "codigo_postal": null,
      "telefono": null,
      "web": null,
      "instagram": null,
      "horario": null,
      "terraza": false
    },
    {
      "id": "osm_node_3873376930",
      "nombre": "Omega",
      "tipo": "bar",
      "lat": 42.7926413,
      "lon": -4.2625587,
      "direccion": null,
      "codigo_postal": null,
      "telefono": null,
      "web": null,
      "instagram": null,
      "horario": null,
      "terraza": false
    },
    {
      "id": "osm_node_3873376933",
      "nombre": "Pedrosa",
      "tipo": "cafe",
      "lat": 42.7934302,
      "lon": -4.2608773,
      "direccion": null,
      "codigo_postal": null,
      "telefono": null,
      "web": null,
      "instagram": null,
      "horario": null,
      "terraza": false
    },
    {
      "id": "osm_node_3873376935",
      "nombre": "Prito",
      "tipo": "bar",
      "lat": 42.7926349,
      "lon": -4.2626809,
      "direccion": null,
      "codigo_postal": null,
      "telefono": null,
      "web": null,
      "instagram": null,
      "horario": null,
      "terraza": false
    },
    {
      "id": "osm_node_3873376938",
      "nombre": "Rio",
      "tipo": "bar",
      "lat": 42.7926381,
      "lon": -4.2626198,
      "direccion": null,
      "codigo_postal": null,
      "telefono": null,
      "web": null,
      "instagram": null,
      "horario": null,
      "terraza": false
    },
    {
      "id": "osm_node_3873376942",
      "nombre": "Tobalina",
      "tipo": "bar",
      "lat": 42.7928776,
      "lon": -4.2574622,
      "direccion": null,
      "codigo_postal": null,
      "telefono": null,
      "web": null,
      "instagram": null,
      "horario": null,
      "terraza": false
    },
    {
      "id": "osm_node_3881864754",
      "nombre": "Avenida",
      "tipo": "bar",
      "lat": 42.7936787,
      "lon": -4.257256,
      "direccion": null,
      "codigo_postal": null,
      "telefono": null,
      "web": null,
      "instagram": null,
      "horario": null,
      "terraza": false
    },
    {
      "id": "osm_node_3881864777",
      "nombre": "Peñaguilon",
      "tipo": "cafe",
      "lat": 42.7930202,
      "lon": -4.2603006,
      "direccion": null,
      "codigo_postal": null,
      "telefono": null,
      "web": null,
      "instagram": null,
      "horario": null,
      "terraza": false
    },
    {
      "id": "osm_node_3881864782",
      "nombre": "Treinta y siete",
      "tipo": "cafe",
      "lat": 42.7930185,
      "lon": -4.2603896,
      "direccion": null,
      "codigo_postal": null,
      "telefono": null,
      "web": null,
      "instagram": null,
      "horario": null,
      "terraza": false
    },
    {
      "id": "osm_node_3965909477",
      "nombre": "Teleclub",
      "tipo": "pub",
      "lat": 42.8194934,
      "lon": -4.6684331,
      "direccion": null,
      "codigo_postal": null,
      "telefono": null,
      "web": null,
      "instagram": null,
      "horario": null,
      "terraza": false
    },
    {
      "id": "osm_node_4051915411",
      "nombre": "Bar Castillo",
      "tipo": "bar",
      "lat": 42.7948594,
      "lon": -4.2645418,
      "direccion": null,
      "codigo_postal": null,
      "telefono": "+34 979 123 530",
      "web": null,
      "instagram": null,
      "horario": "Mo-Sa 08:00-20:30",
      "terraza": false
    },
    {
      "id": "osm_node_4135384193",
      "nombre": "Bar Mari",
      "tipo": "bar",
      "lat": 42.5778623,
      "lon": -4.7845241,
      "direccion": null,
      "codigo_postal": null,
      "telefono": null,
      "web": null,
      "instagram": null,
      "horario": null,
      "terraza": false
    },
    {
      "id": "osm_node_4173223240",
      "nombre": "Bar Feli",
      "tipo": "cafe",
      "lat": 42.7434188,
      "lon": -4.2872007,
      "direccion": null,
      "codigo_postal": null,
      "telefono": null,
      "web": null,
      "instagram": null,
      "horario": null,
      "terraza": true
    },
    {
      "id": "osm_node_4233659691",
      "nombre": "Café La Lastra",
      "tipo": "cafe",
      "lat": 42.0160447,
      "lon": -4.5362018,
      "direccion": null,
      "codigo_postal": null,
      "telefono": null,
      "web": null,
      "instagram": null,
      "horario": null,
      "terraza": false
    },
    {
      "id": "osm_node_4439614351",
      "nombre": "La Behetría",
      "tipo": "cafe",
      "lat": 42.1079979,
      "lon": -4.6395207,
      "direccion": "Plaza Obispo Ibáñez 7",
      "codigo_postal": "34310",
      "telefono": "+34 979 83 31 23",
      "web": null,
      "instagram": null,
      "horario": "9:00-24:00",
      "terraza": false
    },
    {
      "id": "osm_node_4472692134",
      "nombre": "Bar La Reana",
      "tipo": "cafe",
      "lat": 42.8265355,
      "lon": -4.8464708,
      "direccion": null,
      "codigo_postal": null,
      "telefono": null,
      "web": null,
      "instagram": null,
      "horario": null,
      "terraza": false
    },
    {
      "id": "osm_node_4472692137",
      "nombre": "El Sol",
      "tipo": "cafe",
      "lat": 42.8261448,
      "lon": -4.8472872,
      "direccion": null,
      "codigo_postal": null,
      "telefono": null,
      "web": null,
      "instagram": null,
      "horario": null,
      "terraza": false
    },
    {
      "id": "osm_node_4472692139",
      "nombre": "La Tabla Redonda",
      "tipo": "cafe",
      "lat": 42.8279683,
      "lon": -4.844037,
      "direccion": null,
      "codigo_postal": null,
      "telefono": null,
      "web": null,
      "instagram": null,
      "horario": null,
      "terraza": false
    },
    {
      "id": "osm_node_4472692141",
      "nombre": "Mesón Los Faroles",
      "tipo": "cafe",
      "lat": 42.8268879,
      "lon": -4.8455082,
      "direccion": null,
      "codigo_postal": null,
      "telefono": null,
      "web": null,
      "instagram": null,
      "horario": null,
      "terraza": false
    },
    {
      "id": "osm_node_4472692144",
      "nombre": "Stop",
      "tipo": "cafe",
      "lat": 42.8257966,
      "lon": -4.8472174,
      "direccion": null,
      "codigo_postal": null,
      "telefono": null,
      "web": null,
      "instagram": null,
      "horario": null,
      "terraza": false
    },
    {
      "id": "osm_node_4502802690",
      "nombre": "Bar Pisuerga",
      "tipo": "pub",
      "lat": 42.9680637,
      "lon": -4.4957638,
      "direccion": null,
      "codigo_postal": null,
      "telefono": null,
      "web": null,
      "instagram": null,
      "horario": null,
      "terraza": false
    },
    {
      "id": "osm_node_4581038329",
      "nombre": "Panadería Cafetería Salazar",
      "tipo": "cafe",
      "lat": 42.2678999,
      "lon": -4.4046351,
      "direccion": "Calle La Plata 2",
      "codigo_postal": null,
      "telefono": "+34 979 81 00 86",
      "web": "https://panaderiasalazar.es/",
      "instagram": null,
      "horario": null,
      "terraza": false
    },
    {
      "id": "osm_node_4741252622",
      "nombre": "El Gato Negro",
      "tipo": "pub",
      "lat": 42.0091667,
      "lon": -4.5356109,
      "direccion": "Calle San Marcos",
      "codigo_postal": "34005",
      "telefono": "+34979694126",
      "web": null,
      "instagram": null,
      "horario": null,
      "terraza": false
    },
    {
      "id": "osm_node_4781295526",
      "nombre": "Negro",
      "tipo": "bar",
      "lat": 42.4106349,
      "lon": -4.3618744,
      "direccion": null,
      "codigo_postal": null,
      "telefono": null,
      "web": null,
      "instagram": null,
      "horario": null,
      "terraza": false
    },
    {
      "id": "osm_node_4786795515",
      "nombre": "Bar Coliseo",
      "tipo": "pub",
      "lat": 41.8724368,
      "lon": -4.5424276,
      "direccion": null,
      "codigo_postal": null,
      "telefono": null,
      "web": null,
      "instagram": null,
      "horario": null,
      "terraza": false
    },
    {
      "id": "osm_node_4788019085",
      "nombre": "Bar Alba",
      "tipo": "bar",
      "lat": 42.4108158,
      "lon": -4.3615587,
      "direccion": "Plaza Abilio Calderón 1",
      "codigo_postal": null,
      "telefono": null,
      "web": null,
      "instagram": null,
      "horario": null,
      "terraza": true
    },
    {
      "id": "osm_node_4794918772",
      "nombre": "Nueva Grija",
      "tipo": "bar",
      "lat": 42.0536402,
      "lon": -4.5811397,
      "direccion": null,
      "codigo_postal": null,
      "telefono": null,
      "web": null,
      "instagram": null,
      "horario": null,
      "terraza": false
    },
    {
      "id": "osm_node_4839235438",
      "nombre": "Bar Picón",
      "tipo": "pub",
      "lat": 41.8728181,
      "lon": -4.5422401,
      "direccion": null,
      "codigo_postal": null,
      "telefono": null,
      "web": null,
      "instagram": null,
      "horario": null,
      "terraza": false
    },
    {
      "id": "osm_node_4839800621",
      "nombre": "Café España",
      "tipo": "cafe",
      "lat": 42.6599544,
      "lon": -4.3107219,
      "direccion": null,
      "codigo_postal": null,
      "telefono": null,
      "web": null,
      "instagram": null,
      "horario": null,
      "terraza": false
    },
    {
      "id": "osm_node_4839800622",
      "nombre": "Las Torres",
      "tipo": "cafe",
      "lat": 42.6603887,
      "lon": -4.3100356,
      "direccion": null,
      "codigo_postal": null,
      "telefono": "+34660328440",
      "web": null,
      "instagram": null,
      "horario": null,
      "terraza": true
    },
    {
      "id": "osm_node_4850462440",
      "nombre": "Bar Central",
      "tipo": "bar",
      "lat": 42.3388506,
      "lon": -4.6037627,
      "direccion": null,
      "codigo_postal": null,
      "telefono": null,
      "web": null,
      "instagram": null,
      "horario": null,
      "terraza": true
    },
    {
      "id": "osm_node_4850462442",
      "nombre": "Pub Azul",
      "tipo": "pub",
      "lat": 42.3391272,
      "lon": -4.6033375,
      "direccion": null,
      "codigo_postal": null,
      "telefono": null,
      "web": null,
      "instagram": null,
      "horario": null,
      "terraza": false
    },
    {
      "id": "osm_node_4850462444",
      "nombre": "Bar el Rincón",
      "tipo": "bar",
      "lat": 42.3391994,
      "lon": -4.6033722,
      "direccion": null,
      "codigo_postal": null,
      "telefono": null,
      "web": null,
      "instagram": null,
      "horario": null,
      "terraza": true
    },
    {
      "id": "osm_node_4850492825",
      "nombre": "Café-Bar España, billetes ALSA",
      "tipo": "pub",
      "lat": 42.3371187,
      "lon": -4.600708,
      "direccion": null,
      "codigo_postal": null,
      "telefono": null,
      "web": null,
      "instagram": null,
      "horario": null,
      "terraza": true
    },
    {
      "id": "osm_node_4850492826",
      "nombre": "Bar - Sol- Café",
      "tipo": "pub",
      "lat": 42.3372638,
      "lon": -4.6023718,
      "direccion": null,
      "codigo_postal": null,
      "telefono": null,
      "web": null,
      "instagram": null,
      "horario": null,
      "terraza": true
    },
    {
      "id": "osm_node_4850500427",
      "nombre": "Cerve",
      "tipo": "pub",
      "lat": 42.3375735,
      "lon": -4.6031822,
      "direccion": null,
      "codigo_postal": null,
      "telefono": null,
      "web": null,
      "instagram": null,
      "horario": null,
      "terraza": false
    },
    {
      "id": "osm_node_4906685722",
      "nombre": "Caoba",
      "tipo": "bar",
      "lat": 42.1083787,
      "lon": -4.6404192,
      "direccion": null,
      "codigo_postal": null,
      "telefono": null,
      "web": null,
      "instagram": null,
      "horario": null,
      "terraza": false
    },
    {
      "id": "osm_node_4906685725",
      "nombre": "El Rescate",
      "tipo": "bar",
      "lat": 42.1092194,
      "lon": -4.6414721,
      "direccion": null,
      "codigo_postal": null,
      "telefono": null,
      "web": null,
      "instagram": null,
      "horario": null,
      "terraza": false
    },
    {
      "id": "osm_node_4906768437",
      "nombre": "Morate",
      "tipo": "bar",
      "lat": 42.0251483,
      "lon": -4.7157487,
      "direccion": null,
      "codigo_postal": null,
      "telefono": null,
      "web": null,
      "instagram": null,
      "horario": null,
      "terraza": false
    },
    {
      "id": "osm_node_4908177213",
      "nombre": "La Muralla",
      "tipo": "pub",
      "lat": 42.3371315,
      "lon": -4.6005188,
      "direccion": null,
      "codigo_postal": null,
      "telefono": null,
      "web": null,
      "instagram": null,
      "horario": null,
      "terraza": true
    },
    {
      "id": "osm_node_4911019351",
      "nombre": "Chanffix",
      "tipo": "bar",
      "lat": 42.3398121,
      "lon": -4.604114,
      "direccion": null,
      "codigo_postal": null,
      "telefono": "+34 979880435",
      "web": null,
      "instagram": null,
      "horario": null,
      "terraza": false
    },
    {
      "id": "osm_node_4911019352",
      "nombre": "Inés",
      "tipo": "bar",
      "lat": 42.3398066,
      "lon": -4.6039523,
      "direccion": null,
      "codigo_postal": null,
      "telefono": null,
      "web": null,
      "instagram": null,
      "horario": null,
      "terraza": false
    },
    {
      "id": "osm_node_4911628274",
      "nombre": "Bar Josefina",
      "tipo": "pub",
      "lat": 42.1169668,
      "lon": -4.4939229,
      "direccion": null,
      "codigo_postal": null,
      "telefono": null,
      "web": null,
      "instagram": null,
      "horario": null,
      "terraza": false
    },
    {
      "id": "osm_node_4913270848",
      "nombre": "Canario",
      "tipo": "bar",
      "lat": 42.0752798,
      "lon": -4.5004967,
      "direccion": null,
      "codigo_postal": null,
      "telefono": null,
      "web": null,
      "instagram": null,
      "horario": null,
      "terraza": false
    },
    {
      "id": "osm_node_4913395283",
      "nombre": "Curro",
      "tipo": "bar",
      "lat": 42.0047915,
      "lon": -4.5206752,
      "direccion": null,
      "codigo_postal": null,
      "telefono": null,
      "web": null,
      "instagram": null,
      "horario": null,
      "terraza": false
    },
    {
      "id": "osm_node_4913763638",
      "nombre": "Mesón Isabel",
      "tipo": "pub",
      "lat": 41.9918053,
      "lon": -4.6327849,
      "direccion": null,
      "codigo_postal": null,
      "telefono": "+34 979769058",
      "web": null,
      "instagram": null,
      "horario": null,
      "terraza": false
    },
    {
      "id": "osm_node_4914791941",
      "nombre": "Bar Dipe",
      "tipo": "bar",
      "lat": 42.3394326,
      "lon": -4.6050329,
      "direccion": null,
      "codigo_postal": null,
      "telefono": null,
      "web": null,
      "instagram": null,
      "horario": null,
      "terraza": false
    },
    {
      "id": "osm_node_4914801678",
      "nombre": "La Catedral",
      "tipo": "bar",
      "lat": 42.3388224,
      "lon": -4.603077,
      "direccion": null,
      "codigo_postal": null,
      "telefono": null,
      "web": null,
      "instagram": null,
      "horario": null,
      "terraza": false
    },
    {
      "id": "osm_node_4915463206",
      "nombre": "El Obispo",
      "tipo": "cafe",
      "lat": 42.0125721,
      "lon": -4.540199,
      "direccion": null,
      "codigo_postal": null,
      "telefono": null,
      "web": null,
      "instagram": null,
      "horario": null,
      "terraza": false
    },
    {
      "id": "osm_node_4918786635",
      "nombre": "Davico",
      "tipo": "cafe",
      "lat": 42.0089268,
      "lon": -4.531353,
      "direccion": null,
      "codigo_postal": null,
      "telefono": null,
      "web": null,
      "instagram": null,
      "horario": null,
      "terraza": false
    },
    {
      "id": "osm_node_4918863611",
      "nombre": "Bocados Gastrobar",
      "tipo": "bar",
      "lat": 42.0082783,
      "lon": -4.5295007,
      "direccion": null,
      "codigo_postal": null,
      "telefono": null,
      "web": null,
      "instagram": null,
      "horario": null,
      "terraza": false
    },
    {
      "id": "osm_node_4918863612",
      "nombre": "El Auténtico",
      "tipo": "bar",
      "lat": 42.0083583,
      "lon": -4.529557,
      "direccion": null,
      "codigo_postal": null,
      "telefono": null,
      "web": null,
      "instagram": null,
      "horario": null,
      "terraza": false
    },
    {
      "id": "osm_node_4919238854",
      "nombre": "Conde Garay",
      "tipo": "pub",
      "lat": 42.3366173,
      "lon": -4.6013414,
      "direccion": null,
      "codigo_postal": null,
      "telefono": null,
      "web": null,
      "instagram": null,
      "horario": null,
      "terraza": false
    },
    {
      "id": "osm_node_4919841369",
      "nombre": "Pirámides",
      "tipo": "bar",
      "lat": 42.0103604,
      "lon": -4.5202668,
      "direccion": null,
      "codigo_postal": null,
      "telefono": null,
      "web": null,
      "instagram": null,
      "horario": null,
      "terraza": false
    },
    {
      "id": "osm_node_4919841370",
      "nombre": "Cesitar",
      "tipo": "bar",
      "lat": 42.008009,
      "lon": -4.5222267,
      "direccion": null,
      "codigo_postal": null,
      "telefono": null,
      "web": null,
      "instagram": null,
      "horario": null,
      "terraza": false
    },
    {
      "id": "osm_node_4919841372",
      "nombre": "La Alcoholera",
      "tipo": "bar",
      "lat": 42.0124267,
      "lon": -4.5218595,
      "direccion": null,
      "codigo_postal": null,
      "telefono": null,
      "web": null,
      "instagram": null,
      "horario": null,
      "terraza": false
    },
    {
      "id": "osm_node_4920205194",
      "nombre": "Barry",
      "tipo": "bar",
      "lat": 42.016702,
      "lon": -4.5335113,
      "direccion": null,
      "codigo_postal": null,
      "telefono": null,
      "web": null,
      "instagram": null,
      "horario": null,
      "terraza": false
    },
    {
      "id": "osm_node_4923017721",
      "nombre": "Roma",
      "tipo": "bar",
      "lat": 41.9947599,
      "lon": -4.516558,
      "direccion": null,
      "codigo_postal": null,
      "telefono": null,
      "web": null,
      "instagram": null,
      "horario": null,
      "terraza": false
    },
    {
      "id": "osm_node_4923025421",
      "nombre": "Ateneo",
      "tipo": "bar",
      "lat": 41.995785,
      "lon": -4.5183649,
      "direccion": null,
      "codigo_postal": null,
      "telefono": null,
      "web": null,
      "instagram": null,
      "horario": null,
      "terraza": false
    },
    {
      "id": "osm_node_4923608724",
      "nombre": "Pío XII",
      "tipo": "cafe",
      "lat": 42.0052635,
      "lon": -4.5309453,
      "direccion": null,
      "codigo_postal": null,
      "telefono": null,
      "web": null,
      "instagram": null,
      "horario": null,
      "terraza": false
    },
    {
      "id": "osm_node_4925940923",
      "nombre": "Granier",
      "tipo": "cafe",
      "lat": 42.0112832,
      "lon": -4.5336588,
      "direccion": null,
      "codigo_postal": null,
      "telefono": null,
      "web": null,
      "instagram": null,
      "horario": null,
      "terraza": false
    },
    {
      "id": "osm_node_4926496194",
      "nombre": "Mollón",
      "tipo": "bar",
      "lat": 42.4098404,
      "lon": -4.3622171,
      "direccion": null,
      "codigo_postal": null,
      "telefono": null,
      "web": null,
      "instagram": null,
      "horario": null,
      "terraza": false
    },
    {
      "id": "osm_node_4926512452",
      "nombre": "Tagore",
      "tipo": "bar",
      "lat": 42.4113628,
      "lon": -4.3606258,
      "direccion": null,
      "codigo_postal": null,
      "telefono": null,
      "web": null,
      "instagram": null,
      "horario": null,
      "terraza": false
    },
    {
      "id": "osm_node_4926526209",
      "nombre": "Mesón Don Pepe",
      "tipo": "bar",
      "lat": 42.4120337,
      "lon": -4.3601097,
      "direccion": null,
      "codigo_postal": null,
      "telefono": null,
      "web": null,
      "instagram": null,
      "horario": null,
      "terraza": false
    },
    {
      "id": "osm_node_4927285787",
      "nombre": "La Piscina",
      "tipo": "pub",
      "lat": 41.8518233,
      "lon": -4.4120522,
      "direccion": null,
      "codigo_postal": null,
      "telefono": null,
      "web": null,
      "instagram": null,
      "horario": null,
      "terraza": false
    },
    {
      "id": "osm_node_4927392822",
      "nombre": "Orly",
      "tipo": "bar",
      "lat": 42.0015609,
      "lon": -4.5260018,
      "direccion": null,
      "codigo_postal": null,
      "telefono": null,
      "web": null,
      "instagram": null,
      "horario": null,
      "terraza": false
    },
    {
      "id": "osm_node_4928315965",
      "nombre": "Donde Santi",
      "tipo": "pub",
      "lat": 42.2441035,
      "lon": -4.5972118,
      "direccion": null,
      "codigo_postal": null,
      "telefono": null,
      "web": null,
      "instagram": null,
      "horario": null,
      "terraza": false
    },
    {
      "id": "osm_node_4928315968",
      "nombre": "Anelka",
      "tipo": "pub",
      "lat": 42.2436636,
      "lon": -4.5979927,
      "direccion": null,
      "codigo_postal": null,
      "telefono": null,
      "web": null,
      "instagram": null,
      "horario": null,
      "terraza": false
    },
    {
      "id": "osm_node_4928428622",
      "nombre": "La Laguna",
      "tipo": "bar",
      "lat": 42.0564287,
      "lon": -4.6443715,
      "direccion": null,
      "codigo_postal": null,
      "telefono": null,
      "web": null,
      "instagram": null,
      "horario": null,
      "terraza": false
    },
    {
      "id": "osm_node_4929279786",
      "nombre": "Los Amigos",
      "tipo": "bar",
      "lat": 42.0562552,
      "lon": -4.6444311,
      "direccion": null,
      "codigo_postal": null,
      "telefono": null,
      "web": null,
      "instagram": null,
      "horario": null,
      "terraza": false
    },
    {
      "id": "osm_node_4930004622",
      "nombre": "La Isla Urbana",
      "tipo": "bar",
      "lat": 42.0082013,
      "lon": -4.5305264,
      "direccion": null,
      "codigo_postal": null,
      "telefono": null,
      "web": null,
      "instagram": null,
      "horario": null,
      "terraza": false
    },
    {
      "id": "osm_node_4930006321",
      "nombre": "Nobel",
      "tipo": "bar",
      "lat": 42.0080933,
      "lon": -4.5307288,
      "direccion": null,
      "codigo_postal": null,
      "telefono": null,
      "web": null,
      "instagram": null,
      "horario": null,
      "terraza": false
    },
    {
      "id": "osm_node_4930006322",
      "nombre": "La Hora Nona",
      "tipo": "bar",
      "lat": 42.0084115,
      "lon": -4.5305925,
      "direccion": null,
      "codigo_postal": null,
      "telefono": null,
      "web": null,
      "instagram": null,
      "horario": null,
      "terraza": false
    },
    {
      "id": "osm_node_4930006323",
      "nombre": "Carpe Diem",
      "tipo": "bar",
      "lat": 42.0079911,
      "lon": -4.5305808,
      "direccion": null,
      "codigo_postal": null,
      "telefono": null,
      "web": null,
      "instagram": null,
      "horario": null,
      "terraza": false
    },
    {
      "id": "osm_node_4930021423",
      "nombre": "El Malecón",
      "tipo": "bar",
      "lat": 42.0049018,
      "lon": -4.5248216,
      "direccion": null,
      "codigo_postal": null,
      "telefono": null,
      "web": null,
      "instagram": null,
      "horario": null,
      "terraza": false
    },
    {
      "id": "osm_node_4930021424",
      "nombre": "El Cafetín",
      "tipo": "bar",
      "lat": 42.0056209,
      "lon": -4.5247153,
      "direccion": null,
      "codigo_postal": null,
      "telefono": null,
      "web": null,
      "instagram": null,
      "horario": null,
      "terraza": false
    },
    {
      "id": "osm_node_4930021425",
      "nombre": "Noemar",
      "tipo": "bar",
      "lat": 42.0059435,
      "lon": -4.5248465,
      "direccion": null,
      "codigo_postal": null,
      "telefono": null,
      "web": null,
      "instagram": null,
      "horario": null,
      "terraza": false
    },
    {
      "id": "osm_node_4930021426",
      "nombre": "La Vie Est Belle",
      "tipo": "bar",
      "lat": 42.0046731,
      "lon": -4.5269599,
      "direccion": null,
      "codigo_postal": null,
      "telefono": null,
      "web": null,
      "instagram": null,
      "horario": null,
      "terraza": false
    },
    {
      "id": "osm_node_4930024821",
      "nombre": "Glam",
      "tipo": "bar",
      "lat": 42.0053346,
      "lon": -4.5248863,
      "direccion": null,
      "codigo_postal": null,
      "telefono": null,
      "web": null,
      "instagram": null,
      "horario": null,
      "terraza": false
    },
    {
      "id": "osm_node_4930024822",
      "nombre": "Oxford",
      "tipo": "bar",
      "lat": 42.0059065,
      "lon": -4.5260988,
      "direccion": null,
      "codigo_postal": null,
      "telefono": null,
      "web": null,
      "instagram": null,
      "horario": null,
      "terraza": false
    },
    {
      "id": "osm_node_4930024921",
      "nombre": "La Esquinita",
      "tipo": "bar",
      "lat": 42.0055417,
      "lon": -4.5263479,
      "direccion": null,
      "codigo_postal": null,
      "telefono": null,
      "web": null,
      "instagram": null,
      "horario": null,
      "terraza": false
    },
    {
      "id": "osm_node_4930140822",
      "nombre": "Rasel",
      "tipo": "bar",
      "lat": 41.9947031,
      "lon": -4.517519,
      "direccion": null,
      "codigo_postal": null,
      "telefono": null,
      "web": null,
      "instagram": null,
      "horario": null,
      "terraza": false
    },
    {
      "id": "osm_node_4931408820",
      "nombre": "Casco Viejo",
      "tipo": "bar",
      "lat": 42.0069977,
      "lon": -4.5325892,
      "direccion": null,
      "codigo_postal": null,
      "telefono": null,
      "web": null,
      "instagram": null,
      "horario": null,
      "terraza": true
    },
    {
      "id": "osm_node_4931410321",
      "nombre": "Sol",
      "tipo": "bar",
      "lat": 42.0062278,
      "lon": -4.5319108,
      "direccion": null,
      "codigo_postal": null,
      "telefono": null,
      "web": null,
      "instagram": null,
      "horario": null,
      "terraza": false
    },
    {
      "id": "osm_node_4931438769",
      "nombre": "La Urbana",
      "tipo": "bar",
      "lat": 42.0067516,
      "lon": -4.5333539,
      "direccion": null,
      "codigo_postal": null,
      "telefono": null,
      "web": null,
      "instagram": null,
      "horario": null,
      "terraza": false
    },
    {
      "id": "osm_node_4931438773",
      "nombre": "México",
      "tipo": "bar",
      "lat": 42.0066725,
      "lon": -4.5335124,
      "direccion": null,
      "codigo_postal": null,
      "telefono": null,
      "web": null,
      "instagram": null,
      "horario": null,
      "terraza": false
    },
    {
      "id": "osm_node_4931574824",
      "nombre": "Malibú",
      "tipo": "bar",
      "lat": 42.0086235,
      "lon": -4.5356704,
      "direccion": null,
      "codigo_postal": null,
      "telefono": null,
      "web": null,
      "instagram": null,
      "horario": null,
      "terraza": false
    },
    {
      "id": "osm_node_4931574827",
      "nombre": "Bar J",
      "tipo": "pub",
      "lat": 42.0085428,
      "lon": -4.5355859,
      "direccion": null,
      "codigo_postal": null,
      "telefono": null,
      "web": null,
      "instagram": null,
      "horario": null,
      "terraza": false
    },
    {
      "id": "osm_node_4931574831",
      "nombre": "Don Miro",
      "tipo": "bar",
      "lat": 42.0079845,
      "lon": -4.5348949,
      "direccion": null,
      "codigo_postal": null,
      "telefono": null,
      "web": null,
      "instagram": null,
      "horario": null,
      "terraza": true
    },
    {
      "id": "osm_node_4934185343",
      "nombre": "Cuba Libre",
      "tipo": "bar",
      "lat": 42.0028824,
      "lon": -4.5257474,
      "direccion": null,
      "codigo_postal": null,
      "telefono": null,
      "web": null,
      "instagram": null,
      "horario": null,
      "terraza": false
    },
    {
      "id": "osm_node_4934185344",
      "nombre": "Cantábrico",
      "tipo": "bar",
      "lat": 42.0029819,
      "lon": -4.5256766,
      "direccion": null,
      "codigo_postal": null,
      "telefono": null,
      "web": null,
      "instagram": null,
      "horario": null,
      "terraza": false
    },
    {
      "id": "osm_node_4934185346",
      "nombre": "Alborán",
      "tipo": "bar",
      "lat": 42.0032651,
      "lon": -4.5262119,
      "direccion": null,
      "codigo_postal": null,
      "telefono": null,
      "web": null,
      "instagram": null,
      "horario": null,
      "terraza": false
    },
    {
      "id": "osm_node_4934185357",
      "nombre": "Modesto Lafuente",
      "tipo": "cafe",
      "lat": 42.0039661,
      "lon": -4.5274595,
      "direccion": null,
      "codigo_postal": null,
      "telefono": null,
      "web": null,
      "instagram": null,
      "horario": null,
      "terraza": false
    },
    {
      "id": "osm_node_4934213008",
      "nombre": "The Lemon Society",
      "tipo": "bar",
      "lat": 42.0067796,
      "lon": -4.5287827,
      "direccion": null,
      "codigo_postal": null,
      "telefono": null,
      "web": null,
      "instagram": null,
      "horario": null,
      "terraza": false
    },
    {
      "id": "osm_node_4934213014",
      "nombre": "La Pepa",
      "tipo": "bar",
      "lat": 42.0074801,
      "lon": -4.5276489,
      "direccion": null,
      "codigo_postal": null,
      "telefono": null,
      "web": null,
      "instagram": null,
      "horario": null,
      "terraza": false
    },
    {
      "id": "osm_node_4934239361",
      "nombre": "La Hojalata",
      "tipo": "bar",
      "lat": 42.0116708,
      "lon": -4.5321504,
      "direccion": null,
      "codigo_postal": null,
      "telefono": null,
      "web": null,
      "instagram": null,
      "horario": null,
      "terraza": false
    },
    {
      "id": "osm_node_4934239362",
      "nombre": "Por Sabor al Arte",
      "tipo": "cafe",
      "lat": 42.0116472,
      "lon": -4.5322779,
      "direccion": null,
      "codigo_postal": null,
      "telefono": null,
      "web": null,
      "instagram": null,
      "horario": null,
      "terraza": false
    },
    {
      "id": "osm_node_4934356959",
      "nombre": "La Tartana",
      "tipo": "pub",
      "lat": 41.8780491,
      "lon": -4.5455415,
      "direccion": null,
      "codigo_postal": null,
      "telefono": null,
      "web": null,
      "instagram": null,
      "horario": null,
      "terraza": false
    },
    {
      "id": "osm_node_4934356962",
      "nombre": "Pecatum Capitalis",
      "tipo": "pub",
      "lat": 41.8781625,
      "lon": -4.5453091,
      "direccion": null,
      "codigo_postal": null,
      "telefono": null,
      "web": null,
      "instagram": null,
      "horario": null,
      "terraza": false
    },
    {
      "id": "osm_node_4934356964",
      "nombre": "Antón",
      "tipo": "pub",
      "lat": 41.877124,
      "lon": -4.5458012,
      "direccion": null,
      "codigo_postal": null,
      "telefono": null,
      "web": null,
      "instagram": null,
      "horario": null,
      "terraza": false
    },
    {
      "id": "osm_node_4934356965",
      "nombre": "López",
      "tipo": "pub",
      "lat": 41.8780704,
      "lon": -4.5456752,
      "direccion": null,
      "codigo_postal": null,
      "telefono": null,
      "web": null,
      "instagram": null,
      "horario": null,
      "terraza": false
    },
    {
      "id": "osm_node_4934390148",
      "nombre": "Caballero",
      "tipo": "pub",
      "lat": 41.8775008,
      "lon": -4.5467038,
      "direccion": null,
      "codigo_postal": null,
      "telefono": null,
      "web": null,
      "instagram": null,
      "horario": null,
      "terraza": false
    },
    {
      "id": "osm_node_4934641147",
      "nombre": "Viena",
      "tipo": "bar",
      "lat": 42.0045217,
      "lon": -4.5298457,
      "direccion": null,
      "codigo_postal": null,
      "telefono": null,
      "web": null,
      "instagram": null,
      "horario": null,
      "terraza": false
    },
    {
      "id": "osm_node_4934641163",
      "nombre": "Jet Set",
      "tipo": "bar",
      "lat": 42.0069961,
      "lon": -4.5329572,
      "direccion": null,
      "codigo_postal": null,
      "telefono": null,
      "web": null,
      "instagram": null,
      "horario": null,
      "terraza": false
    },
    {
      "id": "osm_node_4935020560",
      "nombre": "nuevesietenueve",
      "tipo": "cafe",
      "lat": 42.0040355,
      "lon": -4.528925,
      "direccion": null,
      "codigo_postal": null,
      "telefono": null,
      "web": null,
      "instagram": null,
      "horario": null,
      "terraza": false
    },
    {
      "id": "osm_node_4935020564",
      "nombre": "Gran Vía",
      "tipo": "cafe",
      "lat": 42.0034102,
      "lon": -4.5283703,
      "direccion": null,
      "codigo_postal": null,
      "telefono": null,
      "web": null,
      "instagram": null,
      "horario": null,
      "terraza": false
    },
    {
      "id": "osm_node_4935460079",
      "nombre": "GreenBar",
      "tipo": "bar",
      "lat": 42.1936623,
      "lon": -4.5805123,
      "direccion": null,
      "codigo_postal": null,
      "telefono": null,
      "web": null,
      "instagram": null,
      "horario": null,
      "terraza": false
    },
    {
      "id": "osm_node_4936562428",
      "nombre": "Los Cigüeños",
      "tipo": "bar",
      "lat": 42.2693611,
      "lon": -4.4485393,
      "direccion": null,
      "codigo_postal": null,
      "telefono": null,
      "web": null,
      "instagram": null,
      "horario": null,
      "terraza": false
    },
    {
      "id": "osm_node_4936785639",
      "nombre": "La Fragua",
      "tipo": "bar",
      "lat": 42.1998076,
      "lon": -4.5310444,
      "direccion": null,
      "codigo_postal": null,
      "telefono": null,
      "web": null,
      "instagram": null,
      "horario": null,
      "terraza": false
    },
    {
      "id": "osm_node_4936785642",
      "nombre": "El Rinconcito",
      "tipo": "bar",
      "lat": 42.2001468,
      "lon": -4.5318854,
      "direccion": null,
      "codigo_postal": null,
      "telefono": null,
      "web": null,
      "instagram": null,
      "horario": null,
      "terraza": false
    },
    {
      "id": "osm_node_4936812159",
      "nombre": "Calle Mayor",
      "tipo": "bar",
      "lat": 42.1524437,
      "lon": -4.5158403,
      "direccion": null,
      "codigo_postal": null,
      "telefono": null,
      "web": null,
      "instagram": null,
      "horario": null,
      "terraza": false
    },
    {
      "id": "osm_node_4940260523",
      "nombre": "Tasca Don Camino",
      "tipo": "bar",
      "lat": 42.3160756,
      "lon": -4.5455292,
      "direccion": null,
      "codigo_postal": null,
      "telefono": null,
      "web": null,
      "instagram": null,
      "horario": null,
      "terraza": false
    },
    {
      "id": "osm_node_4940650918",
      "nombre": "Del Norte",
      "tipo": "cafe",
      "lat": 42.2507185,
      "lon": -4.9674995,
      "direccion": null,
      "codigo_postal": null,
      "telefono": null,
      "web": null,
      "instagram": null,
      "horario": null,
      "terraza": false
    },
    {
      "id": "osm_node_4940652521",
      "nombre": "Socio Cultural",
      "tipo": "bar",
      "lat": 42.2517161,
      "lon": -4.9673878,
      "direccion": null,
      "codigo_postal": null,
      "telefono": null,
      "web": null,
      "instagram": null,
      "horario": null,
      "terraza": false
    },
    {
      "id": "osm_node_4940699888",
      "nombre": "Bar Del Pico",
      "tipo": "bar",
      "lat": 42.0846586,
      "lon": -4.2078916,
      "direccion": null,
      "codigo_postal": null,
      "telefono": null,
      "web": null,
      "instagram": null,
      "horario": null,
      "terraza": false
    },
    {
      "id": "osm_node_4941634685",
      "nombre": "La Cremallera",
      "tipo": "bar",
      "lat": 42.2521142,
      "lon": -4.9661012,
      "direccion": null,
      "codigo_postal": null,
      "telefono": null,
      "web": null,
      "instagram": null,
      "horario": null,
      "terraza": false
    },
    {
      "id": "osm_node_4941634686",
      "nombre": "Tobaris",
      "tipo": "bar",
      "lat": 42.2509855,
      "lon": -4.9650635,
      "direccion": null,
      "codigo_postal": null,
      "telefono": null,
      "web": null,
      "instagram": null,
      "horario": null,
      "terraza": false
    },
    {
      "id": "osm_node_4941634687",
      "nombre": "Trébol",
      "tipo": "cafe",
      "lat": 42.2521167,
      "lon": -4.966943,
      "direccion": null,
      "codigo_postal": null,
      "telefono": null,
      "web": null,
      "instagram": null,
      "horario": null,
      "terraza": false
    },
    {
      "id": "osm_node_4941871566",
      "nombre": "Teleclub",
      "tipo": "pub",
      "lat": 42.1800742,
      "lon": -4.9723389,
      "direccion": null,
      "codigo_postal": null,
      "telefono": null,
      "web": null,
      "instagram": null,
      "horario": null,
      "terraza": false
    },
    {
      "id": "osm_node_4941873941",
      "nombre": "Teleclub",
      "tipo": "bar",
      "lat": 42.1343029,
      "lon": -4.9103028,
      "direccion": null,
      "codigo_postal": null,
      "telefono": null,
      "web": null,
      "instagram": null,
      "horario": null,
      "terraza": false
    },
    {
      "id": "osm_node_4942030550",
      "nombre": "El Lerele",
      "tipo": "bar",
      "lat": 42.0838657,
      "lon": -4.7863288,
      "direccion": null,
      "codigo_postal": null,
      "telefono": null,
      "web": null,
      "instagram": null,
      "horario": null,
      "terraza": false
    },
    {
      "id": "osm_node_4948213280",
      "nombre": "Sami",
      "tipo": "cafe",
      "lat": 42.0342286,
      "lon": -4.3188648,
      "direccion": null,
      "codigo_postal": null,
      "telefono": null,
      "web": null,
      "instagram": null,
      "horario": null,
      "terraza": false
    },
    {
      "id": "osm_node_4948213282",
      "nombre": "Hogar Social",
      "tipo": "cafe",
      "lat": 42.0342293,
      "lon": -4.319931,
      "direccion": null,
      "codigo_postal": null,
      "telefono": null,
      "web": null,
      "instagram": null,
      "horario": null,
      "terraza": false
    },
    {
      "id": "osm_node_4948213286",
      "nombre": "Zamorano",
      "tipo": "pub",
      "lat": 42.0344464,
      "lon": -4.3188605,
      "direccion": null,
      "codigo_postal": null,
      "telefono": null,
      "web": null,
      "instagram": null,
      "horario": null,
      "terraza": false
    },
    {
      "id": "osm_node_4948247242",
      "nombre": "Isi",
      "tipo": "pub",
      "lat": 42.0339004,
      "lon": -4.3171343,
      "direccion": null,
      "codigo_postal": null,
      "telefono": null,
      "web": null,
      "instagram": null,
      "horario": null,
      "terraza": false
    },
    {
      "id": "osm_node_4948247247",
      "nombre": "Carle",
      "tipo": "pub",
      "lat": 42.0339993,
      "lon": -4.3175851,
      "direccion": null,
      "codigo_postal": null,
      "telefono": null,
      "web": null,
      "instagram": null,
      "horario": null,
      "terraza": false
    },
    {
      "id": "osm_node_4948247249",
      "nombre": "El Puente",
      "tipo": "pub",
      "lat": 42.0339772,
      "lon": -4.3169601,
      "direccion": null,
      "codigo_postal": null,
      "telefono": null,
      "web": null,
      "instagram": null,
      "horario": null,
      "terraza": false
    },
    {
      "id": "osm_node_4948381414",
      "nombre": "La Concordia",
      "tipo": "pub",
      "lat": 42.0800381,
      "lon": -4.259834,
      "direccion": null,
      "codigo_postal": null,
      "telefono": null,
      "web": null,
      "instagram": null,
      "horario": null,
      "terraza": false
    },
    {
      "id": "osm_node_4948603001",
      "nombre": "Tisber",
      "tipo": "pub",
      "lat": 42.079562,
      "lon": -4.2602319,
      "direccion": null,
      "codigo_postal": null,
      "telefono": null,
      "web": null,
      "instagram": null,
      "horario": null,
      "terraza": false
    },
    {
      "id": "osm_node_4948743721",
      "nombre": "Asociación Cultural San Isidro Labrador",
      "tipo": "pub",
      "lat": 42.0330496,
      "lon": -4.319529,
      "direccion": null,
      "codigo_postal": null,
      "telefono": null,
      "web": null,
      "instagram": null,
      "horario": null,
      "terraza": false
    },
    {
      "id": "osm_node_4952263434",
      "nombre": "Ideal",
      "tipo": "cafe",
      "lat": 42.1929971,
      "lon": -4.294032,
      "direccion": null,
      "codigo_postal": null,
      "telefono": null,
      "web": null,
      "instagram": null,
      "horario": null,
      "terraza": false
    },
    {
      "id": "osm_node_4952831197",
      "nombre": "Centro Cultural",
      "tipo": "bar",
      "lat": 42.1319236,
      "lon": -4.4270366,
      "direccion": null,
      "codigo_postal": null,
      "telefono": null,
      "web": null,
      "instagram": null,
      "horario": null,
      "terraza": false
    },
    {
      "id": "osm_node_4956367238",
      "nombre": "Mayor 14",
      "tipo": "pub",
      "lat": 41.9376171,
      "lon": -4.2460372,
      "direccion": null,
      "codigo_postal": null,
      "telefono": null,
      "web": null,
      "instagram": null,
      "horario": null,
      "terraza": false
    },
    {
      "id": "osm_node_4956367253",
      "nombre": "Plaza",
      "tipo": "cafe",
      "lat": 41.9380351,
      "lon": -4.2469323,
      "direccion": null,
      "codigo_postal": null,
      "telefono": null,
      "web": null,
      "instagram": null,
      "horario": null,
      "terraza": false
    },
    {
      "id": "osm_node_4956367256",
      "nombre": "La Ronda",
      "tipo": "pub",
      "lat": 41.9380426,
      "lon": -4.2484352,
      "direccion": null,
      "codigo_postal": null,
      "telefono": null,
      "web": null,
      "instagram": null,
      "horario": null,
      "terraza": false
    },
    {
      "id": "osm_node_4956367258",
      "nombre": "Puertas",
      "tipo": "pub",
      "lat": 41.9377071,
      "lon": -4.2459558,
      "direccion": null,
      "codigo_postal": null,
      "telefono": null,
      "web": null,
      "instagram": null,
      "horario": null,
      "terraza": false
    },
    {
      "id": "osm_node_4956688000",
      "nombre": "Jose",
      "tipo": "bar",
      "lat": 41.9618114,
      "lon": -4.3421351,
      "direccion": null,
      "codigo_postal": null,
      "telefono": null,
      "web": null,
      "instagram": null,
      "horario": null,
      "terraza": false
    },
    {
      "id": "osm_node_4956691456",
      "nombre": "El Baile",
      "tipo": "bar",
      "lat": 42.0489383,
      "lon": -4.3623475,
      "direccion": null,
      "codigo_postal": null,
      "telefono": null,
      "web": null,
      "instagram": null,
      "horario": null,
      "terraza": false
    },
    {
      "id": "osm_node_4958829879",
      "nombre": "Rivera 13",
      "tipo": "bar",
      "lat": 42.0087409,
      "lon": -4.5271506,
      "direccion": null,
      "codigo_postal": null,
      "telefono": null,
      "web": null,
      "instagram": null,
      "horario": null,
      "terraza": false
    },
    {
      "id": "osm_node_4958829881",
      "nombre": "Centro Cultural",
      "tipo": "bar",
      "lat": 42.0481509,
      "lon": -4.3612139,
      "direccion": null,
      "codigo_postal": null,
      "telefono": null,
      "web": null,
      "instagram": null,
      "horario": null,
      "terraza": false
    },
    {
      "id": "osm_node_4960209022",
      "nombre": "Centro Cultural",
      "tipo": "bar",
      "lat": 41.9526618,
      "lon": -4.4293529,
      "direccion": null,
      "codigo_postal": null,
      "telefono": null,
      "web": null,
      "instagram": null,
      "horario": null,
      "terraza": false
    },
    {
      "id": "osm_node_4960291794",
      "nombre": "Taberna La Villa",
      "tipo": "bar",
      "lat": 41.9468534,
      "lon": -4.5067824,
      "direccion": null,
      "codigo_postal": null,
      "telefono": null,
      "web": null,
      "instagram": null,
      "horario": null,
      "terraza": false
    },
    {
      "id": "osm_node_4960344736",
      "nombre": "Dino Villa",
      "tipo": "bar",
      "lat": 41.9481857,
      "lon": -4.5136893,
      "direccion": null,
      "codigo_postal": null,
      "telefono": null,
      "web": null,
      "instagram": null,
      "horario": null,
      "terraza": false
    },
    {
      "id": "osm_node_4960701479",
      "nombre": "Ícaro",
      "tipo": "cafe",
      "lat": 41.950343,
      "lon": -4.5140682,
      "direccion": null,
      "codigo_postal": null,
      "telefono": null,
      "web": null,
      "instagram": null,
      "horario": null,
      "terraza": false
    },
    {
      "id": "osm_node_4960701480",
      "nombre": "Tapas Donde Rosy",
      "tipo": "bar",
      "lat": 41.948922,
      "lon": -4.5152358,
      "direccion": null,
      "codigo_postal": null,
      "telefono": null,
      "web": null,
      "instagram": null,
      "horario": null,
      "terraza": false
    },
    {
      "id": "osm_node_4960701483",
      "nombre": "Hernandez",
      "tipo": "bar",
      "lat": 41.9504686,
      "lon": -4.514572,
      "direccion": null,
      "codigo_postal": null,
      "telefono": null,
      "web": null,
      "instagram": null,
      "horario": null,
      "terraza": false
    },
    {
      "id": "osm_node_4960701498",
      "nombre": "La Peseta",
      "tipo": "bar",
      "lat": 41.9496969,
      "lon": -4.5148084,
      "direccion": null,
      "codigo_postal": null,
      "telefono": null,
      "web": null,
      "instagram": null,
      "horario": null,
      "terraza": false
    },
    {
      "id": "osm_node_4960701502",
      "nombre": "Fin De Siglo",
      "tipo": "bar",
      "lat": 41.9491876,
      "lon": -4.515292,
      "direccion": null,
      "codigo_postal": null,
      "telefono": null,
      "web": null,
      "instagram": null,
      "horario": null,
      "terraza": false
    },
    {
      "id": "osm_node_4961138204",
      "nombre": "El Cazador",
      "tipo": "bar",
      "lat": 41.9033257,
      "lon": -4.4798724,
      "direccion": null,
      "codigo_postal": null,
      "telefono": null,
      "web": null,
      "instagram": null,
      "horario": null,
      "terraza": false
    },
    {
      "id": "osm_node_4961138815",
      "nombre": "Donde Garcín",
      "tipo": "bar",
      "lat": 41.9037466,
      "lon": -4.4799045,
      "direccion": null,
      "codigo_postal": null,
      "telefono": null,
      "web": null,
      "instagram": null,
      "horario": null,
      "terraza": false
    },
    {
      "id": "osm_node_4961348958",
      "nombre": "San Martín",
      "tipo": "pub",
      "lat": 41.8510717,
      "lon": -4.4100167,
      "direccion": null,
      "codigo_postal": null,
      "telefono": null,
      "web": null,
      "instagram": null,
      "horario": null,
      "terraza": false
    },
    {
      "id": "osm_node_4961348974",
      "nombre": "Portillo",
      "tipo": "pub",
      "lat": 41.8511686,
      "lon": -4.409003,
      "direccion": null,
      "codigo_postal": null,
      "telefono": null,
      "web": null,
      "instagram": null,
      "horario": null,
      "terraza": false
    },
    {
      "id": "osm_node_4961363432",
      "nombre": "Casino",
      "tipo": "cafe",
      "lat": 41.8503079,
      "lon": -4.4079858,
      "direccion": null,
      "codigo_postal": null,
      "telefono": null,
      "web": null,
      "instagram": null,
      "horario": null,
      "terraza": false
    },
    {
      "id": "osm_node_4961483037",
      "nombre": "Asociación Virgen del Valle",
      "tipo": "bar",
      "lat": 41.8797344,
      "lon": -4.3610821,
      "direccion": null,
      "codigo_postal": null,
      "telefono": null,
      "web": null,
      "instagram": null,
      "horario": null,
      "terraza": false
    },
    {
      "id": "osm_node_4961544812",
      "nombre": "Asociación Cultural San Isidro",
      "tipo": "pub",
      "lat": 41.9106099,
      "lon": -4.4440001,
      "direccion": null,
      "codigo_postal": null,
      "telefono": null,
      "web": null,
      "instagram": null,
      "horario": null,
      "terraza": false
    },
    {
      "id": "osm_node_4961629223",
      "nombre": "Meli",
      "tipo": "cafe",
      "lat": 41.9199835,
      "lon": -4.4891786,
      "direccion": null,
      "codigo_postal": null,
      "telefono": null,
      "web": null,
      "instagram": null,
      "horario": null,
      "terraza": false
    },
    {
      "id": "osm_node_4961629224",
      "nombre": "La Unión",
      "tipo": "bar",
      "lat": 41.9202629,
      "lon": -4.4897443,
      "direccion": null,
      "codigo_postal": null,
      "telefono": null,
      "web": null,
      "instagram": null,
      "horario": null,
      "terraza": false
    },
    {
      "id": "osm_node_4961629225",
      "nombre": "La Venta",
      "tipo": "bar",
      "lat": 41.9203536,
      "lon": -4.4891804,
      "direccion": null,
      "codigo_postal": null,
      "telefono": null,
      "web": null,
      "instagram": null,
      "horario": null,
      "terraza": true
    },
    {
      "id": "osm_node_4965176376",
      "nombre": "Vallejo",
      "tipo": "bar",
      "lat": 42.1547247,
      "lon": -4.2592445,
      "direccion": null,
      "codigo_postal": null,
      "telefono": null,
      "web": null,
      "instagram": null,
      "horario": null,
      "terraza": false
    },
    {
      "id": "osm_node_4965772715",
      "nombre": "Serna",
      "tipo": "bar",
      "lat": 42.2539982,
      "lon": -4.2540456,
      "direccion": null,
      "codigo_postal": null,
      "telefono": null,
      "web": null,
      "instagram": null,
      "horario": null,
      "terraza": false
    },
    {
      "id": "osm_node_4969760055",
      "nombre": "Murciano",
      "tipo": "pub",
      "lat": 41.7929274,
      "lon": -4.4275138,
      "direccion": null,
      "codigo_postal": null,
      "telefono": null,
      "web": null,
      "instagram": null,
      "horario": null,
      "terraza": true
    },
    {
      "id": "osm_node_4970027523",
      "nombre": "Teleclub",
      "tipo": "pub",
      "lat": 41.8318577,
      "lon": -4.3270764,
      "direccion": null,
      "codigo_postal": null,
      "telefono": null,
      "web": null,
      "instagram": null,
      "horario": null,
      "terraza": false
    },
    {
      "id": "osm_node_4970247110",
      "nombre": "Teleclub",
      "tipo": "pub",
      "lat": 41.857973,
      "lon": -4.3018213,
      "direccion": null,
      "codigo_postal": null,
      "telefono": null,
      "web": null,
      "instagram": null,
      "horario": null,
      "terraza": false
    },
    {
      "id": "osm_node_4976755246",
      "nombre": "El Pozo",
      "tipo": "bar",
      "lat": 42.0742565,
      "lon": -4.500775,
      "direccion": null,
      "codigo_postal": null,
      "telefono": null,
      "web": null,
      "instagram": null,
      "horario": null,
      "terraza": false
    },
    {
      "id": "osm_node_4977188411",
      "nombre": "Sol",
      "tipo": "bar",
      "lat": 42.0514309,
      "lon": -4.5829642,
      "direccion": null,
      "codigo_postal": null,
      "telefono": null,
      "web": null,
      "instagram": null,
      "horario": null,
      "terraza": false
    },
    {
      "id": "osm_node_4977188412",
      "nombre": "Cervecería Llana",
      "tipo": "bar",
      "lat": 42.0511634,
      "lon": -4.5830508,
      "direccion": null,
      "codigo_postal": null,
      "telefono": null,
      "web": null,
      "instagram": null,
      "horario": null,
      "terraza": false
    },
    {
      "id": "osm_node_4984627013",
      "nombre": "Pajares",
      "tipo": "pub",
      "lat": 41.9465451,
      "lon": -4.1175634,
      "direccion": null,
      "codigo_postal": null,
      "telefono": null,
      "web": null,
      "instagram": null,
      "horario": "Mo-Su 10:00-21:00",
      "terraza": false
    },
    {
      "id": "osm_node_4984627016",
      "nombre": "El Cantón",
      "tipo": "pub",
      "lat": 41.9459913,
      "lon": -4.1193543,
      "direccion": null,
      "codigo_postal": null,
      "telefono": null,
      "web": null,
      "instagram": null,
      "horario": null,
      "terraza": false
    },
    {
      "id": "osm_node_4985299895",
      "nombre": "Tele Club",
      "tipo": "pub",
      "lat": 41.96008,
      "lon": -4.7778344,
      "direccion": null,
      "codigo_postal": null,
      "telefono": null,
      "web": null,
      "instagram": null,
      "horario": null,
      "terraza": false
    },
    {
      "id": "osm_node_5042713222",
      "nombre": "Bar Montañes",
      "tipo": "pub",
      "lat": 42.7895574,
      "lon": -4.8434525,
      "direccion": null,
      "codigo_postal": null,
      "telefono": null,
      "web": null,
      "instagram": null,
      "horario": null,
      "terraza": true
    },
    {
      "id": "osm_node_5067184862",
      "nombre": "Sevillano",
      "tipo": "pub",
      "lat": 42.8653175,
      "lon": -4.4979548,
      "direccion": null,
      "codigo_postal": null,
      "telefono": null,
      "web": null,
      "instagram": null,
      "horario": null,
      "terraza": false
    },
    {
      "id": "osm_node_5067184865",
      "nombre": "Cascarita",
      "tipo": "pub",
      "lat": 42.8667675,
      "lon": -4.4985334,
      "direccion": null,
      "codigo_postal": null,
      "telefono": null,
      "web": null,
      "instagram": null,
      "horario": null,
      "terraza": false
    },
    {
      "id": "osm_node_5113174568",
      "nombre": "Bar Soply",
      "tipo": "cafe",
      "lat": 42.8798008,
      "lon": -4.8068941,
      "direccion": null,
      "codigo_postal": null,
      "telefono": null,
      "web": null,
      "instagram": null,
      "horario": null,
      "terraza": true
    },
    {
      "id": "osm_node_5113174569",
      "nombre": "Bar la Hornera",
      "tipo": "cafe",
      "lat": 42.8794294,
      "lon": -4.8074144,
      "direccion": null,
      "codigo_postal": null,
      "telefono": null,
      "web": null,
      "instagram": null,
      "horario": null,
      "terraza": false
    },
    {
      "id": "osm_node_5122078969",
      "nombre": "Cervecería El Cristo",
      "tipo": "bar",
      "lat": 42.0213259,
      "lon": -4.5332642,
      "direccion": null,
      "codigo_postal": null,
      "telefono": null,
      "web": null,
      "instagram": null,
      "horario": null,
      "terraza": false
    },
    {
      "id": "osm_node_5122276625",
      "nombre": "Bar Santana",
      "tipo": "bar",
      "lat": 42.0107821,
      "lon": -4.545198,
      "direccion": null,
      "codigo_postal": null,
      "telefono": null,
      "web": null,
      "instagram": null,
      "horario": null,
      "terraza": false
    },
    {
      "id": "osm_node_5135494330",
      "nombre": "Bianco",
      "tipo": "cafe",
      "lat": 42.0137493,
      "lon": -4.5370298,
      "direccion": null,
      "codigo_postal": null,
      "telefono": null,
      "web": null,
      "instagram": null,
      "horario": null,
      "terraza": true
    },
    {
      "id": "osm_node_5135494359",
      "nombre": "Jimmy Jazz",
      "tipo": "bar",
      "lat": 42.0089602,
      "lon": -4.5355483,
      "direccion": null,
      "codigo_postal": null,
      "telefono": null,
      "web": null,
      "instagram": null,
      "horario": null,
      "terraza": false
    },
    {
      "id": "osm_node_5135497272",
      "nombre": "Rabel",
      "tipo": "cafe",
      "lat": 42.0137915,
      "lon": -4.5365676,
      "direccion": null,
      "codigo_postal": null,
      "telefono": null,
      "web": null,
      "instagram": null,
      "horario": null,
      "terraza": true
    },
    {
      "id": "osm_node_5145471339",
      "nombre": "Las Monjas",
      "tipo": "bar",
      "lat": 42.0139103,
      "lon": -4.5398995,
      "direccion": null,
      "codigo_postal": null,
      "telefono": null,
      "web": null,
      "instagram": null,
      "horario": null,
      "terraza": false
    },
    {
      "id": "osm_node_5659108550",
      "nombre": "Bar Pastor",
      "tipo": "cafe",
      "lat": 42.0080386,
      "lon": -4.5379181,
      "direccion": null,
      "codigo_postal": null,
      "telefono": null,
      "web": null,
      "instagram": null,
      "horario": null,
      "terraza": true
    },
    {
      "id": "osm_node_5782780283",
      "nombre": "Merendero El Puente",
      "tipo": "bar",
      "lat": 42.3393067,
      "lon": -4.6055683,
      "direccion": null,
      "codigo_postal": null,
      "telefono": null,
      "web": null,
      "instagram": null,
      "horario": null,
      "terraza": false
    },
    {
      "id": "osm_node_5866119037",
      "nombre": "El Patio",
      "tipo": "pub",
      "lat": 42.8637801,
      "lon": -4.4982223,
      "direccion": "Plaza Mayor 12",
      "codigo_postal": null,
      "telefono": null,
      "web": null,
      "instagram": null,
      "horario": null,
      "terraza": false
    },
    {
      "id": "osm_node_5903556016",
      "nombre": "Bar Lici",
      "tipo": "bar",
      "lat": 42.7853728,
      "lon": -4.4214947,
      "direccion": null,
      "codigo_postal": null,
      "telefono": null,
      "web": null,
      "instagram": null,
      "horario": null,
      "terraza": false
    },
    {
      "id": "osm_node_5903556017",
      "nombre": "Bar Pitusa",
      "tipo": "bar",
      "lat": 42.7837657,
      "lon": -4.4204183,
      "direccion": null,
      "codigo_postal": null,
      "telefono": null,
      "web": null,
      "instagram": null,
      "horario": null,
      "terraza": false
    },
    {
      "id": "osm_node_6100199444",
      "nombre": "El Rincón Gallego",
      "tipo": "bar",
      "lat": 42.2143018,
      "lon": -4.4339693,
      "direccion": null,
      "codigo_postal": null,
      "telefono": null,
      "web": null,
      "instagram": null,
      "horario": null,
      "terraza": true
    },
    {
      "id": "osm_node_6239466970",
      "nombre": "Teleclub",
      "tipo": "pub",
      "lat": 41.9415165,
      "lon": -4.9202294,
      "direccion": null,
      "codigo_postal": null,
      "telefono": null,
      "web": null,
      "instagram": null,
      "horario": null,
      "terraza": false
    },
    {
      "id": "osm_node_6239606785",
      "nombre": "Bar Sindicato",
      "tipo": "bar",
      "lat": 42.0316874,
      "lon": -4.8224508,
      "direccion": null,
      "codigo_postal": null,
      "telefono": null,
      "web": null,
      "instagram": null,
      "horario": null,
      "terraza": false
    },
    {
      "id": "osm_node_6243890249",
      "nombre": "Bar-Cafetería El Fardel de Revenga",
      "tipo": "cafe",
      "lat": 42.2847584,
      "lon": -4.4825015,
      "direccion": null,
      "codigo_postal": null,
      "telefono": null,
      "web": null,
      "instagram": null,
      "horario": null,
      "terraza": false
    },
    {
      "id": "osm_node_6269415568",
      "nombre": "La Mejillonera",
      "tipo": "pub",
      "lat": 42.0127645,
      "lon": -4.5330799,
      "direccion": "Calle los Soldados 7",
      "codigo_postal": "34001",
      "telefono": "+34979744768",
      "web": null,
      "instagram": "lamejillonera.palencia",
      "horario": "Su-Mo, We-Fr 11:30-16:00, 19:30-23:00; Sa 11:30-16:00, 19:00-23:55",
      "terraza": false
    },
    {
      "id": "osm_node_6269415580",
      "nombre": "Debla",
      "tipo": "bar",
      "lat": 42.0108182,
      "lon": -4.5324492,
      "direccion": null,
      "codigo_postal": null,
      "telefono": null,
      "web": null,
      "instagram": null,
      "horario": null,
      "terraza": false
    },
    {
      "id": "osm_node_6283012245",
      "nombre": "El Picapiedras",
      "tipo": "bar",
      "lat": 42.0082508,
      "lon": -4.5296497,
      "direccion": "Calle Alfonso VIII 2",
      "codigo_postal": "34002",
      "telefono": null,
      "web": null,
      "instagram": null,
      "horario": null,
      "terraza": false
    },
    {
      "id": "osm_node_6283012247",
      "nombre": "Bar Perico",
      "tipo": "bar",
      "lat": 42.0087311,
      "lon": -4.531318,
      "direccion": "Calle Colón 10",
      "codigo_postal": "34002",
      "telefono": "+34 979 74 01 23",
      "web": "https://barperico.es",
      "instagram": null,
      "horario": null,
      "terraza": true
    },
    {
      "id": "osm_node_6318245145",
      "nombre": "Suco",
      "tipo": "cafe",
      "lat": 42.1448584,
      "lon": -4.0964521,
      "direccion": null,
      "codigo_postal": null,
      "telefono": null,
      "web": null,
      "instagram": null,
      "horario": null,
      "terraza": false
    },
    {
      "id": "osm_node_6402910971",
      "nombre": "Complejo Recrea",
      "tipo": "cafe",
      "lat": 42.4543188,
      "lon": -4.699539,
      "direccion": null,
      "codigo_postal": null,
      "telefono": null,
      "web": null,
      "instagram": null,
      "horario": null,
      "terraza": false
    },
    {
      "id": "osm_node_6450403685",
      "nombre": "Polmar",
      "tipo": "bar",
      "lat": 41.9979356,
      "lon": -4.5219462,
      "direccion": null,
      "codigo_postal": null,
      "telefono": null,
      "web": null,
      "instagram": null,
      "horario": null,
      "terraza": false
    },
    {
      "id": "osm_node_6468763663",
      "nombre": "Bar Extremadura",
      "tipo": "pub",
      "lat": 42.0064146,
      "lon": -4.5201453,
      "direccion": null,
      "codigo_postal": null,
      "telefono": null,
      "web": null,
      "instagram": null,
      "horario": null,
      "terraza": false
    },
    {
      "id": "osm_node_6497111499",
      "nombre": "Cervecería Plaza Mayor",
      "tipo": "pub",
      "lat": 42.0104356,
      "lon": -4.5324922,
      "direccion": null,
      "codigo_postal": null,
      "telefono": "+34 979 74 12 12",
      "web": null,
      "instagram": null,
      "horario": null,
      "terraza": false
    },
    {
      "id": "osm_node_6497111503",
      "nombre": "Cafetería Isla Dos Aguas",
      "tipo": "cafe",
      "lat": 42.0052881,
      "lon": -4.5346756,
      "direccion": null,
      "codigo_postal": null,
      "telefono": null,
      "web": null,
      "instagram": null,
      "horario": null,
      "terraza": false
    },
    {
      "id": "osm_node_6539122254",
      "nombre": "Caña Caña",
      "tipo": "bar",
      "lat": 42.0041747,
      "lon": -4.5248527,
      "direccion": null,
      "codigo_postal": null,
      "telefono": null,
      "web": null,
      "instagram": null,
      "horario": null,
      "terraza": false
    },
    {
      "id": "osm_node_6539123691",
      "nombre": "Sena",
      "tipo": "bar",
      "lat": 42.0037039,
      "lon": -4.5245962,
      "direccion": null,
      "codigo_postal": null,
      "telefono": null,
      "web": null,
      "instagram": null,
      "horario": null,
      "terraza": false
    },
    {
      "id": "osm_node_6558286747",
      "nombre": "Bar Italia",
      "tipo": "bar",
      "lat": 42.000491,
      "lon": -4.5101967,
      "direccion": null,
      "codigo_postal": null,
      "telefono": null,
      "web": null,
      "instagram": null,
      "horario": null,
      "terraza": false
    },
    {
      "id": "osm_node_6634727021",
      "nombre": "Teleclub",
      "tipo": "bar",
      "lat": 42.5526666,
      "lon": -4.8482474,
      "direccion": null,
      "codigo_postal": null,
      "telefono": null,
      "web": null,
      "instagram": null,
      "horario": null,
      "terraza": false
    },
    {
      "id": "osm_node_6698861855",
      "nombre": "Habana",
      "tipo": "cafe",
      "lat": 42.006589,
      "lon": -4.5312228,
      "direccion": "Calle Mayor 101",
      "codigo_postal": null,
      "telefono": "+34 979 04 16 24",
      "web": "https://habanacafeteria.com/",
      "instagram": null,
      "horario": null,
      "terraza": true
    },
    {
      "id": "osm_node_6770625352",
      "nombre": "Bar La Esquinita",
      "tipo": "pub",
      "lat": 42.0127457,
      "lon": -4.5221659,
      "direccion": null,
      "codigo_postal": null,
      "telefono": null,
      "web": null,
      "instagram": null,
      "horario": null,
      "terraza": false
    },
    {
      "id": "osm_node_6821390662",
      "nombre": "Elvira",
      "tipo": "bar",
      "lat": 41.9981902,
      "lon": -4.5217017,
      "direccion": null,
      "codigo_postal": null,
      "telefono": null,
      "web": null,
      "instagram": null,
      "horario": null,
      "terraza": false
    },
    {
      "id": "osm_node_6821390664",
      "nombre": "La Montaña",
      "tipo": "bar",
      "lat": 41.9982633,
      "lon": -4.5222323,
      "direccion": null,
      "codigo_postal": null,
      "telefono": null,
      "web": null,
      "instagram": null,
      "horario": null,
      "terraza": false
    },
    {
      "id": "osm_node_6821391087",
      "nombre": "La Taquileria",
      "tipo": "bar",
      "lat": 41.9989547,
      "lon": -4.5225145,
      "direccion": null,
      "codigo_postal": null,
      "telefono": null,
      "web": null,
      "instagram": null,
      "horario": null,
      "terraza": false
    },
    {
      "id": "osm_node_6821391089",
      "nombre": "Cardo",
      "tipo": "bar",
      "lat": 41.9989229,
      "lon": -4.5228601,
      "direccion": null,
      "codigo_postal": null,
      "telefono": null,
      "web": null,
      "instagram": null,
      "horario": null,
      "terraza": false
    },
    {
      "id": "osm_node_6821391091",
      "nombre": "San Telmo",
      "tipo": "bar",
      "lat": 41.9982349,
      "lon": -4.5227584,
      "direccion": null,
      "codigo_postal": null,
      "telefono": null,
      "web": null,
      "instagram": null,
      "horario": null,
      "terraza": false
    },
    {
      "id": "osm_node_6821391095",
      "nombre": "El Quijote",
      "tipo": "bar",
      "lat": 41.9995129,
      "lon": -4.5212055,
      "direccion": null,
      "codigo_postal": null,
      "telefono": null,
      "web": null,
      "instagram": null,
      "horario": null,
      "terraza": false
    },
    {
      "id": "osm_node_6821391104",
      "nombre": "Olimpia",
      "tipo": "cafe",
      "lat": 41.9968882,
      "lon": -4.5212502,
      "direccion": null,
      "codigo_postal": null,
      "telefono": null,
      "web": null,
      "instagram": null,
      "horario": null,
      "terraza": false
    },
    {
      "id": "osm_node_6915391087",
      "nombre": "Edén",
      "tipo": "bar",
      "lat": 42.012366,
      "lon": -4.5278143,
      "direccion": null,
      "codigo_postal": null,
      "telefono": null,
      "web": null,
      "instagram": null,
      "horario": null,
      "terraza": false
    },
    {
      "id": "osm_node_6993864296",
      "nombre": "Mondo Lirondo",
      "tipo": "bar",
      "lat": 42.0071075,
      "lon": -4.5295654,
      "direccion": null,
      "codigo_postal": null,
      "telefono": null,
      "web": null,
      "instagram": null,
      "horario": null,
      "terraza": false
    },
    {
      "id": "osm_node_6993864298",
      "nombre": "Nia Cocteleria",
      "tipo": "bar",
      "lat": 42.0086691,
      "lon": -4.5300871,
      "direccion": null,
      "codigo_postal": null,
      "telefono": null,
      "web": null,
      "instagram": null,
      "horario": null,
      "terraza": false
    },
    {
      "id": "osm_node_6993864299",
      "nombre": "Antro",
      "tipo": "bar",
      "lat": 42.0087089,
      "lon": -4.5300737,
      "direccion": null,
      "codigo_postal": null,
      "telefono": null,
      "web": null,
      "instagram": null,
      "horario": null,
      "terraza": false
    },
    {
      "id": "osm_node_6993864302",
      "nombre": "Agora",
      "tipo": "bar",
      "lat": 42.0081888,
      "lon": -4.5293509,
      "direccion": null,
      "codigo_postal": null,
      "telefono": null,
      "web": null,
      "instagram": null,
      "horario": null,
      "terraza": false
    },
    {
      "id": "osm_node_6993864306",
      "nombre": "El Salón",
      "tipo": "cafe",
      "lat": 42.0071618,
      "lon": -4.5265322,
      "direccion": null,
      "codigo_postal": null,
      "telefono": null,
      "web": null,
      "instagram": null,
      "horario": null,
      "terraza": false
    },
    {
      "id": "osm_node_7027307385",
      "nombre": "Y un cuerno 2.1",
      "tipo": "bar",
      "lat": 42.0084515,
      "lon": -4.5322629,
      "direccion": null,
      "codigo_postal": null,
      "telefono": null,
      "web": null,
      "instagram": null,
      "horario": null,
      "terraza": false
    },
    {
      "id": "osm_node_7071435034",
      "nombre": "Miami",
      "tipo": "bar",
      "lat": 42.002885,
      "lon": -4.5270834,
      "direccion": null,
      "codigo_postal": null,
      "telefono": null,
      "web": null,
      "instagram": null,
      "horario": null,
      "terraza": false
    },
    {
      "id": "osm_node_7071435035",
      "nombre": "Esla",
      "tipo": "bar",
      "lat": 42.0029812,
      "lon": -4.5272051,
      "direccion": null,
      "codigo_postal": null,
      "telefono": null,
      "web": null,
      "instagram": null,
      "horario": null,
      "terraza": false
    },
    {
      "id": "osm_node_7071446766",
      "nombre": "Tiffany",
      "tipo": "cafe",
      "lat": 42.0024251,
      "lon": -4.526826,
      "direccion": null,
      "codigo_postal": null,
      "telefono": null,
      "web": null,
      "instagram": null,
      "horario": null,
      "terraza": false
    },
    {
      "id": "osm_node_7074271067",
      "nombre": "Basi",
      "tipo": "bar",
      "lat": 42.011824,
      "lon": -4.5177493,
      "direccion": null,
      "codigo_postal": null,
      "telefono": null,
      "web": null,
      "instagram": null,
      "horario": null,
      "terraza": false
    },
    {
      "id": "osm_node_7074271068",
      "nombre": "Sector Ocho",
      "tipo": "bar",
      "lat": 42.0128587,
      "lon": -4.5161973,
      "direccion": null,
      "codigo_postal": null,
      "telefono": null,
      "web": null,
      "instagram": null,
      "horario": null,
      "terraza": false
    },
    {
      "id": "osm_node_7095484556",
      "nombre": "Lifen",
      "tipo": "bar",
      "lat": 42.0064098,
      "lon": -4.519629,
      "direccion": null,
      "codigo_postal": null,
      "telefono": null,
      "web": null,
      "instagram": null,
      "horario": null,
      "terraza": false
    },
    {
      "id": "osm_node_7096247636",
      "nombre": "Bar Camesa",
      "tipo": "pub",
      "lat": 42.7848308,
      "lon": -4.2340757,
      "direccion": null,
      "codigo_postal": null,
      "telefono": null,
      "web": null,
      "instagram": null,
      "horario": null,
      "terraza": false
    },
    {
      "id": "osm_node_7126105639",
      "nombre": "Happy",
      "tipo": "cafe",
      "lat": 42.0096231,
      "lon": -4.5323301,
      "direccion": null,
      "codigo_postal": null,
      "telefono": null,
      "web": null,
      "instagram": null,
      "horario": null,
      "terraza": false
    },