{
  "ciudad": "Sabadell",
  "total": 55,
  "locales": [
    {
      "id": "osm_node_1249044204",
      "nombre": "Granja Bar Chamiski",
      "tipo": "bar",
      "lat": 41.5599171,
      "lon": 2.0948907,
      "direccion": null,
      "codigo_postal": null,
      "telefono": null,
      "web": null,
      "instagram": null,
      "horario": null,
      "terraza": false
    },
    {
      "id": "osm_node_1605762549",
      "nombre": "Bar l'Embarcador",
      "tipo": "bar",
      "lat": 41.5514798,
      "lon": 2.0975406,
      "direccion": null,
      "codigo_postal": null,
      "telefono": null,
      "web": null,
      "instagram": null,
      "horario": null,
      "terraza": false
    },
    {
      "id": "osm_node_1622728851",
      "nombre": "Bar Quevedo",
      "tipo": "bar",
      "lat": 41.5506323,
      "lon": 2.1149128,
      "direccion": null,
      "codigo_postal": null,
      "telefono": null,
      "web": null,
      "instagram": null,
      "horario": null,
      "terraza": false
    },
    {
      "id": "osm_node_1623754855",
      "nombre": "Covadonga",
      "tipo": "bar",
      "lat": 41.5469761,
      "lon": 2.116974,
      "direccion": null,
      "codigo_postal": null,
      "telefono": null,
      "web": null,
      "instagram": null,
      "horario": null,
      "terraza": false
    },
    {
      "id": "osm_node_1623786577",
      "nombre": "la cantonada",
      "tipo": "bar",
      "lat": 41.5461007,
      "lon": 2.1177387,
      "direccion": null,
      "codigo_postal": null,
      "telefono": null,
      "web": null,
      "instagram": null,
      "horario": null,
      "terraza": false
    },
    {
      "id": "osm_node_1633205031",
      "nombre": "Bar la Kedada",
      "tipo": "bar",
      "lat": 41.5279128,
      "lon": 2.1246821,
      "direccion": null,
      "codigo_postal": null,
      "telefono": null,
      "web": null,
      "instagram": null,
      "horario": null,
      "terraza": false
    },
    {
      "id": "osm_node_1796440837",
      "nombre": "Bar La Tabernilla",
      "tipo": "bar",
      "lat": 41.5589863,
      "lon": 2.0928267,
      "direccion": null,
      "codigo_postal": null,
      "telefono": null,
      "web": null,
      "instagram": null,
      "horario": null,
      "terraza": false
    },
    {
      "id": "osm_node_1796449731",
      "nombre": "Frankfurt Bon Apetit",
      "tipo": "bar",
      "lat": 41.558213,
      "lon": 2.0931782,
      "direccion": null,
      "codigo_postal": null,
      "telefono": null,
      "web": null,
      "instagram": null,
      "horario": null,
      "terraza": false
    },
    {
      "id": "osm_node_1796454337",
      "nombre": "Bar Córdoba",
      "tipo": "bar",
      "lat": 41.5591901,
      "lon": 2.0930042,
      "direccion": null,
      "codigo_postal": null,
      "telefono": null,
      "web": null,
      "instagram": null,
      "horario": null,
      "terraza": false
    },
    {
      "id": "osm_node_2344642350",
      "nombre": "Frankfurt Bar Snoopy",
      "tipo": "bar",
      "lat": 41.5603724,
      "lon": 2.0941897,
      "direccion": null,
      "codigo_postal": null,
      "telefono": null,
      "web": null,
      "instagram": null,
      "horario": null,
      "terraza": false
    },
    {
      "id": "osm_node_2698542231",
      "nombre": "Bar Bolote",
      "tipo": "bar",
      "lat": 41.574502,
      "lon": 2.0887495,
      "direccion": null,
      "codigo_postal": null,
      "telefono": null,
      "web": null,
      "instagram": null,
      "horario": null,
      "terraza": false
    },
    {
      "id": "osm_node_2717113793",
      "nombre": "Bar Diego",
      "tipo": "bar",
      "lat": 41.5726101,
      "lon": 2.0889678,
      "direccion": null,
      "codigo_postal": null,
      "telefono": null,
      "web": null,
      "instagram": null,
      "horario": null,
      "terraza": false
    },
    {
      "id": "osm_node_2719481717",
      "nombre": "Bar Jerezano",
      "tipo": "bar",
      "lat": 41.5725178,
      "lon": 2.0903413,
      "direccion": null,
      "codigo_postal": null,
      "telefono": null,
      "web": null,
      "instagram": null,
      "horario": null,
      "terraza": false
    },
    {
      "id": "osm_node_2739182643",
      "nombre": "Bar Almendro",
      "tipo": "bar",
      "lat": 41.5722196,
      "lon": 2.0916703,
      "direccion": null,
      "codigo_postal": null,
      "telefono": null,
      "web": null,
      "instagram": null,
      "horario": null,
      "terraza": false
    },
    {
      "id": "osm_node_2743683827",
      "nombre": "Snooker",
      "tipo": "bar",
      "lat": 41.5532739,
      "lon": 2.1110546,
      "direccion": "Carrer de Vilarrubias 114",
      "codigo_postal": "08202",
      "telefono": null,
      "web": null,
      "instagram": null,
      "horario": null,
      "terraza": false
    },
    {
      "id": "osm_node_2755504016",
      "nombre": "Bar l'Estació",
      "tipo": "bar",
      "lat": 41.5619012,
      "lon": 2.0960707,
      "direccion": null,
      "codigo_postal": null,
      "telefono": null,
      "web": null,
      "instagram": null,
      "horario": null,
      "terraza": false
    },
    {
      "id": "osm_node_3149678472",
      "nombre": "Bar Los Martinez",
      "tipo": "bar",
      "lat": 41.528591,
      "lon": 2.1103822,
      "direccion": "Aribau",
      "codigo_postal": "08204",
      "telefono": null,
      "web": null,
      "instagram": null,
      "horario": null,
      "terraza": false
    },
    {
      "id": "osm_node_3762966035",
      "nombre": "El Llit Bar",
      "tipo": "bar",
      "lat": 41.5476592,
      "lon": 2.1084356,
      "direccion": "Passeig de la Plaça Major 37",
      "codigo_postal": "08201",
      "telefono": "+34 937 128 832",
      "web": "https://www.llitbar.cat/",
      "instagram": null,
      "horario": "Mo-Fr 16:00-00:00; Sa-Su 11:00-00:00",
      "terraza": true
    },
    {
      "id": "osm_node_4443598190",
      "nombre": "Bar Restaurant Olimpic",
      "tipo": "bar",
      "lat": 41.5461936,
      "lon": 2.0999136,
      "direccion": "Carrer de Calderón 169",
      "codigo_postal": "08201",
      "telefono": null,
      "web": null,
      "instagram": null,
      "horario": null,
      "terraza": false
    },
    {
      "id": "osm_node_5257605851",
      "nombre": "Bon Día",
      "tipo": "cafe",
      "lat": 41.5462667,
      "lon": 2.1039078,
      "direccion": "Plaça de Sant Jaume 41",
      "codigo_postal": "08201",
      "telefono": null,
      "web": null,
      "instagram": null,
      "horario": "Mo-Sa 06:45-20:00",
      "terraza": false
    },
    {
      "id": "osm_node_5304593461",
      "nombre": "Bar Titó Doner Kebab",
      "tipo": "pub",
      "lat": 41.5613786,
      "lon": 2.0957056,
      "direccion": null,
      "codigo_postal": null,
      "telefono": null,
      "web": null,
      "instagram": null,
      "horario": null,
      "terraza": true
    },
    {
      "id": "osm_node_5320600299",
      "nombre": "Bar K'ramelo",
      "tipo": "bar",
      "lat": 41.5287351,
      "lon": 2.1168794,
      "direccion": null,
      "codigo_postal": null,
      "telefono": null,
      "web": null,
      "instagram": null,
      "horario": null,
      "terraza": false
    },
    {
      "id": "osm_node_5320600301",
      "nombre": "Bar Munich 2",
      "tipo": "bar",
      "lat": 41.5289359,
      "lon": 2.116571,
      "direccion": null,
      "codigo_postal": null,
      "telefono": null,
      "web": null,
      "instagram": null,
      "horario": null,
      "terraza": false
    },
    {
      "id": "osm_node_5320600684",
      "nombre": "Café - Bar Parada",
      "tipo": "bar",
      "lat": 41.5283757,
      "lon": 2.1158978,
      "direccion": null,
      "codigo_postal": null,
      "telefono": null,
      "web": null,
      "instagram": null,
      "horario": null,
      "terraza": false
    },
    {
      "id": "osm_node_5484175717",
      "nombre": "El Suau",
      "tipo": "cafe",
      "lat": 41.5471823,
      "lon": 2.1084145,
      "direccion": "Travessia Església 8",
      "codigo_postal": "08201",
      "telefono": null,
      "web": null,
      "instagram": null,
      "horario": "Mo-We 08:00-22:00; Th 08:00-00:00; Fr 08:00-02:00; Sa 09:00-15:00,17:00-20:00; Su 10:00-15:00,17:00-22:00",
      "terraza": true
    },
    {
      "id": "osm_node_5571046899",
      "nombre": "Sau Street Bar",
      "tipo": "bar",
      "lat": 41.5472416,
      "lon": 2.1286928,
      "direccion": null,
      "codigo_postal": null,
      "telefono": null,
      "web": null,
      "instagram": null,
      "horario": null,
      "terraza": false
    },
    {
      "id": "osm_node_5571046904",
      "nombre": "Capriccio",
      "tipo": "cafe",
      "lat": 41.5466936,
      "lon": 2.1281296,
      "direccion": null,
      "codigo_postal": null,
      "telefono": null,
      "web": null,
      "instagram": null,
      "horario": null,
      "terraza": false
    },
    {
      "id": "osm_node_5798506872",
      "nombre": "Bar Xipella",
      "tipo": "bar",
      "lat": 41.5349015,
      "lon": 2.1021134,
      "direccion": null,
      "codigo_postal": null,
      "telefono": null,
      "web": null,
      "instagram": null,
      "horario": null,
      "terraza": false
    },
    {
      "id": "osm_node_5809047289",
      "nombre": "RAMBLA",
      "tipo": "cafe",
      "lat": 41.5399264,
      "lon": 2.1124754,
      "direccion": null,
      "codigo_postal": null,
      "telefono": null,
      "web": null,
      "instagram": null,
      "horario": null,
      "terraza": false
    },
    {
      "id": "osm_node_6225605685",
      "nombre": "L’Especial",
      "tipo": "bar",
      "lat": 41.5412001,
      "lon": 2.1167007,
      "direccion": null,
      "codigo_postal": null,
      "telefono": null,
      "web": null,
      "instagram": null,
      "horario": null,
      "terraza": false
    },
    {
      "id": "osm_node_6796559885",
      "nombre": "Papanatas",
      "tipo": "bar",
      "lat": 41.5411452,
      "lon": 2.1150476,
      "direccion": "Carrer de Borrell 86",
      "codigo_postal": "08202",
      "telefono": "+34 675490377",
      "web": null,
      "instagram": null,
      "horario": null,
      "terraza": false
    },
    {
      "id": "osm_node_6796592785",
      "nombre": "El Lleó d’Or",
      "tipo": "bar",
      "lat": 41.5406105,
      "lon": 2.1170713,
      "direccion": null,
      "codigo_postal": null,
      "telefono": null,
      "web": null,
      "instagram": null,
      "horario": null,
      "terraza": false
    },
    {
      "id": "osm_node_6796656385",
      "nombre": "Musical Sabadell",
      "tipo": "bar",
      "lat": 41.5459217,
      "lon": 2.1074692,
      "direccion": "Carrer de l'Advocat Cirera 20-22",
      "codigo_postal": null,
      "telefono": "+34 937 27 95 32",
      "web": null,
      "instagram": null,
      "horario": null,
      "terraza": false
    },
    {
      "id": "osm_node_6796862485",
      "nombre": "Colón",
      "tipo": "bar",
      "lat": 41.5469911,
      "lon": 2.1055757,
      "direccion": "Carrer d'en Font 2",
      "codigo_postal": null,
      "telefono": "+34 937 25 01 20",
      "web": null,
      "instagram": null,
      "horario": null,
      "terraza": false
    },
    {
      "id": "osm_node_6796867789",
      "nombre": "La Granja Urpí",
      "tipo": "bar",
      "lat": 41.5472586,
      "lon": 2.1058934,
      "direccion": "Carrer de l'Escola Industrial 36",
      "codigo_postal": "08201",
      "telefono": "+34 937 25 01 32",
      "web": "http://lagranjaurpi.cat",
      "instagram": null,
      "horario": null,
      "terraza": false
    },
    {
      "id": "osm_node_7615959291",
      "nombre": "Casa Paco",
      "tipo": "bar",
      "lat": 41.5714384,
      "lon": 2.0815997,
      "direccion": "Carrer de Baltarga 5",
      "codigo_postal": "08207",
      "telefono": null,
      "web": null,
      "instagram": null,
      "horario": null,
      "terraza": false
    },
    {
      "id": "osm_node_9261078318",
      "nombre": "Beagle",
      "tipo": "cafe",
      "lat": 41.5462631,
      "lon": 2.1080005,
      "direccion": "Plaça de Sant Roc 16",
      "codigo_postal": "08201",
      "telefono": "+34 931 41 50 26",
      "web": null,
      "instagram": null,
      "horario": "Tu-Su 09:45-20:00",
      "terraza": false
    },
    {
      "id": "osm_node_9261361817",
      "nombre": "La Tete",
      "tipo": "cafe",
      "lat": 41.5457299,
      "lon": 2.1061513,
      "direccion": "Plaça del Gas 3",
      "codigo_postal": "08201",
      "telefono": null,
      "web": null,
      "instagram": null,
      "horario": null,
      "terraza": false
    },
    {
      "id": "osm_node_9264185217",
      "nombre": "Artbo",
      "tipo": "cafe",
      "lat": 41.5508197,
      "lon": 2.100684,
      "direccion": "Ronda de Zamenhof 96-100",
      "codigo_postal": "08208",
      "telefono": "+34 937 256 134",
      "web": "https://www.artbo.es/",
      "instagram": null,
      "horario": "Mo-Sa 07:00-21:00; Su 08:00-21:00",
      "terraza": false
    },
    {
      "id": "osm_node_9264188817",
      "nombre": "Centenari",
      "tipo": "cafe",
      "lat": 41.5519392,
      "lon": 2.1054601,
      "direccion": "Ronda de Zamenhof 18-20",
      "codigo_postal": "08208",
      "telefono": "+34 937 271 178",
      "web": "https://www.centenari.es/es",
      "instagram": null,
      "horario": "Mo-Su 07:00-21:00",
      "terraza": false
    },
    {
      "id": "osm_node_9264521317",
      "nombre": "L'Obrador",
      "tipo": "cafe",
      "lat": 41.546439,
      "lon": 2.1096225,
      "direccion": "Carrer de Sant Antoni Maria Claret 10",
      "codigo_postal": "08202",
      "telefono": "+34 937459494",
      "web": "http://lobradordelmoli.com",
      "instagram": null,
      "horario": "Tu-Sa 07:30-21:00; Su 08:30-15:00",
      "terraza": false
    },
    {
      "id": "osm_node_9308816917",
      "nombre": "Il Caffè",
      "tipo": "cafe",
      "lat": 41.5460124,
      "lon": 2.1080461,
      "direccion": null,
      "codigo_postal": null,
      "telefono": null,
      "web": null,
      "instagram": null,
      "horario": null,
      "terraza": false
    },
    {
      "id": "osm_node_9373563217",
      "nombre": "Sandwichez",
      "tipo": "cafe",
      "lat": 41.546808,
      "lon": 2.1076919,
      "direccion": "Carrer de Gràcia 1",
      "codigo_postal": "08201",
      "telefono": null,
      "web": "https://www.sandwichez.com/",
      "instagram": null,
      "horario": "Mo-Su 08:00-23:00",
      "terraza": false
    },
    {
      "id": "osm_node_9608927954",
      "nombre": "Verín Los Cazadores",
      "tipo": "cafe",
      "lat": 41.5552588,
      "lon": 2.0883934,
      "direccion": "Carrer de la Serra d'en Camaró 20",
      "codigo_postal": "08206",
      "telefono": null,
      "web": null,
      "instagram": null,
      "horario": null,
      "terraza": true
    },
    {
      "id": "osm_node_9608927955",
      "nombre": "Bar Taparrica",
      "tipo": "cafe",
      "lat": 41.5553071,
      "lon": 2.08858,
      "direccion": "Carrer de la Serra d'en Camaró 18",
      "codigo_postal": "08206",
      "telefono": null,
      "web": null,
      "instagram": null,
      "horario": null,
      "terraza": false
    },
    {
      "id": "osm_node_11299267893",
      "nombre": "Boheme",
      "tipo": "cafe",
      "lat": 41.5509596,
      "lon": 2.0985397,
      "direccion": null,
      "codigo_postal": null,
      "telefono": null,
      "web": null,
      "instagram": null,
      "horario": "Mo-Su 06:00-22:00",
      "terraza": false
    },
    {
      "id": "osm_node_11308030130",
      "nombre": "365",
      "tipo": "cafe",
      "lat": 41.5504187,
      "lon": 2.0989429,
      "direccion": null,
      "codigo_postal": null,
      "telefono": null,
      "web": null,
      "instagram": null,
      "horario": null,
      "terraza": false
    },
    {
      "id": "osm_node_11866792093",
      "nombre": "Km 0",
      "tipo": "cafe",
      "lat": 41.550333,
      "lon": 2.0998391,
      "direccion": "Ronda de Zamenhof 147",
      "codigo_postal": null,
      "telefono": "+34937272971",
      "web": null,
      "instagram": null,
      "horario": null,
      "terraza": false
    },
    {
      "id": "osm_node_12617970104",
      "nombre": "Cent 45",
      "tipo": "bar",
      "lat": 41.5470092,
      "lon": 2.1162524,
      "direccion": "Carrer d'Alfons Sala 145",
      "codigo_postal": null,
      "telefono": null,
      "web": null,
      "instagram": null,
      "horario": null,
      "terraza": false
    },
    {
      "id": "osm_node_13619782571",
      "nombre": "One Day Bubble Tea",
      "tipo": "cafe",
      "lat": 41.5535109,
      "lon": 2.0985387,
      "direccion": "Avinguda de Francesc Macià 54",
      "codigo_postal": null,
      "telefono": null,
      "web": null,
      "instagram": null,
      "horario": "Mo-Sa 12:00-21:00; Su 15:30-20:00",
      "terraza": false
    },
    {
      "id": "osm_way_342248145",
      "nombre": "Tevere",
      "tipo": "biergarten",
      "lat": 41.552425,
      "lon": 2.09671,
      "direccion": null,
      "codigo_postal": null,
      "telefono": "+34 639936529",
      "web": null,
      "instagram": null,
      "horario": null,
      "terraza": false
    },
    {
      "id": "osm_way_544647026",
      "nombre": "L'embarcador",
      "tipo": "biergarten",
      "lat": 41.551503,
      "lon": 2.097584,
      "direccion": null,
      "codigo_postal": null,
      "telefono": null,
      "web": null,
      "instagram": null,
      "horario": null,
      "terraza": false
    },
    {
      "id": "osm_way_544647027",
      "nombre": "L'embarcador",
      "tipo": "biergarten",
      "lat": 41.551771,
      "lon": 2.097572,
      "direccion": null,
      "codigo_postal": null,
      "telefono": null,
      "web": null,
      "instagram": null,
      "horario": null,
      "terraza": false
    },
    {
      "id": "osm_way_546317426",
      "nombre": "Bar Elim",
      "tipo": "bar",
      "lat": 41.555151,
      "lon": 2.088895,
      "direccion": "Carrer de la Serra d'en Camaró 19",
      "codigo_postal": "08206",
      "telefono": null,
      "web": null,
      "instagram": null,
      "horario": null,
      "terraza": true
    },
    {
      "id": "osm_way_983238189",
      "nombre": "La República",
      "tipo": "bar",
      "lat": 41.546033,
      "lon": 2.102387,
      "direccion": "Plaça Vallès 5",
      "codigo_postal": "08201",
      "telefono": null,
      "web": null,
      "instagram": null,
      "horario": "Fr-Su 20:00-03:00",
      "terraza": false
    }
  ]
}