{
  "ciudad": "Santa Pola",
  "total": 67,
  "locales": [
    {
      "id": "osm_node_1221458912",
      "nombre": "Dick Turpins",
      "tipo": "pub",
      "lat": 38.2312214,
      "lon": -0.5258613,
      "direccion": null,
      "codigo_postal": null,
      "telefono": null,
      "web": null,
      "instagram": null,
      "horario": null,
      "terraza": false
    },
    {
      "id": "osm_node_1221460442",
      "nombre": "Zest",
      "tipo": "cafe",
      "lat": 38.2311854,
      "lon": -0.526046,
      "direccion": "Carrer del Riu Segura 36",
      "codigo_postal": "03130",
      "telefono": null,
      "web": null,
      "instagram": null,
      "horario": null,
      "terraza": false
    },
    {
      "id": "osm_node_1221465111",
      "nombre": "Sezadu",
      "tipo": "pub",
      "lat": 38.2388888,
      "lon": -0.5286598,
      "direccion": null,
      "codigo_postal": null,
      "telefono": null,
      "web": null,
      "instagram": null,
      "horario": null,
      "terraza": true
    },
    {
      "id": "osm_node_1221466796",
      "nombre": "Cork n Bottle",
      "tipo": "bar",
      "lat": 38.2408101,
      "lon": -0.5260907,
      "direccion": "Avinguda de Noruega 214",
      "codigo_postal": null,
      "telefono": null,
      "web": null,
      "instagram": null,
      "horario": null,
      "terraza": false
    },
    {
      "id": "osm_node_1221469940",
      "nombre": "Destination Bar & Grill",
      "tipo": "bar",
      "lat": 38.2266607,
      "lon": -0.5235615,
      "direccion": null,
      "codigo_postal": null,
      "telefono": null,
      "web": null,
      "instagram": null,
      "horario": null,
      "terraza": false
    },
    {
      "id": "osm_node_1669168169",
      "nombre": "El Rincón de Manoli",
      "tipo": "cafe",
      "lat": 38.2325017,
      "lon": -0.5234804,
      "direccion": null,
      "codigo_postal": null,
      "telefono": null,
      "web": null,
      "instagram": null,
      "horario": null,
      "terraza": true
    },
    {
      "id": "osm_node_1669168175",
      "nombre": "Miley O'Rourke's Irish Pub",
      "tipo": "pub",
      "lat": 38.241143,
      "lon": -0.5259724,
      "direccion": "Avinguda de Noruega 214",
      "codigo_postal": "03130",
      "telefono": null,
      "web": null,
      "instagram": null,
      "horario": null,
      "terraza": false
    },
    {
      "id": "osm_node_1669168179",
      "nombre": "Heaven Star",
      "tipo": "pub",
      "lat": 38.2411838,
      "lon": -0.5259214,
      "direccion": "Avinguda de Noruega 214",
      "codigo_postal": "03130",
      "telefono": null,
      "web": null,
      "instagram": null,
      "horario": null,
      "terraza": false
    },
    {
      "id": "osm_node_1896255719",
      "nombre": "Cafeteria el Golós",
      "tipo": "cafe",
      "lat": 38.1943811,
      "lon": -0.5553962,
      "direccion": null,
      "codigo_postal": null,
      "telefono": null,
      "web": null,
      "instagram": null,
      "horario": null,
      "terraza": false
    },
    {
      "id": "osm_node_2459141223",
      "nombre": "El Jamón",
      "tipo": "cafe",
      "lat": 38.1958084,
      "lon": -0.5586337,
      "direccion": null,
      "codigo_postal": null,
      "telefono": null,
      "web": null,
      "instagram": null,
      "horario": null,
      "terraza": false
    },
    {
      "id": "osm_node_2459141225",
      "nombre": "Bitácora",
      "tipo": "cafe",
      "lat": 38.1944555,
      "lon": -0.5610132,
      "direccion": null,
      "codigo_postal": null,
      "telefono": null,
      "web": null,
      "instagram": null,
      "horario": null,
      "terraza": false
    },
    {
      "id": "osm_node_2923300688",
      "nombre": "Carmen",
      "tipo": "cafe",
      "lat": 38.1914329,
      "lon": -0.553696,
      "direccion": null,
      "codigo_postal": null,
      "telefono": null,
      "web": null,
      "instagram": null,
      "horario": null,
      "terraza": false
    },
    {
      "id": "osm_node_2998081449",
      "nombre": "Café París",
      "tipo": "cafe",
      "lat": 38.1915956,
      "lon": -0.5748105,
      "direccion": null,
      "codigo_postal": null,
      "telefono": null,
      "web": null,
      "instagram": null,
      "horario": null,
      "terraza": true
    },
    {
      "id": "osm_node_2998081450",
      "nombre": "Café de la Mar",
      "tipo": "cafe",
      "lat": 38.1914616,
      "lon": -0.5771174,
      "direccion": null,
      "codigo_postal": null,
      "telefono": null,
      "web": null,
      "instagram": null,
      "horario": null,
      "terraza": true
    },
    {
      "id": "osm_node_3011319197",
      "nombre": "Boule Vard",
      "tipo": "pub",
      "lat": 38.1912134,
      "lon": -0.5619775,
      "direccion": null,
      "codigo_postal": null,
      "telefono": null,
      "web": null,
      "instagram": null,
      "horario": null,
      "terraza": false
    },
    {
      "id": "osm_node_3011319199",
      "nombre": "El Portal del Puerto.com",
      "tipo": "bar",
      "lat": 38.1911968,
      "lon": -0.5621292,
      "direccion": null,
      "codigo_postal": null,
      "telefono": null,
      "web": null,
      "instagram": null,
      "horario": null,
      "terraza": false
    },
    {
      "id": "osm_node_3011319201",
      "nombre": "I Love Recycled",
      "tipo": "bar",
      "lat": 38.1911571,
      "lon": -0.5625653,
      "direccion": null,
      "codigo_postal": null,
      "telefono": null,
      "web": null,
      "instagram": null,
      "horario": null,
      "terraza": false
    },
    {
      "id": "osm_node_3011319202",
      "nombre": "La Taberna de Lucía",
      "tipo": "bar",
      "lat": 38.1911212,
      "lon": -0.562895,
      "direccion": null,
      "codigo_postal": null,
      "telefono": null,
      "web": null,
      "instagram": null,
      "horario": null,
      "terraza": false
    },
    {
      "id": "osm_node_3011319203",
      "nombre": "Lizarran",
      "tipo": "bar",
      "lat": 38.1912468,
      "lon": -0.5616185,
      "direccion": null,
      "codigo_postal": null,
      "telefono": null,
      "web": null,
      "instagram": null,
      "horario": null,
      "terraza": false
    },
    {
      "id": "osm_node_3011319206",
      "nombre": "Saint James",
      "tipo": "bar",
      "lat": 38.1910517,
      "lon": -0.563565,
      "direccion": null,
      "codigo_postal": null,
      "telefono": null,
      "web": null,
      "instagram": null,
      "horario": null,
      "terraza": false
    },
    {
      "id": "osm_node_3012630691",
      "nombre": "The Good Burger",
      "tipo": "bar",
      "lat": 38.1906879,
      "lon": -0.5610443,
      "direccion": null,
      "codigo_postal": null,
      "telefono": null,
      "web": null,
      "instagram": null,
      "horario": null,
      "terraza": false
    },
    {
      "id": "osm_node_3018702044",
      "nombre": "Poseidón",
      "tipo": "bar",
      "lat": 38.1898912,
      "lon": -0.5538992,
      "direccion": null,
      "codigo_postal": null,
      "telefono": null,
      "web": null,
      "instagram": null,
      "horario": null,
      "terraza": false
    },
    {
      "id": "osm_node_3018702076",
      "nombre": "Helados Laico",
      "tipo": "cafe",
      "lat": 38.1927872,
      "lon": -0.5558097,
      "direccion": null,
      "codigo_postal": null,
      "telefono": null,
      "web": null,
      "instagram": null,
      "horario": null,
      "terraza": false
    },
    {
      "id": "osm_node_3020596311",
      "nombre": "La Vida Bonita Beach Club",
      "tipo": "bar",
      "lat": 38.1916812,
      "lon": -0.5734676,
      "direccion": "Avinguda de Vicente Blasco Ibáñez 49",
      "codigo_postal": null,
      "telefono": "+34 965 27 11 46",
      "web": null,
      "instagram": null,
      "horario": null,
      "terraza": true
    },
    {
      "id": "osm_node_3020596312",
      "nombre": "Havana Cafe",
      "tipo": "bar",
      "lat": 38.1918595,
      "lon": -0.5707307,
      "direccion": null,
      "codigo_postal": null,
      "telefono": null,
      "web": null,
      "instagram": null,
      "horario": null,
      "terraza": true
    },
    {
      "id": "osm_node_3020596314",
      "nombre": "Chiringuito Azul Santa Pola",
      "tipo": "bar",
      "lat": 38.1917105,
      "lon": -0.5730534,
      "direccion": "Avinguda de Vicente Blasco Ibáñez 47",
      "codigo_postal": null,
      "telefono": "+34 966 67 76 57",
      "web": null,
      "instagram": null,
      "horario": null,
      "terraza": true
    },
    {
      "id": "osm_node_3023352798",
      "nombre": "Océano",
      "tipo": "cafe",
      "lat": 38.1935241,
      "lon": -0.5812152,
      "direccion": null,
      "codigo_postal": null,
      "telefono": null,
      "web": null,
      "instagram": null,
      "horario": null,
      "terraza": false
    },
    {
      "id": "osm_node_3035264513",
      "nombre": "Bar Sioux",
      "tipo": "bar",
      "lat": 38.2243241,
      "lon": -0.5201192,
      "direccion": null,
      "codigo_postal": null,
      "telefono": null,
      "web": null,
      "instagram": null,
      "horario": null,
      "terraza": false
    },
    {
      "id": "osm_node_3037172772",
      "nombre": "Saint James",
      "tipo": "pub",
      "lat": 38.1914683,
      "lon": -0.555662,
      "direccion": null,
      "codigo_postal": null,
      "telefono": null,
      "web": null,
      "instagram": null,
      "horario": null,
      "terraza": false
    },
    {
      "id": "osm_node_3258434309",
      "nombre": "Karaoke disco Pub",
      "tipo": "pub",
      "lat": 38.1920513,
      "lon": -0.5676627,
      "direccion": null,
      "codigo_postal": null,
      "telefono": null,
      "web": null,
      "instagram": null,
      "horario": null,
      "terraza": true
    },
    {
      "id": "osm_node_3258434317",
      "nombre": "A sirvent",
      "tipo": "cafe",
      "lat": 38.1920323,
      "lon": -0.5679711,
      "direccion": null,
      "codigo_postal": null,
      "telefono": null,
      "web": null,
      "instagram": null,
      "horario": null,
      "terraza": true
    },
    {
      "id": "osm_node_3267989701",
      "nombre": "La Tasca",
      "tipo": "pub",
      "lat": 38.2241058,
      "lon": -0.5199273,
      "direccion": null,
      "codigo_postal": null,
      "telefono": null,
      "web": null,
      "instagram": null,
      "horario": null,
      "terraza": false
    },
    {
      "id": "osm_node_4352263851",
      "nombre": "Kiosko El Pinet",
      "tipo": "bar",
      "lat": 38.2274021,
      "lon": -0.5232106,
      "direccion": null,
      "codigo_postal": null,
      "telefono": null,
      "web": null,
      "instagram": null,
      "horario": null,
      "terraza": false
    },
    {
      "id": "osm_node_4416535899",
      "nombre": "Glorieta Nova",
      "tipo": "bar",
      "lat": 38.1925109,
      "lon": -0.5559422,
      "direccion": null,
      "codigo_postal": null,
      "telefono": null,
      "web": null,
      "instagram": null,
      "horario": null,
      "terraza": false
    },
    {
      "id": "osm_node_4416535900",
      "nombre": "Juande",
      "tipo": "cafe",
      "lat": 38.192188,
      "lon": -0.5558855,
      "direccion": null,
      "codigo_postal": null,
      "telefono": null,
      "web": null,
      "instagram": null,
      "horario": null,
      "terraza": false
    },
    {
      "id": "osm_node_4417769960",
      "nombre": "Tribeca",
      "tipo": "bar",
      "lat": 38.1957549,
      "lon": -0.5602647,
      "direccion": null,
      "codigo_postal": null,
      "telefono": null,
      "web": null,
      "instagram": null,
      "horario": null,
      "terraza": false
    },
    {
      "id": "osm_node_4418140336",
      "nombre": "La Casa de Marta",
      "tipo": "cafe",
      "lat": 38.1923655,
      "lon": -0.5630514,
      "direccion": null,
      "codigo_postal": null,
      "telefono": null,
      "web": null,
      "instagram": null,
      "horario": null,
      "terraza": false
    },
    {
      "id": "osm_node_4426991746",
      "nombre": "El Tapeo",
      "tipo": "bar",
      "lat": 38.1932556,
      "lon": -0.5832446,
      "direccion": null,
      "codigo_postal": null,
      "telefono": null,
      "web": null,
      "instagram": null,
      "horario": null,
      "terraza": false
    },
    {
      "id": "osm_node_4523664155",
      "nombre": "The Pub",
      "tipo": "pub",
      "lat": 38.2339755,
      "lon": -0.5433454,
      "direccion": "Carrer d'Holanda 9",
      "codigo_postal": "03130",
      "telefono": null,
      "web": null,
      "instagram": null,
      "horario": null,
      "terraza": false
    },
    {
      "id": "osm_node_4618850489",
      "nombre": "Chill Out Grill",
      "tipo": "bar",
      "lat": 38.2336952,
      "lon": -0.5432494,
      "direccion": "Carrer d'Holanda",
      "codigo_postal": null,
      "telefono": "+34 865 66 93 36",
      "web": null,
      "instagram": null,
      "horario": "Mo-Su 11:00-01:00",
      "terraza": false
    },
    {
      "id": "osm_node_4874904321",
      "nombre": "El Hatsikidee",
      "tipo": "cafe",
      "lat": 38.2330771,
      "lon": -0.5470808,
      "direccion": "Avinguda de Finlàndia 1",
      "codigo_postal": null,
      "telefono": "+34 966699141",
      "web": "https://www.elhatsikidee.com/",
      "instagram": null,
      "horario": null,
      "terraza": false
    },
    {
      "id": "osm_node_6161339486",
      "nombre": "Molly Malone’s",
      "tipo": "pub",
      "lat": 38.2405729,
      "lon": -0.5264605,
      "direccion": "Avinguda de Noruega 214",
      "codigo_postal": "03130",
      "telefono": null,
      "web": null,
      "instagram": null,
      "horario": null,
      "terraza": false
    },
    {
      "id": "osm_node_6395825573",
      "nombre": "Cafetería L'estació",
      "tipo": "cafe",
      "lat": 38.1971576,
      "lon": -0.562381,
      "direccion": null,
      "codigo_postal": null,
      "telefono": null,
      "web": null,
      "instagram": null,
      "horario": null,
      "terraza": false
    },
    {
      "id": "osm_node_6398226941",
      "nombre": "Horchatería Berenguer",
      "tipo": "cafe",
      "lat": 38.1904031,
      "lon": -0.554777,
      "direccion": null,
      "codigo_postal": null,
      "telefono": null,
      "web": null,
      "instagram": null,
      "horario": null,
      "terraza": false
    },
    {
      "id": "osm_node_6534065752",
      "nombre": "Cafetería Gran Alacant",
      "tipo": "cafe",
      "lat": 38.2233336,
      "lon": -0.5188241,
      "direccion": null,
      "codigo_postal": null,
      "telefono": null,
      "web": null,
      "instagram": null,
      "horario": null,
      "terraza": false
    },
    {
      "id": "osm_node_6592830591",
      "nombre": "Rogers",
      "tipo": "bar",
      "lat": 38.2341295,
      "lon": -0.5430065,
      "direccion": null,
      "codigo_postal": null,
      "telefono": null,
      "web": null,
      "instagram": null,
      "horario": null,
      "terraza": false
    },
    {
      "id": "osm_node_6767395730",
      "nombre": "Cafetería Alexandra",
      "tipo": "cafe",
      "lat": 38.1914748,
      "lon": -0.564442,
      "direccion": null,
      "codigo_postal": null,
      "telefono": null,
      "web": null,
      "instagram": null,
      "horario": null,
      "terraza": false
    },
    {
      "id": "osm_node_6767445326",
      "nombre": "Velvet Club",
      "tipo": "pub",
      "lat": 38.1919539,
      "lon": -0.5692895,
      "direccion": null,
      "codigo_postal": null,
      "telefono": null,
      "web": null,
      "instagram": null,
      "horario": null,
      "terraza": false
    },
    {
      "id": "osm_node_6767451538",
      "nombre": "Camarote",
      "tipo": "pub",
      "lat": 38.1919756,
      "lon": -0.5688697,
      "direccion": null,
      "codigo_postal": null,
      "telefono": null,
      "web": null,
      "instagram": null,
      "horario": null,
      "terraza": false
    },
    {
      "id": "osm_node_9087526646",
      "nombre": "Old Fox Beach Bar",
      "tipo": "bar",
      "lat": 38.191741,
      "lon": -0.5717795,
      "direccion": null,
      "codigo_postal": null,
      "telefono": null,
      "web": null,
      "instagram": null,
      "horario": null,
      "terraza": false
    },
    {
      "id": "osm_node_9094549456",
      "nombre": "Miramar",
      "tipo": "cafe",
      "lat": 38.1905392,
      "lon": -0.5610837,
      "direccion": null,
      "codigo_postal": null,
      "telefono": null,
      "web": null,
      "instagram": null,
      "horario": null,
      "terraza": false
    },
    {
      "id": "osm_node_9094549460",
      "nombre": "La Mala Madre",
      "tipo": "bar",
      "lat": 38.191274,
      "lon": -0.5612474,
      "direccion": null,
      "codigo_postal": null,
      "telefono": null,
      "web": null,
      "instagram": null,
      "horario": null,
      "terraza": false
    },
    {
      "id": "osm_node_9094549461",
      "nombre": "La Esquina",
      "tipo": "bar",
      "lat": 38.1912637,
      "lon": -0.5613782,
      "direccion": null,
      "codigo_postal": null,
      "telefono": null,
      "web": null,
      "instagram": null,
      "horario": null,
      "terraza": false
    },
    {
      "id": "osm_node_9094549464",
      "nombre": "Azteca",
      "tipo": "bar",
      "lat": 38.1902518,
      "lon": -0.5575851,
      "direccion": null,
      "codigo_postal": null,
      "telefono": null,
      "web": null,
      "instagram": null,
      "horario": null,
      "terraza": false
    },
    {
      "id": "osm_node_9094549466",
      "nombre": "Mi Barra",
      "tipo": "bar",
      "lat": 38.1902139,
      "lon": -0.5571475,
      "direccion": null,
      "codigo_postal": null,
      "telefono": null,
      "web": null,
      "instagram": null,
      "horario": null,
      "terraza": false
    },
    {
      "id": "osm_node_9094549467",
      "nombre": "Mar de Cristal",
      "tipo": "bar",
      "lat": 38.1910677,
      "lon": -0.5600738,
      "direccion": null,
      "codigo_postal": null,
      "telefono": null,
      "web": null,
      "instagram": null,
      "horario": null,
      "terraza": false
    },
    {
      "id": "osm_node_9094549468",
      "nombre": "Cafetería La Barca",
      "tipo": "cafe",
      "lat": 38.1909318,
      "lon": -0.5601297,
      "direccion": null,
      "codigo_postal": null,
      "telefono": null,
      "web": null,
      "instagram": null,
      "horario": null,
      "terraza": false
    },
    {
      "id": "osm_node_9095217392",
      "nombre": "BB+",
      "tipo": "bar",
      "lat": 38.1929818,
      "lon": -0.5595482,
      "direccion": null,
      "codigo_postal": null,
      "telefono": null,
      "web": null,
      "instagram": null,
      "horario": null,
      "terraza": false
    },
    {
      "id": "osm_node_9095217394",
      "nombre": "Cafeteria Ecus",
      "tipo": "cafe",
      "lat": 38.1938138,
      "lon": -0.5607946,
      "direccion": null,
      "codigo_postal": null,
      "telefono": null,
      "web": null,
      "instagram": null,
      "horario": null,
      "terraza": false
    },
    {
      "id": "osm_node_9123098235",
      "nombre": "Playa",
      "tipo": "bar",
      "lat": 38.1899706,
      "lon": -0.5533582,
      "direccion": null,
      "codigo_postal": null,
      "telefono": null,
      "web": null,
      "instagram": null,
      "horario": null,
      "terraza": false
    },
    {
      "id": "osm_node_11898597153",
      "nombre": "Churrería Pepito",
      "tipo": "cafe",
      "lat": 38.1933249,
      "lon": -0.555433,
      "direccion": null,
      "codigo_postal": null,
      "telefono": null,
      "web": null,
      "instagram": null,
      "horario": null,
      "terraza": false
    },
    {
      "id": "osm_node_11938181911",
      "nombre": "Chiringuito las Jamilas",
      "tipo": "pub",
      "lat": 38.1894412,
      "lon": -0.5319738,
      "direccion": null,
      "codigo_postal": null,
      "telefono": "+34  600386316",
      "web": null,
      "instagram": null,
      "horario": null,
      "terraza": false
    },
    {
      "id": "osm_way_298154742",
      "nombre": "Camelot Pop Bar",
      "tipo": "pub",
      "lat": 38.19198,
      "lon": -0.568948,
      "direccion": null,
      "codigo_postal": null,
      "telefono": null,
      "web": null,
      "instagram": null,
      "horario": null,
      "terraza": false
    },
    {
      "id": "osm_way_298154745",
      "nombre": "Camelot Beach Club",
      "tipo": "bar",
      "lat": 38.191954,
      "lon": -0.569358,
      "direccion": null,
      "codigo_postal": null,
      "telefono": null,
      "web": null,
      "instagram": null,
      "horario": null,
      "terraza": false
    },
    {
      "id": "osm_way_770748324",
      "nombre": "Bar Restaurante Foque",
      "tipo": "cafe",
      "lat": 38.191552,
      "lon": -0.546938,
      "direccion": null,
      "codigo_postal": null,
      "telefono": null,
      "web": null,
      "instagram": null,
      "horario": null,
      "terraza": false
    },
    {
      "id": "osm_way_783414921",
      "nombre": "Club de Petanca Santa Pola",
      "tipo": "pub",
      "lat": 38.19441,
      "lon": -0.559323,
      "direccion": null,
      "codigo_postal": null,
      "telefono": null,
      "web": null,
      "instagram": null,
      "horario": null,
      "terraza": false
    },
    {
      "id": "osm_way_1097319091",
      "nombre": "Marina",
      "tipo": "bar",
      "lat": 38.189363,
      "lon": -0.54113,
      "direccion": null,
      "codigo_postal": null,
      "telefono": null,
      "web": null,
      "instagram": null,
      "horario": "Mo-Su,PH 09:00-17:30",
      "terraza": false
    }
  ]
}