{
  "ciudad": "Santa Cruz de Tenerife",
  "total": 1730,
  "locales": [
    {
      "id": "osm_node_262127109",
      "nombre": "Linekers Lounge",
      "tipo": "pub",
      "lat": 28.0654638,
      "lon": -16.7304203,
      "direccion": null,
      "codigo_postal": null,
      "telefono": null,
      "web": null,
      "instagram": null,
      "horario": null,
      "terraza": false
    },
    {
      "id": "osm_node_262127110",
      "nombre": "Down Under Bar",
      "tipo": "pub",
      "lat": 28.0655581,
      "lon": -16.7303345,
      "direccion": null,
      "codigo_postal": null,
      "telefono": null,
      "web": null,
      "instagram": null,
      "horario": null,
      "terraza": false
    },
    {
      "id": "osm_node_297739723",
      "nombre": "El Risco",
      "tipo": "pub",
      "lat": 28.3229589,
      "lon": -16.7882886,
      "direccion": null,
      "codigo_postal": null,
      "telefono": null,
      "web": null,
      "instagram": null,
      "horario": null,
      "terraza": false
    },
    {
      "id": "osm_node_301235506",
      "nombre": "Miguel",
      "tipo": "pub",
      "lat": 28.4842972,
      "lon": -16.3900516,
      "direccion": null,
      "codigo_postal": null,
      "telefono": null,
      "web": null,
      "instagram": null,
      "horario": null,
      "terraza": false
    },
    {
      "id": "osm_node_301235753",
      "nombre": "Josefa",
      "tipo": "bar",
      "lat": 28.5181835,
      "lon": -16.2976796,
      "direccion": null,
      "codigo_postal": null,
      "telefono": null,
      "web": null,
      "instagram": null,
      "horario": null,
      "terraza": false
    },
    {
      "id": "osm_node_305039336",
      "nombre": "Kiosko La Zamora",
      "tipo": "cafe",
      "lat": 28.5144583,
      "lon": -17.8752605,
      "direccion": null,
      "codigo_postal": null,
      "telefono": "+34 676 86 72 64",
      "web": null,
      "instagram": null,
      "horario": "Mo-Tu off",
      "terraza": false
    },
    {
      "id": "osm_node_309519177",
      "nombre": "Manfred's Soul Cafe",
      "tipo": "bar",
      "lat": 28.0435897,
      "lon": -16.5353304,
      "direccion": "Avenida José Miguel Galván Bello 10",
      "codigo_postal": "38612",
      "telefono": "+34922177606",
      "web": null,
      "instagram": null,
      "horario": "Mo-Fr,Su 08:30-02:00; Sa 10:00-02:00",
      "terraza": true
    },
    {
      "id": "osm_node_310631553",
      "nombre": "Giola Bar",
      "tipo": "bar",
      "lat": 28.0559687,
      "lon": -16.7253702,
      "direccion": null,
      "codigo_postal": null,
      "telefono": null,
      "web": null,
      "instagram": null,
      "horario": null,
      "terraza": false
    },
    {
      "id": "osm_node_310631569",
      "nombre": "Los Amigos",
      "tipo": "bar",
      "lat": 28.0560632,
      "lon": -16.7252841,
      "direccion": null,
      "codigo_postal": null,
      "telefono": null,
      "web": null,
      "instagram": null,
      "horario": null,
      "terraza": false
    },
    {
      "id": "osm_node_310631854",
      "nombre": "Daniel's Café",
      "tipo": "cafe",
      "lat": 28.0601526,
      "lon": -16.7329069,
      "direccion": null,
      "codigo_postal": null,
      "telefono": null,
      "web": null,
      "instagram": null,
      "horario": null,
      "terraza": false
    },
    {
      "id": "osm_node_312544494",
      "nombre": "The Anchor",
      "tipo": "pub",
      "lat": 28.0621596,
      "lon": -16.7292551,
      "direccion": null,
      "codigo_postal": null,
      "telefono": null,
      "web": null,
      "instagram": null,
      "horario": null,
      "terraza": false
    },
    {
      "id": "osm_node_312547827",
      "nombre": "The Travellers' Rest",
      "tipo": "pub",
      "lat": 28.0632894,
      "lon": -16.7305765,
      "direccion": null,
      "codigo_postal": null,
      "telefono": null,
      "web": null,
      "instagram": null,
      "horario": null,
      "terraza": false
    },
    {
      "id": "osm_node_312552971",
      "nombre": "Murphy's Irish pub",
      "tipo": "pub",
      "lat": 28.0657713,
      "lon": -16.7302245,
      "direccion": null,
      "codigo_postal": null,
      "telefono": null,
      "web": null,
      "instagram": null,
      "horario": null,
      "terraza": false
    },
    {
      "id": "osm_node_312553041",
      "nombre": "Billares Oro Viejo",
      "tipo": "pub",
      "lat": 28.066035,
      "lon": -16.7299094,
      "direccion": null,
      "codigo_postal": null,
      "telefono": null,
      "web": null,
      "instagram": null,
      "horario": null,
      "terraza": false
    },
    {
      "id": "osm_node_312555464",
      "nombre": "Bread & Cake",
      "tipo": "pub",
      "lat": 28.0658686,
      "lon": -16.7289969,
      "direccion": null,
      "codigo_postal": null,
      "telefono": null,
      "web": null,
      "instagram": null,
      "horario": null,
      "terraza": false
    },
    {
      "id": "osm_node_313344862",
      "nombre": "Dinolandia",
      "tipo": "cafe",
      "lat": 28.0999291,
      "lon": -16.6815208,
      "direccion": null,
      "codigo_postal": null,
      "telefono": null,
      "web": null,
      "instagram": null,
      "horario": null,
      "terraza": false
    },
    {
      "id": "osm_node_313411014",
      "nombre": "Mack's Bar",
      "tipo": "bar",
      "lat": 28.0528459,
      "lon": -16.7275514,
      "direccion": null,
      "codigo_postal": null,
      "telefono": null,
      "web": null,
      "instagram": null,
      "horario": null,
      "terraza": false
    },
    {
      "id": "osm_node_313482473",
      "nombre": "Jags",
      "tipo": "cafe",
      "lat": 28.0609037,
      "lon": -16.7331442,
      "direccion": null,
      "codigo_postal": null,
      "telefono": null,
      "web": null,
      "instagram": null,
      "horario": null,
      "terraza": false
    },
    {
      "id": "osm_node_313482534",
      "nombre": "Waikiki Beach Cocktail Bar",
      "tipo": "bar",
      "lat": 28.0735646,
      "lon": -16.7331008,
      "direccion": null,
      "codigo_postal": null,
      "telefono": null,
      "web": null,
      "instagram": null,
      "horario": null,
      "terraza": true
    },
    {
      "id": "osm_node_313503701",
      "nombre": "St. Eugen's",
      "tipo": "bar",
      "lat": 28.07832,
      "lon": -16.7323905,
      "direccion": null,
      "codigo_postal": null,
      "telefono": "+34 618 23 69 50",
      "web": null,
      "instagram": null,
      "horario": null,
      "terraza": true
    },
    {
      "id": "osm_node_313503847",
      "nombre": "Sunset View",
      "tipo": "bar",
      "lat": 28.0795357,
      "lon": -16.7349025,
      "direccion": null,
      "codigo_postal": null,
      "telefono": null,
      "web": null,
      "instagram": null,
      "horario": null,
      "terraza": false
    },
    {
      "id": "osm_node_313503916",
      "nombre": "Moonlight Fun Pub",
      "tipo": "pub",
      "lat": 28.0834141,
      "lon": -16.7352265,
      "direccion": null,
      "codigo_postal": null,
      "telefono": null,
      "web": null,
      "instagram": null,
      "horario": null,
      "terraza": false
    },
    {
      "id": "osm_node_313682158",
      "nombre": "The Horseshoe",
      "tipo": "pub",
      "lat": 28.1220708,
      "lon": -16.7738875,
      "direccion": null,
      "codigo_postal": null,
      "telefono": null,
      "web": null,
      "instagram": null,
      "horario": null,
      "terraza": false
    },
    {
      "id": "osm_node_313776248",
      "nombre": "Los Agaves",
      "tipo": "cafe",
      "lat": 28.0702504,
      "lon": -16.7286709,
      "direccion": null,
      "codigo_postal": null,
      "telefono": null,
      "web": null,
      "instagram": null,
      "horario": null,
      "terraza": false
    },
    {
      "id": "osm_node_313777346",
      "nombre": "Yorkshire Owl",
      "tipo": "pub",
      "lat": 28.0724214,
      "lon": -16.7299852,
      "direccion": null,
      "codigo_postal": null,
      "telefono": null,
      "web": null,
      "instagram": null,
      "horario": null,
      "terraza": false
    },
    {
      "id": "osm_node_313911423",
      "nombre": "El Solecito",
      "tipo": "cafe",
      "lat": 28.2273754,
      "lon": -16.8398343,
      "direccion": null,
      "codigo_postal": null,
      "telefono": null,
      "web": null,
      "instagram": null,
      "horario": "Mo-Sa 09:00-01:00",
      "terraza": false
    },
    {
      "id": "osm_node_314216800",
      "nombre": "Monkey Beach Club",
      "tipo": "cafe",
      "lat": 28.0689449,
      "lon": -16.7326389,
      "direccion": null,
      "codigo_postal": null,
      "telefono": null,
      "web": null,
      "instagram": null,
      "horario": null,
      "terraza": false
    },
    {
      "id": "osm_node_317814069",
      "nombre": "Lucía... Cosas de Verdad",
      "tipo": "cafe",
      "lat": 28.1791501,
      "lon": -17.2664708,
      "direccion": null,
      "codigo_postal": null,
      "telefono": null,
      "web": null,
      "instagram": null,
      "horario": "Tu-Sa 10:30-14:00,17:00-20:00",
      "terraza": true
    },
    {
      "id": "osm_node_318421710",
      "nombre": "Taverna Marinera Blue Marlin",
      "tipo": "pub",
      "lat": 28.0910275,
      "lon": -17.1097608,
      "direccion": null,
      "codigo_postal": null,
      "telefono": null,
      "web": null,
      "instagram": null,
      "horario": null,
      "terraza": false
    },
    {
      "id": "osm_node_318614927",
      "nombre": "Mesa",
      "tipo": "bar",
      "lat": 28.1799034,
      "lon": -16.8033824,
      "direccion": null,
      "codigo_postal": null,
      "telefono": null,
      "web": null,
      "instagram": null,
      "horario": null,
      "terraza": false
    },
    {
      "id": "osm_node_318615077",
      "nombre": "Bolero Moca Bar",
      "tipo": "bar",
      "lat": 28.1804399,
      "lon": -16.7901124,
      "direccion": null,
      "codigo_postal": null,
      "telefono": null,
      "web": null,
      "instagram": null,
      "horario": null,
      "terraza": false
    },
    {
      "id": "osm_node_318877442",
      "nombre": "Orinoco",
      "tipo": "pub",
      "lat": 28.0953131,
      "lon": -17.3430729,
      "direccion": null,
      "codigo_postal": null,
      "telefono": null,
      "web": null,
      "instagram": null,
      "horario": "We-Mo 12:00-11:00",
      "terraza": false
    },
    {
      "id": "osm_node_318877475",
      "nombre": "Rincón del Marinero",
      "tipo": "pub",
      "lat": 28.0824006,
      "lon": -17.3332001,
      "direccion": null,
      "codigo_postal": null,
      "telefono": null,
      "web": null,
      "instagram": null,
      "horario": null,
      "terraza": false
    },
    {
      "id": "osm_node_319070863",
      "nombre": "La Chalana",
      "tipo": "pub",
      "lat": 28.0297874,
      "lon": -17.194202,
      "direccion": null,
      "codigo_postal": null,
      "telefono": "+34 922 89 59 69",
      "web": null,
      "instagram": null,
      "horario": "Tu, We off",
      "terraza": false
    },
    {
      "id": "osm_node_319070882",
      "nombre": "Cafetería Rochila",
      "tipo": "cafe",
      "lat": 28.0291958,
      "lon": -17.1968854,
      "direccion": null,
      "codigo_postal": null,
      "telefono": null,
      "web": null,
      "instagram": null,
      "horario": null,
      "terraza": false
    },
    {
      "id": "osm_node_319254096",
      "nombre": "Bar Plaza",
      "tipo": "pub",
      "lat": 28.0954473,
      "lon": -17.3349992,
      "direccion": null,
      "codigo_postal": null,
      "telefono": null,
      "web": null,
      "instagram": null,
      "horario": null,
      "terraza": false
    },
    {
      "id": "osm_node_319563718",
      "nombre": "Dulceria El Tabaibal",
      "tipo": "cafe",
      "lat": 28.1658449,
      "lon": -17.1971398,
      "direccion": null,
      "codigo_postal": null,
      "telefono": null,
      "web": null,
      "instagram": null,
      "horario": null,
      "terraza": true
    },
    {
      "id": "osm_node_319563729",
      "nombre": "Los Amigos",
      "tipo": "pub",
      "lat": 28.1487936,
      "lon": -17.1992599,
      "direccion": null,
      "codigo_postal": null,
      "telefono": null,
      "web": null,
      "instagram": null,
      "horario": null,
      "terraza": false
    },
    {
      "id": "osm_node_319784054",
      "nombre": "Perdomo",
      "tipo": "bar",
      "lat": 28.1607506,
      "lon": -17.3220347,
      "direccion": null,
      "codigo_postal": null,
      "telefono": null,
      "web": null,
      "instagram": null,
      "horario": "Tu-Su 09:30-18:00",
      "terraza": false
    },
    {
      "id": "osm_node_323135101",
      "nombre": "Bar Restaurante Sonia",
      "tipo": "pub",
      "lat": 28.1095422,
      "lon": -17.2818367,
      "direccion": null,
      "codigo_postal": null,
      "telefono": null,
      "web": "https://www.chipude.es/",
      "instagram": null,
      "horario": null,
      "terraza": true
    },
    {
      "id": "osm_node_369716331",
      "nombre": "Bar Cafeteria El Recuerdo",
      "tipo": "bar",
      "lat": 28.7689705,
      "lon": -17.7612362,
      "direccion": null,
      "codigo_postal": null,
      "telefono": null,
      "web": null,
      "instagram": null,
      "horario": null,
      "terraza": false
    },
    {
      "id": "osm_node_372109718",
      "nombre": "Cacatua Bar",
      "tipo": "pub",
      "lat": 28.0830332,
      "lon": -17.3347467,
      "direccion": null,
      "codigo_postal": null,
      "telefono": null,
      "web": null,
      "instagram": null,
      "horario": "Mo-Su 21:00-02:00",
      "terraza": false
    },
    {
      "id": "osm_node_372111095",
      "nombre": "Café der anderen Art (Bistro)",
      "tipo": "cafe",
      "lat": 28.083458,
      "lon": -17.3344353,
      "direccion": "Calle Las Vueltas 21",
      "codigo_postal": "38870",
      "telefono": null,
      "web": null,
      "instagram": null,
      "horario": "Mo-We, Fr-Su 09:00-24:00; Th 13:00-24:00",
      "terraza": true
    },
    {
      "id": "osm_node_372111767",
      "nombre": "Cacatua Garden",
      "tipo": "cafe",
      "lat": 28.0829859,
      "lon": -17.3346166,
      "direccion": null,
      "codigo_postal": null,
      "telefono": null,
      "web": null,
      "instagram": null,
      "horario": "Mo-Fr 10:00-02:00; Sa 14:00-02:00",
      "terraza": false
    },
    {
      "id": "osm_node_382384578",
      "nombre": "Mar de Las Calmas",
      "tipo": "pub",
      "lat": 27.640677,
      "lon": -17.9816083,
      "direccion": null,
      "codigo_postal": null,
      "telefono": null,
      "web": null,
      "instagram": null,
      "horario": null,
      "terraza": false
    },
    {
      "id": "osm_node_382384587",
      "nombre": "Tasca Avenida",
      "tipo": "pub",
      "lat": 27.6406944,
      "lon": -17.9815502,
      "direccion": null,
      "codigo_postal": null,
      "telefono": null,
      "web": null,
      "instagram": null,
      "horario": null,
      "terraza": false
    },
    {
      "id": "osm_node_426907325",
      "nombre": "La Fuente",
      "tipo": "cafe",
      "lat": 28.3050796,
      "lon": -16.840028,
      "direccion": null,
      "codigo_postal": null,
      "telefono": null,
      "web": null,
      "instagram": null,
      "horario": null,
      "terraza": true
    },
    {
      "id": "osm_node_439289977",
      "nombre": "Alonso",
      "tipo": "bar",
      "lat": 28.5128681,
      "lon": -16.3060069,
      "direccion": null,
      "codigo_postal": null,
      "telefono": null,
      "web": null,
      "instagram": null,
      "horario": null,
      "terraza": false
    },
    {
      "id": "osm_node_439289985",
      "nombre": "Bomberos",
      "tipo": "bar",
      "lat": 28.5127526,
      "lon": -16.3059908,
      "direccion": null,
      "codigo_postal": null,
      "telefono": null,
      "web": null,
      "instagram": null,
      "horario": null,
      "terraza": false
    },
    {
      "id": "osm_node_440748691",
      "nombre": "Mazaroco",
      "tipo": "cafe",
      "lat": 28.4148326,
      "lon": -16.5530981,
      "direccion": "Calle Mazaroco 27",
      "codigo_postal": "38400",
      "telefono": "+34 922 37 28 51",
      "web": null,
      "instagram": null,
      "horario": null,
      "terraza": true
    },
    {
      "id": "osm_node_445408144",
      "nombre": "Bar Gran Torino",
      "tipo": "bar",
      "lat": 28.4152441,
      "lon": -16.5333064,
      "direccion": null,
      "codigo_postal": null,
      "telefono": null,
      "web": null,
      "instagram": null,
      "horario": null,
      "terraza": false
    },
    {
      "id": "osm_node_476749138",
      "nombre": "Tambara",
      "tipo": "pub",
      "lat": 28.0830773,
      "lon": -17.3351044,
      "direccion": "Calle La Ciuadadela 12",
      "codigo_postal": null,
      "telefono": null,
      "web": null,
      "instagram": null,
      "horario": "Mo-Sa 12:00-15:00,17:00-24:00; We off; Su 18:00-24:00",
      "terraza": true
    },
    {
      "id": "osm_node_477417866",
      "nombre": "Chicaria",
      "tipo": "bar",
      "lat": 28.0957989,
      "lon": -17.3428116,
      "direccion": null,
      "codigo_postal": null,
      "telefono": null,
      "web": null,
      "instagram": null,
      "horario": null,
      "terraza": false
    },
    {
      "id": "osm_node_479796452",
      "nombre": "Gomera Lounge",
      "tipo": "pub",
      "lat": 28.0949999,
      "lon": -17.3431196,
      "direccion": null,
      "codigo_postal": null,
      "telefono": null,
      "web": null,
      "instagram": null,
      "horario": null,
      "terraza": false
    },
    {
      "id": "osm_node_479796463",
      "nombre": "Heladería Zumería Gran Rey",
      "tipo": "cafe",
      "lat": 28.0952964,
      "lon": -17.3424249,
      "direccion": null,
      "codigo_postal": null,
      "telefono": null,
      "web": null,
      "instagram": null,
      "horario": null,
      "terraza": true
    },
    {
      "id": "osm_node_480959234",
      "nombre": "Bar Manolos Teguerguenche",
      "tipo": "pub",
      "lat": 28.0881216,
      "lon": -17.33888,
      "direccion": null,
      "codigo_postal": null,
      "telefono": null,
      "web": null,
      "instagram": null,
      "horario": null,
      "terraza": false
    },
    {
      "id": "osm_node_504739144",
      "nombre": "Banana Garden Bar",
      "tipo": "bar",
      "lat": 28.0681899,
      "lon": -16.732084,
      "direccion": null,
      "codigo_postal": null,
      "telefono": null,
      "web": null,
      "instagram": null,
      "horario": null,
      "terraza": false
    },
    {
      "id": "osm_node_504745279",
      "nombre": "Havanna Bar",
      "tipo": "bar",
      "lat": 28.0612243,
      "lon": -16.727508,
      "direccion": null,
      "codigo_postal": null,
      "telefono": null,
      "web": null,
      "instagram": null,
      "horario": null,
      "terraza": false
    },
    {
      "id": "osm_node_532082835",
      "nombre": "Mimi",
      "tipo": "cafe",
      "lat": 28.4146638,
      "lon": -16.5415346,
      "direccion": null,
      "codigo_postal": null,
      "telefono": null,
      "web": null,
      "instagram": null,
      "horario": "Tu-Su 11:00-18:00",
      "terraza": false
    },
    {
      "id": "osm_node_532107517",
      "nombre": "El Camino",
      "tipo": "bar",
      "lat": 28.4148562,
      "lon": -16.5433429,
      "direccion": null,
      "codigo_postal": null,
      "telefono": null,
      "web": null,
      "instagram": null,
      "horario": "Mo-Sa 08:00-22:00",
      "terraza": false
    },
    {
      "id": "osm_node_588146593",
      "nombre": "Guachinche",
      "tipo": "pub",
      "lat": 28.3413355,
      "lon": -16.433594,
      "direccion": null,
      "codigo_postal": null,
      "telefono": null,
      "web": null,
      "instagram": null,
      "horario": null,
      "terraza": false
    },
    {
      "id": "osm_node_596406392",
      "nombre": "Parque La Torre",
      "tipo": "cafe",
      "lat": 28.0909319,
      "lon": -17.1129523,
      "direccion": null,
      "codigo_postal": null,
      "telefono": null,
      "web": null,
      "instagram": null,
      "horario": null,
      "terraza": true
    },
    {
      "id": "osm_node_600548561",
      "nombre": "Bar Parada",
      "tipo": "bar",
      "lat": 28.4941374,
      "lon": -17.8452407,
      "direccion": null,
      "codigo_postal": null,
      "telefono": null,
      "web": null,
      "instagram": null,
      "horario": null,
      "terraza": false
    },
    {
      "id": "osm_node_620875763",
      "nombre": "Gekko-Bar",
      "tipo": "bar",
      "lat": 28.0959653,
      "lon": -17.3426822,
      "direccion": null,
      "codigo_postal": null,
      "telefono": null,
      "web": null,
      "instagram": null,
      "horario": null,
      "terraza": false
    },
    {
      "id": "osm_node_653301477",
      "nombre": "El Castillo",
      "tipo": "cafe",
      "lat": 28.653097,
      "lon": -17.911373,
      "direccion": "48",
      "codigo_postal": null,
      "telefono": null,
      "web": null,
      "instagram": null,
      "horario": null,
      "terraza": false
    },
    {
      "id": "osm_node_653312974",
      "nombre": "Elvis",
      "tipo": "cafe",
      "lat": 28.658949,
      "lon": -17.911435,
      "direccion": null,
      "codigo_postal": null,
      "telefono": null,
      "web": null,
      "instagram": null,
      "horario": "Mo-Sa 09:00-15:00",
      "terraza": false
    },
    {
      "id": "osm_node_668627909",
      "nombre": "Los Bailaderos",
      "tipo": "pub",
      "lat": 28.3435403,
      "lon": -16.8767621,
      "direccion": null,
      "codigo_postal": null,
      "telefono": null,
      "web": null,
      "instagram": null,
      "horario": null,
      "terraza": true
    },
    {
      "id": "osm_node_672548112",
      "nombre": "Bodegita del Medio",
      "tipo": "pub",
      "lat": 28.0854957,
      "lon": -17.3365883,
      "direccion": null,
      "codigo_postal": null,
      "telefono": null,
      "web": null,
      "instagram": null,
      "horario": "20:00-01:00",
      "terraza": false
    },
    {
      "id": "osm_node_672976897",
      "nombre": "La Candela",
      "tipo": "pub",
      "lat": 28.110022,
      "lon": -17.2820799,
      "direccion": null,
      "codigo_postal": null,
      "telefono": null,
      "web": null,
      "instagram": null,
      "horario": null,
      "terraza": false
    },
    {
      "id": "osm_node_675995483",
      "nombre": "Britannia Inn",
      "tipo": "pub",
      "lat": 28.1219258,
      "lon": -16.7741222,
      "direccion": null,
      "codigo_postal": null,
      "telefono": null,
      "web": null,
      "instagram": null,
      "horario": null,
      "terraza": false
    },
    {
      "id": "osm_node_678916661",
      "nombre": "Bar AAVV Las Nieves",
      "tipo": "pub",
      "lat": 28.5612932,
      "lon": -16.2170041,
      "direccion": null,
      "codigo_postal": null,
      "telefono": null,
      "web": null,
      "instagram": null,
      "horario": null,
      "terraza": false
    },
    {
      "id": "osm_node_679481044",
      "nombre": "Walhalla",
      "tipo": "bar",
      "lat": 28.4151359,
      "lon": -16.5534657,
      "direccion": null,
      "codigo_postal": null,
      "telefono": null,
      "web": null,
      "instagram": null,
      "horario": null,
      "terraza": false
    },
    {
      "id": "osm_node_687637344",
      "nombre": "Barraca",
      "tipo": "pub",
      "lat": 28.7658496,
      "lon": -17.9801071,
      "direccion": "Pino de la Virgen 1",
      "codigo_postal": null,
      "telefono": null,
      "web": null,
      "instagram": null,
      "horario": "Mo-Th 07:30-00:00; Fr 07:30-02:00; Sa 09:00-02:00; Su 16:00-23:00",
      "terraza": false
    },
    {
      "id": "osm_node_687637350",
      "nombre": "Itaca",
      "tipo": "cafe",
      "lat": 28.7666841,
      "lon": -17.9792583,
      "direccion": null,
      "codigo_postal": null,
      "telefono": null,
      "web": null,
      "instagram": null,
      "horario": null,
      "terraza": false
    },
    {
      "id": "osm_node_687642990",
      "nombre": "4 Caminos",
      "tipo": "pub",
      "lat": 28.7738834,
      "lon": -17.9782308,
      "direccion": null,
      "codigo_postal": null,
      "telefono": null,
      "web": null,
      "instagram": null,
      "horario": null,
      "terraza": false
    },
    {
      "id": "osm_node_687681672",
      "nombre": "Bar Garome",
      "tipo": "pub",
      "lat": 28.7448278,
      "lon": -17.9685826,
      "direccion": null,
      "codigo_postal": null,
      "telefono": null,
      "web": null,
      "instagram": null,
      "horario": null,
      "terraza": true
    },
    {
      "id": "osm_node_689484910",
      "nombre": "Kiosco El Diablo",
      "tipo": "pub",
      "lat": 28.7112728,
      "lon": -17.9561447,
      "direccion": null,
      "codigo_postal": null,
      "telefono": null,
      "web": null,
      "instagram": null,
      "horario": null,
      "terraza": true
    },
    {
      "id": "osm_node_689485017",
      "nombre": "Glorymar",
      "tipo": "cafe",
      "lat": 28.7114682,
      "lon": -17.9555592,
      "direccion": null,
      "codigo_postal": null,
      "telefono": null,
      "web": null,
      "instagram": null,
      "horario": null,
      "terraza": false
    },
    {
      "id": "osm_node_690909449",
      "nombre": "Café El Time",
      "tipo": "cafe",
      "lat": 28.6634403,
      "lon": -17.9424755,
      "direccion": null,
      "codigo_postal": null,
      "telefono": null,
      "web": null,
      "instagram": null,
      "horario": "Tu-Su 09:00-20:00",
      "terraza": false
    },
    {
      "id": "osm_node_697135573",
      "nombre": "Churrería Isidro",
      "tipo": "biergarten",
      "lat": 28.6603618,
      "lon": -17.9138555,
      "direccion": null,
      "codigo_postal": null,
      "telefono": null,
      "web": null,
      "instagram": null,
      "horario": null,
      "terraza": true
    },
    {
      "id": "osm_node_697147023",
      "nombre": "Kiosco Aridane",
      "tipo": "pub",
      "lat": 28.6587824,
      "lon": -17.9126702,
      "direccion": null,
      "codigo_postal": null,
      "telefono": null,
      "web": null,
      "instagram": null,
      "horario": null,
      "terraza": false
    },
    {
      "id": "osm_node_700390259",
      "nombre": "Sputnik",
      "tipo": "pub",
      "lat": 28.682048,
      "lon": -17.7650628,
      "direccion": null,
      "codigo_postal": null,
      "telefono": null,
      "web": null,
      "instagram": null,
      "horario": null,
      "terraza": false
    },
    {
      "id": "osm_node_702681484",
      "nombre": "Bar Bagañete",
      "tipo": "pub",
      "lat": 28.6406774,
      "lon": -17.9338959,
      "direccion": "Calle Progreso 17",
      "codigo_postal": null,
      "telefono": null,
      "web": null,
      "instagram": null,
      "horario": null,
      "terraza": true
    },
    {
      "id": "osm_node_702746862",
      "nombre": "Bar La Vica",
      "tipo": "pub",
      "lat": 28.644275,
      "lon": -17.9336574,
      "direccion": null,
      "codigo_postal": null,
      "telefono": null,
      "web": null,
      "instagram": null,
      "horario": null,
      "terraza": true
    },
    {
      "id": "osm_node_702921103",
      "nombre": "Bar La Calzada",
      "tipo": "pub",
      "lat": 28.6063135,
      "lon": -17.7781647,
      "direccion": null,
      "codigo_postal": null,
      "telefono": null,
      "web": null,
      "instagram": null,
      "horario": null,
      "terraza": false
    },
    {
      "id": "osm_node_702960525",
      "nombre": "Cafeteria Vidasol",
      "tipo": "cafe",
      "lat": 28.6878477,
      "lon": -17.7643872,
      "direccion": null,
      "codigo_postal": null,
      "telefono": null,
      "web": null,
      "instagram": null,
      "horario": null,
      "terraza": false
    },
    {
      "id": "osm_node_703783036",
      "nombre": "Taberna Santi",
      "tipo": "pub",
      "lat": 28.8296741,
      "lon": -17.9461272,
      "direccion": null,
      "codigo_postal": null,
      "telefono": null,
      "web": null,
      "instagram": null,
      "horario": null,
      "terraza": true
    },
    {
      "id": "osm_node_703783074",
      "nombre": "Cafetería Bar La Plaza",
      "tipo": "cafe",
      "lat": 28.8306369,
      "lon": -17.9444152,
      "direccion": null,
      "codigo_postal": null,
      "telefono": null,
      "web": null,
      "instagram": null,
      "horario": null,
      "terraza": true
    },
    {
      "id": "osm_node_704796736",
      "nombre": "Autobar Fe y Alegría",
      "tipo": "pub",
      "lat": 28.6782877,
      "lon": -17.9441088,
      "direccion": null,
      "codigo_postal": null,
      "telefono": null,
      "web": null,
      "instagram": null,
      "horario": null,
      "terraza": true
    },
    {
      "id": "osm_node_706724325",
      "nombre": "El Colombiano",
      "tipo": "cafe",
      "lat": 28.6589161,
      "lon": -17.9145179,
      "direccion": null,
      "codigo_postal": null,
      "telefono": null,
      "web": null,
      "instagram": null,
      "horario": null,
      "terraza": false
    },
    {
      "id": "osm_node_706737761",
      "nombre": "Bar Pol",
      "tipo": "pub",
      "lat": 28.6596815,
      "lon": -17.9170131,
      "direccion": null,
      "codigo_postal": null,
      "telefono": null,
      "web": null,
      "instagram": null,
      "horario": null,
      "terraza": false
    },
    {
      "id": "osm_node_771664584",
      "nombre": "Berto",
      "tipo": "bar",
      "lat": 28.225718,
      "lon": -16.8343185,
      "direccion": null,
      "codigo_postal": null,
      "telefono": null,
      "web": null,
      "instagram": null,
      "horario": null,
      "terraza": false
    },
    {
      "id": "osm_node_886087764",
      "nombre": "Stallones",
      "tipo": "bar",
      "lat": 28.4118702,
      "lon": -16.556793,
      "direccion": null,
      "codigo_postal": null,
      "telefono": null,
      "web": null,
      "instagram": null,
      "horario": null,
      "terraza": false
    },
    {
      "id": "osm_node_886087954",
      "nombre": "Cellino",
      "tipo": "bar",
      "lat": 28.4167622,
      "lon": -16.5452749,
      "direccion": null,
      "codigo_postal": null,
      "telefono": null,
      "web": null,
      "instagram": null,
      "horario": null,
      "terraza": false
    },
    {
      "id": "osm_node_886088049",
      "nombre": "Enlame",
      "tipo": "bar",
      "lat": 28.4168574,
      "lon": -16.5465412,
      "direccion": null,
      "codigo_postal": null,
      "telefono": null,
      "web": null,
      "instagram": null,
      "horario": null,
      "terraza": false
    },
    {
      "id": "osm_node_886088078",
      "nombre": "Jamaica",
      "tipo": "bar",
      "lat": 28.4131078,
      "lon": -16.5570407,
      "direccion": null,
      "codigo_postal": null,
      "telefono": null,
      "web": null,
      "instagram": null,
      "horario": null,
      "terraza": false
    },
    {
      "id": "osm_node_886088206",
      "nombre": "Ébano Café",
      "tipo": "cafe",
      "lat": 28.4166829,
      "lon": -16.5482732,
      "direccion": null,
      "codigo_postal": null,
      "telefono": null,
      "web": null,
      "instagram": null,
      "horario": null,
      "terraza": true
    },
    {
      "id": "osm_node_886088420",
      "nombre": "Los Principes",
      "tipo": "cafe",
      "lat": 28.4166907,
      "lon": -16.5501916,
      "direccion": null,
      "codigo_postal": null,
      "telefono": null,
      "web": null,
      "instagram": null,
      "horario": null,
      "terraza": false
    },
    {
      "id": "osm_node_886088596",
      "nombre": "Penny",
      "tipo": "pub",
      "lat": 28.4167726,
      "lon": -16.5463872,
      "direccion": null,
      "codigo_postal": null,
      "telefono": null,
      "web": null,
      "instagram": null,
      "horario": null,
      "terraza": false
    },
    {
      "id": "osm_node_886088946",
      "nombre": "Iris",
      "tipo": "cafe",
      "lat": 28.4141657,
      "lon": -16.5550006,
      "direccion": "Calle El Pozo",
      "codigo_postal": null,
      "telefono": null,
      "web": null,
      "instagram": null,
      "horario": null,
      "terraza": false
    },
    {
      "id": "osm_node_886089201",
      "nombre": "Same 1",
      "tipo": "bar",
      "lat": 28.4137646,
      "lon": -16.5566425,
      "direccion": null,
      "codigo_postal": null,
      "telefono": null,
      "web": null,
      "instagram": null,
      "horario": null,
      "terraza": false
    },
    {
      "id": "osm_node_886089244",
      "nombre": "Berlin",
      "tipo": "cafe",
      "lat": 28.4180199,
      "lon": -16.5435761,
      "direccion": "Avenida Venezuela 11",
      "codigo_postal": "38400",
      "telefono": null,
      "web": null,
      "instagram": null,
      "horario": null,
      "terraza": false
    },
    {
      "id": "osm_node_886089350",
      "nombre": "Tambora",
      "tipo": "bar",
      "lat": 28.4167053,
      "lon": -16.5465424,
      "direccion": null,
      "codigo_postal": null,
      "telefono": null,
      "web": null,
      "instagram": null,
      "horario": null,
      "terraza": false
    },
    {
      "id": "osm_node_886089411",
      "nombre": "Seguro del Sol",
      "tipo": "bar",
      "lat": 28.4125977,
      "lon": -16.5556396,
      "direccion": null,
      "codigo_postal": null,
      "telefono": null,
      "web": null,
      "instagram": null,
      "horario": null,
      "terraza": false
    },
    {
      "id": "osm_node_886089513",
      "nombre": "Magec Kopas",
      "tipo": "bar",
      "lat": 28.4143678,
      "lon": -16.5521244,
      "direccion": null,
      "codigo_postal": null,
      "telefono": null,
      "web": null,
      "instagram": null,
      "horario": null,
      "terraza": false
    },
    {
      "id": "osm_node_886089637",
      "nombre": "Nuevo Robin Hood",
      "tipo": "pub",
      "lat": 28.4149442,
      "lon": -16.5474903,
      "direccion": "Calle Valois",
      "codigo_postal": "38400",
      "telefono": null,
      "web": null,
      "instagram": null,
      "horario": null,
      "terraza": false
    },
    {
      "id": "osm_node_886089660",
      "nombre": "Garapa",
      "tipo": "pub",
      "lat": 28.4137334,
      "lon": -16.539104,
      "direccion": null,
      "codigo_postal": null,
      "telefono": null,
      "web": null,
      "instagram": null,
      "horario": null,
      "terraza": false
    },
    {
      "id": "osm_node_886089753",
      "nombre": "Yuss",
      "tipo": "bar",
      "lat": 28.4161222,
      "lon": -16.545961,
      "direccion": null,
      "codigo_postal": null,
      "telefono": null,
      "web": null,
      "instagram": null,
      "horario": null,
      "terraza": false
    },
    {
      "id": "osm_node_886089811",
      "nombre": "El Güiro",
      "tipo": "pub",
      "lat": 28.4169353,
      "lon": -16.5463108,
      "direccion": null,
      "codigo_postal": null,
      "telefono": null,
      "web": null,
      "instagram": null,
      "horario": null,
      "terraza": false
    },
    {
      "id": "osm_node_886089812",
      "nombre": "Lito",
      "tipo": "cafe",
      "lat": 28.4172062,
      "lon": -16.5482332,
      "direccion": null,
      "codigo_postal": null,
      "telefono": null,
      "web": null,
      "instagram": null,
      "horario": null,
      "terraza": false
    },
    {
      "id": "osm_node_886089842",
      "nombre": "Manilu",
      "tipo": "cafe",
      "lat": 28.4117732,
      "lon": -16.5588368,
      "direccion": null,
      "codigo_postal": null,
      "telefono": null,
      "web": null,
      "instagram": null,
      "horario": null,
      "terraza": false
    },
    {
      "id": "osm_node_886089869",
      "nombre": "Bar Habasko - The hidden Bar",
      "tipo": "bar",
      "lat": 28.4162575,
      "lon": -16.5451906,
      "direccion": "Avenida de la Familia Betancourt y Molina 15",
      "codigo_postal": "38400",
      "telefono": "+34 692 373 119",
      "web": "https://www.bar-habasko.es",
      "instagram": null,
      "horario": "Mo-Sa 17:00-00:00",
      "terraza": true
    },
    {
      "id": "osm_node_886089894",
      "nombre": "Paraiso",
      "tipo": "cafe",
      "lat": 28.4138098,
      "lon": -16.5531649,
      "direccion": null,
      "codigo_postal": null,
      "telefono": null,
      "web": null,
      "instagram": null,
      "horario": null,
      "terraza": false
    },
    {
      "id": "osm_node_886089896",
      "nombre": "El Deseo",
      "tipo": "cafe",
      "lat": 28.4155023,
      "lon": -16.5468061,
      "direccion": null,
      "codigo_postal": null,
      "telefono": null,
      "web": null,
      "instagram": null,
      "horario": null,
      "terraza": false
    },
    {
      "id": "osm_node_886089909",
      "nombre": "El Drago",
      "tipo": "bar",
      "lat": 28.4157345,
      "lon": -16.5529627,
      "direccion": null,
      "codigo_postal": null,
      "telefono": null,
      "web": null,
      "instagram": null,
      "horario": "12:00-00:00",
      "terraza": true
    },
    {
      "id": "osm_node_886089923",
      "nombre": "Same II",
      "tipo": "bar",
      "lat": 28.4119853,
      "lon": -16.5569191,
      "direccion": null,
      "codigo_postal": null,
      "telefono": null,
      "web": null,
      "instagram": null,
      "horario": null,
      "terraza": false
    },
    {
      "id": "osm_node_886090052",
      "nombre": "Kari",
      "tipo": "bar",
      "lat": 28.4119271,
      "lon": -16.5569328,
      "direccion": null,
      "codigo_postal": null,
      "telefono": null,
      "web": null,
      "instagram": null,
      "horario": null,
      "terraza": false
    },
    {
      "id": "osm_node_886090153",
      "nombre": "DegustaMe",
      "tipo": "pub",
      "lat": 28.4152329,
      "lon": -16.5458474,
      "direccion": null,
      "codigo_postal": null,
      "telefono": null,
      "web": null,
      "instagram": null,
      "horario": null,
      "terraza": false
    },
    {
      "id": "osm_node_886090236",
      "nombre": "La Colmena",
      "tipo": "pub",
      "lat": 28.4168729,
      "lon": -16.5464929,
      "direccion": null,
      "codigo_postal": null,
      "telefono": null,
      "web": null,
      "instagram": null,
      "horario": null,
      "terraza": false
    },
    {
      "id": "osm_node_886090354",
      "nombre": "Onesimo",
      "tipo": "bar",
      "lat": 28.4162585,
      "lon": -16.5459436,
      "direccion": null,
      "codigo_postal": null,
      "telefono": null,
      "web": null,
      "instagram": null,
      "horario": null,
      "terraza": false
    },
    {
      "id": "osm_node_886090565",
      "nombre": "Happy Cafe",
      "tipo": "cafe",
      "lat": 28.4150468,
      "lon": -16.5526659,
      "direccion": null,
      "codigo_postal": null,
      "telefono": null,
      "web": null,
      "instagram": null,
      "horario": null,
      "terraza": true
    },
    {
      "id": "osm_node_886090623",
      "nombre": "Daver's",
      "tipo": "cafe",
      "lat": 28.4130329,
      "lon": -16.5429177,
      "direccion": "Avenida Marqués de Villanueva del Prado 2",
      "codigo_postal": "38400",
      "telefono": "+34 922 37 46 26",
      "web": null,
      "instagram": null,
      "horario": null,
      "terraza": false
    },
    {
      "id": "osm_node_886090702",
      "nombre": "Rick's",
      "tipo": "cafe",
      "lat": 28.4130921,
      "lon": -16.5427535,
      "direccion": null,
      "codigo_postal": null,
      "telefono": null,
      "web": null,
      "instagram": null,
      "horario": null,
      "terraza": false
    },
    {
      "id": "osm_node_886102710",
      "nombre": "Royal",
      "tipo": "cafe",
      "lat": 28.4164288,
      "lon": -16.5446705,
      "direccion": null,
      "codigo_postal": null,
      "telefono": null,
      "web": null,
      "instagram": null,
      "horario": null,
      "terraza": false
    },
    {
      "id": "osm_node_886102929",
      "nombre": "Cosmopolita",
      "tipo": "cafe",
      "lat": 28.4163505,
      "lon": -16.5448798,
      "direccion": null,
      "codigo_postal": null,
      "telefono": null,
      "web": null,
      "instagram": null,
      "horario": null,
      "terraza": true
    },
    {
      "id": "osm_node_886102972",
      "nombre": "Intermezzo",
      "tipo": "cafe",
      "lat": 28.4150074,
      "lon": -16.5390238,
      "direccion": "Calle Canstaño 3",
      "codigo_postal": null,
      "telefono": "+34 922 37 44 63",
      "web": null,
      "instagram": null,
      "horario": null,
      "terraza": false
    },
    {
      "id": "osm_node_886103043",
      "nombre": "El Secreto",
      "tipo": "cafe",
      "lat": 28.4129083,
      "lon": -16.5541152,
      "direccion": null,
      "codigo_postal": null,
      "telefono": null,
      "web": null,
      "instagram": null,
      "horario": null,
      "terraza": false
    },
    {
      "id": "osm_node_886103068",
      "nombre": "En el Lugar de Siempre",
      "tipo": "bar",
      "lat": 28.4157454,
      "lon": -16.5528932,
      "direccion": null,
      "codigo_postal": null,
      "telefono": null,
      "web": null,
      "instagram": null,
      "horario": null,
      "terraza": true
    },
    {
      "id": "osm_node_886103097",
      "nombre": "Kefran",
      "tipo": "bar",
      "lat": 28.4139064,
      "lon": -16.5530295,
      "direccion": null,
      "codigo_postal": null,
      "telefono": null,
      "web": null,
      "instagram": null,
      "horario": null,
      "terraza": false
    },
    {
      "id": "osm_node_886103121",
      "nombre": "Terraza Alta",
      "tipo": "bar",
      "lat": 28.4163976,
      "lon": -16.5431069,
      "direccion": null,
      "codigo_postal": null,
      "telefono": null,
      "web": null,
      "instagram": null,
      "horario": null,
      "terraza": false
    },
    {
      "id": "osm_node_886103168",
      "nombre": "Elements",
      "tipo": "bar",
      "lat": 28.4175932,
      "lon": -16.5530787,
      "direccion": null,
      "codigo_postal": null,
      "telefono": null,
      "web": null,
      "instagram": null,
      "horario": "We-Sa 19:00-01:00",
      "terraza": false
    },
    {
      "id": "osm_node_886103242",
      "nombre": "Reilupeli",
      "tipo": "bar",
      "lat": 28.4134008,
      "lon": -16.5554668,
      "direccion": null,
      "codigo_postal": null,
      "telefono": null,
      "web": null,
      "instagram": null,
      "horario": null,
      "terraza": false
    },
    {
      "id": "osm_node_886103250",
      "nombre": "Pepito",
      "tipo": "bar",
      "lat": 28.4147873,
      "lon": -16.538973,
      "direccion": null,
      "codigo_postal": null,
      "telefono": null,
      "web": null,
      "instagram": null,
      "horario": null,
      "terraza": false
    },
    {
      "id": "osm_node_886103293",
      "nombre": "Lava",
      "tipo": "pub",
      "lat": 28.4132148,
      "lon": -16.5417657,
      "direccion": null,
      "codigo_postal": null,
      "telefono": null,
      "web": null,
      "instagram": null,
      "horario": null,
      "terraza": false
    },
    {
      "id": "osm_node_899295875",
      "nombre": "Anaga 21",
      "tipo": "cafe",
      "lat": 28.471673,
      "lon": -16.2473681,
      "direccion": null,
      "codigo_postal": null,
      "telefono": null,
      "web": null,
      "instagram": null,
      "horario": null,
      "terraza": false
    },
    {
      "id": "osm_node_899295894",
      "nombre": "Anaga 15",
      "tipo": "pub",
      "lat": 28.4708961,
      "lon": -16.2474974,
      "direccion": null,
      "codigo_postal": null,
      "telefono": null,
      "web": null,
      "instagram": null,
      "horario": null,
      "terraza": false
    },
    {
      "id": "osm_node_899307680",
      "nombre": "Viet-Nam Anaga",
      "tipo": "cafe",
      "lat": 28.4780568,
      "lon": -16.2443289,
      "direccion": null,
      "codigo_postal": null,
      "telefono": null,
      "web": null,
      "instagram": null,
      "horario": null,
      "terraza": false
    },
    {
      "id": "osm_node_901085751",
      "nombre": "The Fat Ladies (at Sandra's Cafe)",
      "tipo": "cafe",
      "lat": 28.4152121,
      "lon": -16.5378612,
      "direccion": null,
      "codigo_postal": null,
      "telefono": null,
      "web": null,
      "instagram": null,
      "horario": null,
      "terraza": false
    },
    {
      "id": "osm_node_901085824",
      "nombre": "Los Rechazos",
      "tipo": "bar",
      "lat": 28.4049976,
      "lon": -16.5215117,
      "direccion": null,
      "codigo_postal": null,
      "telefono": null,
      "web": null,
      "instagram": null,
      "horario": null,
      "terraza": false
    },
    {
      "id": "osm_node_901085903",
      "nombre": "La Estación",
      "tipo": "bar",
      "lat": 28.0451885,
      "lon": -16.5371096,
      "direccion": "Calle Granadilla 5",
      "codigo_postal": null,
      "telefono": null,
      "web": null,
      "instagram": null,
      "horario": "Mo-Th 08:30-23:00; Fr-Su 08:30-23:30",
      "terraza": false
    },
    {
      "id": "osm_node_901086080",
      "nombre": "Trasmallo",
      "tipo": "cafe",
      "lat": 28.3721129,
      "lon": -16.7811996,
      "direccion": null,
      "codigo_postal": null,
      "telefono": "+34 922 13 33 63",
      "web": null,
      "instagram": null,
      "horario": null,
      "terraza": false
    },
    {
      "id": "osm_node_903016495",
      "nombre": "La estrella",
      "tipo": "cafe",
      "lat": 28.4101965,
      "lon": -16.5654906,
      "direccion": null,
      "codigo_postal": null,
      "telefono": null,
      "web": null,
      "instagram": null,
      "horario": null,
      "terraza": true
    },
    {
      "id": "osm_node_903017265",
      "nombre": "Motu Nui",
      "tipo": "cafe",
      "lat": 28.0454636,
      "lon": -16.5366709,
      "direccion": null,
      "codigo_postal": null,
      "telefono": null,
      "web": null,
      "instagram": null,
      "horario": "Mo-Su 08:00-19:30",
      "terraza": false
    },
    {
      "id": "osm_node_903036629",
      "nombre": "Mencey",
      "tipo": "bar",
      "lat": 28.2704756,
      "lon": -16.8172135,
      "direccion": null,
      "codigo_postal": null,
      "telefono": null,
      "web": null,
      "instagram": null,
      "horario": null,
      "terraza": false
    },
    {
      "id": "osm_node_903036660",
      "nombre": "La Barca",
      "tipo": "bar",
      "lat": 28.3974755,
      "lon": -16.5780469,
      "direccion": null,
      "codigo_postal": null,
      "telefono": null,
      "web": null,
      "instagram": null,
      "horario": null,
      "terraza": false
    },
    {
      "id": "osm_node_903036723",
      "nombre": "M-M",
      "tipo": "cafe",
      "lat": 28.4014536,
      "lon": -16.5499999,
      "direccion": null,
      "codigo_postal": null,
      "telefono": null,
      "web": null,
      "instagram": null,
      "horario": null,
      "terraza": false
    },
    {
      "id": "osm_node_903036730",
      "nombre": "La Bodega",
      "tipo": "cafe",
      "lat": 28.1278484,
      "lon": -16.7828114,
      "direccion": null,
      "codigo_postal": null,
      "telefono": null,
      "web": null,
      "instagram": null,
      "horario": null,
      "terraza": false
    },
    {
      "id": "osm_node_903036789",
      "nombre": "Cervecería City",
      "tipo": "bar",
      "lat": 28.4147784,
      "lon": -16.5380933,
      "direccion": null,
      "codigo_postal": null,
      "telefono": null,
      "web": null,
      "instagram": null,
      "horario": null,
      "terraza": false
    },
    {
      "id": "osm_node_903036815",
      "nombre": "Triana",
      "tipo": "bar",
      "lat": 28.3696789,
      "lon": -16.8531294,
      "direccion": null,
      "codigo_postal": null,
      "telefono": null,
      "web": null,
      "instagram": null,
      "horario": null,
      "terraza": false
    },
    {
      "id": "osm_node_903036850",
      "nombre": "Isaac",
      "tipo": "bar",
      "lat": 28.5141664,
      "lon": -16.304676,
      "direccion": null,
      "codigo_postal": null,
      "telefono": null,
      "web": null,
      "instagram": null,
      "horario": null,
      "terraza": false
    },
    {
      "id": "osm_node_903036862",
      "nombre": "Casa Africa",
      "tipo": "bar",
      "lat": 28.5694629,
      "lon": -16.2042848,
      "direccion": null,
      "codigo_postal": null,
      "telefono": null,
      "web": null,
      "instagram": null,
      "horario": null,
      "terraza": false
    },
    {
      "id": "osm_node_903036869",
      "nombre": "Merche",
      "tipo": "cafe",
      "lat": 28.0996023,
      "lon": -16.6168647,
      "direccion": null,
      "codigo_postal": null,
      "telefono": null,
      "web": null,
      "instagram": null,
      "horario": null,
      "terraza": false
    },
    {
      "id": "osm_node_903036922",
      "nombre": "Punta Brava",
      "tipo": "bar",
      "lat": 28.4092654,
      "lon": -16.5667987,
      "direccion": null,
      "codigo_postal": null,
      "telefono": null,
      "web": null,
      "instagram": null,
      "horario": null,
      "terraza": false
    },
    {
      "id": "osm_node_903036945",
      "nombre": "Cafetería Mario",
      "tipo": "cafe",
      "lat": 28.3557019,
      "lon": -16.3709464,
      "direccion": null,
      "codigo_postal": null,
      "telefono": null,
      "web": null,
      "instagram": null,
      "horario": null,
      "terraza": false
    },
    {
      "id": "osm_node_903036988",
      "nombre": "Bei Thomas",
      "tipo": "pub",
      "lat": 28.4151111,
      "lon": -16.5381994,
      "direccion": null,
      "codigo_postal": null,
      "telefono": null,
      "web": null,
      "instagram": null,
      "horario": null,
      "terraza": false
    },
    {
      "id": "osm_node_903037049",
      "nombre": "Amazona",
      "tipo": "bar",
      "lat": 28.3622915,
      "lon": -16.7178359,
      "direccion": null,
      "codigo_postal": null,
      "telefono": null,
      "web": null,
      "instagram": null,
      "horario": null,
      "terraza": false
    },
    {
      "id": "osm_node_903037054",
      "nombre": "El Cruce",
      "tipo": "bar",
      "lat": 28.327136,
      "lon": -16.8446498,
      "direccion": null,
      "codigo_postal": null,
      "telefono": null,
      "web": null,
      "instagram": null,
      "horario": null,
      "terraza": false
    },
    {
      "id": "osm_node_903037060",
      "nombre": "Himar",
      "tipo": "cafe",
      "lat": 28.0763985,
      "lon": -16.5568007,
      "direccion": null,
      "codigo_postal": null,
      "telefono": null,
      "web": null,
      "instagram": null,
      "horario": null,
      "terraza": false
    },
    {
      "id": "osm_node_903037104",
      "nombre": "San José",
      "tipo": "bar",
      "lat": 28.4560962,
      "lon": -16.3614859,
      "direccion": null,
      "codigo_postal": null,
      "telefono": null,
      "web": null,
      "instagram": null,
      "horario": null,
      "terraza": false
    },
    {
      "id": "osm_node_903037112",
      "nombre": "Los Chicos del Valle",
      "tipo": "bar",
      "lat": 28.3921778,
      "lon": -16.5218857,
      "direccion": null,
      "codigo_postal": null,
      "telefono": null,
      "web": null,
      "instagram": null,
      "horario": null,
      "terraza": false
    },
    {
      "id": "osm_node_903037121",
      "nombre": "Caseral",
      "tipo": "cafe",
      "lat": 28.4030313,
      "lon": -16.5492926,
      "direccion": null,
      "codigo_postal": null,
      "telefono": null,
      "web": null,
      "instagram": null,
      "horario": null,
      "terraza": false
    },
    {
      "id": "osm_node_903037141",
      "nombre": "Oasis",
      "tipo": "bar",
      "lat": 28.4864391,
      "lon": -16.2371588,
      "direccion": "3",
      "codigo_postal": null,
      "telefono": null,
      "web": null,
      "instagram": null,
      "horario": null,
      "terraza": false
    },
    {
      "id": "osm_node_903037216",
      "nombre": "Tacoronte",
      "tipo": "bar",
      "lat": 28.4757785,
      "lon": -16.4168292,
      "direccion": null,
      "codigo_postal": null,
      "telefono": null,
      "web": null,
      "instagram": null,
      "horario": null,
      "terraza": false
    },
    {
      "id": "osm_node_903037264",
      "nombre": "Lucia",
      "tipo": "bar",
      "lat": 28.3801254,
      "lon": -16.6929259,
      "direccion": null,
      "codigo_postal": null,
      "telefono": null,
      "web": null,
      "instagram": null,
      "horario": null,
      "terraza": false
    },
    {
      "id": "osm_node_903037273",
      "nombre": "Italiana",
      "tipo": "cafe",
      "lat": 28.1204352,
      "lon": -16.7754482,
      "direccion": null,
      "codigo_postal": null,
      "telefono": null,
      "web": null,
      "instagram": null,
      "horario": null,
      "terraza": false
    },
    {
      "id": "osm_node_903037281",
      "nombre": "Chavique",
      "tipo": "bar",
      "lat": 28.5167159,
      "lon": -16.3628376,
      "direccion": null,
      "codigo_postal": null,
      "telefono": null,
      "web": null,
      "instagram": null,
      "horario": null,
      "terraza": false
    },
    {
      "id": "osm_node_903037330",
      "nombre": "Pajero",
      "tipo": "cafe",
      "lat": 28.118716,
      "lon": -16.5764529,
      "direccion": null,
      "codigo_postal": null,
      "telefono": null,
      "web": null,
      "instagram": null,
      "horario": null,
      "terraza": false
    },
    {
      "id": "osm_node_903037341",
      "nombre": "Malele",
      "tipo": "cafe",
      "lat": 28.4764256,
      "lon": -16.4154184,
      "direccion": null,
      "codigo_postal": null,
      "telefono": null,
      "web": null,
      "instagram": null,
      "horario": null,
      "terraza": false
    },
    {
      "id": "osm_node_903037396",
      "nombre": "Meme",
      "tipo": "bar",
      "lat": 28.4121657,
      "lon": -16.5369356,
      "direccion": null,
      "codigo_postal": null,
      "telefono": null,
      "web": null,
      "instagram": null,
      "horario": null,
      "terraza": false
    },
    {
      "id": "osm_node_903037419",
      "nombre": "Soto",
      "tipo": "bar",
      "lat": 28.2970645,
      "lon": -16.816072,
      "direccion": null,
      "codigo_postal": null,
      "telefono": null,
      "web": null,
      "instagram": null,
      "horario": null,
      "terraza": false
    },
    {
      "id": "osm_node_903037458",
      "nombre": "Parada",
      "tipo": "bar",
      "lat": 28.2118509,
      "lon": -16.7812568,
      "direccion": null,
      "codigo_postal": null,
      "telefono": null,
      "web": null,
      "instagram": null,
      "horario": null,
      "terraza": false
    },
    {
      "id": "osm_node_903037470",
      "nombre": "Plúton",
      "tipo": "cafe",
      "lat": 28.5143767,
      "lon": -16.3028672,
      "direccion": null,
      "codigo_postal": null,
      "telefono": null,
      "web": null,
      "instagram": null,
      "horario": null,
      "terraza": false
    },
    {
      "id": "osm_node_903037485",
      "nombre": "El Junquito",
      "tipo": "bar",
      "lat": 28.2253437,
      "lon": -16.7880372,
      "direccion": null,
      "codigo_postal": null,
      "telefono": null,
      "web": null,
      "instagram": null,
      "horario": null,
      "terraza": false
    },
    {
      "id": "osm_node_903037525",
      "nombre": "Los Camioneros",
      "tipo": "bar",
      "lat": 28.3920094,
      "lon": -16.6240524,
      "direccion": null,
      "codigo_postal": null,
      "telefono": null,
      "web": null,
      "instagram": null,
      "horario": null,
      "terraza": false
    },
    {
      "id": "osm_node_903037546",
      "nombre": "The Smart Bakery",
      "tipo": "cafe",
      "lat": 28.0740113,
      "lon": -16.7318335,
      "direccion": null,
      "codigo_postal": null,
      "telefono": null,
      "web": null,
      "instagram": null,
      "horario": null,
      "terraza": false
    },
    {
      "id": "osm_node_903037577",
      "nombre": "Casa Celso",
      "tipo": "bar",
      "lat": 28.3932511,
      "lon": -16.5923806,
      "direccion": null,
      "codigo_postal": null,
      "telefono": null,
      "web": null,
      "instagram": null,
      "horario": null,
      "terraza": false
    },
    {
      "id": "osm_node_903037586",
      "nombre": "Arepas",
      "tipo": "bar",
      "lat": 28.367695,
      "lon": -16.7210159,
      "direccion": null,
      "codigo_postal": null,
      "telefono": null,
      "web": null,
      "instagram": null,
      "horario": "Mo,We,Th 12:00-16:00,19:00-22:00; Fr,Sa 12:00-16:00,19:00-23:00; Su 19:00-22:00",
      "terraza": false
    },
    {
      "id": "osm_node_903037629",
      "nombre": "Manhattan",
      "tipo": "cafe",
      "lat": 28.0976837,
      "lon": -16.6170498,
      "direccion": null,
      "codigo_postal": null,
      "telefono": null,
      "web": null,
      "instagram": null,
      "horario": null,
      "terraza": false
    },
    {
      "id": "osm_node_903037651",
      "nombre": "Melita",
      "tipo": "cafe",
      "lat": 28.4704311,
      "lon": -16.257483,
      "direccion": null,
      "codigo_postal": null,
      "telefono": null,
      "web": "https://www.palmelita.es/",
      "instagram": null,
      "horario": null,
      "terraza": false
    },
    {
      "id": "osm_node_903037713",
      "nombre": "Parada",
      "tipo": "bar",
      "lat": 28.2973357,
      "lon": -16.816215,
      "direccion": null,
      "codigo_postal": null,
      "telefono": null,
      "web": null,
      "instagram": null,
      "horario": null,
      "terraza": false
    },
    {
      "id": "osm_node_903037718",
      "nombre": "Rogelio",
      "tipo": "cafe",
      "lat": 28.3666233,
      "lon": -16.5281432,
      "direccion": null,
      "codigo_postal": null,
      "telefono": null,
      "web": null,
      "instagram": null,
      "horario": "Mo 07:00-14:00; Tu-Th 07:00-14:00,16:30-22:00; Fr 07:00-22:00; Sa 08:30-14:00,16:30-22:00; Su 08:30-14:00",
      "terraza": false
    },
    {
      "id": "osm_node_903037765",
      "nombre": "Hortensia",
      "tipo": "bar",
      "lat": 28.5226321,
      "lon": -16.342307,
      "direccion": null,
      "codigo_postal": null,
      "telefono": null,
      "web": null,
      "instagram": null,
      "horario": null,
      "terraza": false
    },
    {
      "id": "osm_node_903037776",
      "nombre": "Abona",
      "tipo": "cafe",
      "lat": 28.0839913,
      "lon": -16.5614971,
      "direccion": null,
      "codigo_postal": null,
      "telefono": null,
      "web": null,
      "instagram": null,
      "horario": null,
      "terraza": false
    },
    {
      "id": "osm_node_903037790",
      "nombre": "Turpal",
      "tipo": "cafe",
      "lat": 28.3794538,
      "lon": -16.6935867,
      "direccion": null,
      "codigo_postal": null,
      "telefono": null,
      "web": null,
      "instagram": null,
      "horario": null,
      "terraza": false
    },
    {
      "id": "osm_node_903037821",
      "nombre": "La Gloria",
      "tipo": "cafe",
      "lat": 28.0561802,
      "lon": -16.7124232,
      "direccion": null,
      "codigo_postal": null,
      "telefono": null,
      "web": null,
      "instagram": null,
      "horario": null,
      "terraza": false
    },
    {
      "id": "osm_node_903037827",
      "nombre": "Clavelito",
      "tipo": "bar",
      "lat": 28.3635981,
      "lon": -16.8454998,
      "direccion": null,
      "codigo_postal": null,
      "telefono": null,
      "web": null,
      "instagram": null,
      "horario": null,
      "terraza": false
    },
    {
      "id": "osm_node_903037838",
      "nombre": "Parilla Tacoronte",
      "tipo": "bar",
      "lat": 28.4864864,
      "lon": -16.4105861,
      "direccion": null,
      "codigo_postal": null,
      "telefono": null,
      "web": null,
      "instagram": null,
      "horario": null,
      "terraza": false
    },
    {
      "id": "osm_node_903037842",
      "nombre": "Juanely",
      "tipo": "cafe",
      "lat": 28.3977459,
      "lon": -16.5776801,
      "direccion": null,
      "codigo_postal": null,
      "telefono": null,
      "web": null,
      "instagram": null,
      "horario": null,
      "terraza": false
    },
    {
      "id": "osm_node_903037862",
      "nombre": "Paranda",
      "tipo": "pub",
      "lat": 28.3929927,
      "lon": -16.5899687,
      "direccion": null,
      "codigo_postal": null,
      "telefono": null,
      "web": null,
      "instagram": null,
      "horario": null,
      "terraza": false
    },
    {
      "id": "osm_node_903037868",
      "nombre": "Los Amigos",
      "tipo": "bar",
      "lat": 28.0997485,
      "lon": -16.6161284,
      "direccion": null,
      "codigo_postal": null,
      "telefono": null,
      "web": null,
      "instagram": null,
      "horario": null,
      "terraza": false
    },
    {
      "id": "osm_node_903037873",
      "nombre": "La Manigua",
      "tipo": "bar",
      "lat": 28.4783876,
      "lon": -16.243968,
      "direccion": null,
      "codigo_postal": null,
      "telefono": null,
      "web": null,
      "instagram": null,
      "horario": null,
      "terraza": false
    },
    {
      "id": "osm_node_903037881",
      "nombre": "El Tranvia",
      "tipo": "bar",
      "lat": 28.4766542,
      "lon": -16.4151989,
      "direccion": null,
      "codigo_postal": null,
      "telefono": null,
      "web": null,
      "instagram": null,
      "horario": null,
      "terraza": false
    },
    {
      "id": "osm_node_903037884",
      "nombre": "En Familia",
      "tipo": "bar",
      "lat": 28.071601,
      "lon": -16.5561308,
      "direccion": null,
      "codigo_postal": null,
      "telefono": null,
      "web": null,
      "instagram": null,
      "horario": null,
      "terraza": false
    },
    {
      "id": "osm_node_903037901",
      "nombre": "Relieve",
      "tipo": "cafe",
      "lat": 28.4005895,
      "lon": -16.5738769,
      "direccion": null,
      "codigo_postal": null,
      "telefono": null,
      "web": null,
      "instagram": null,
      "horario": null,
      "terraza": false
    },
    {
      "id": "osm_node_903037909",
      "nombre": "Majuelo",
      "tipo": "bar",
      "lat": 28.0997727,
      "lon": -16.616037,
      "direccion": null,
      "codigo_postal": null,
      "telefono": null,
      "web": null,
      "instagram": null,
      "horario": null,
      "terraza": false
    },
    {
      "id": "osm_node_903037919",
      "nombre": "Naranja Limon",
      "tipo": "cafe",
      "lat": 28.3937989,
      "lon": -16.51999,
      "direccion": null,
      "codigo_postal": null,
      "telefono": null,
      "web": null,
      "instagram": null,
      "horario": null,
      "terraza": false
    },
    {
      "id": "osm_node_903038017",
      "nombre": "San Bernardo",
      "tipo": "bar",
      "lat": 28.366713,
      "lon": -16.8305289,
      "direccion": null,
      "codigo_postal": null,
      "telefono": null,
      "web": null,
      "instagram": null,
      "horario": null,
      "terraza": false
    },
    {
      "id": "osm_node_903038064",
      "nombre": "La Churuata",
      "tipo": "bar",
      "lat": 28.355649,
      "lon": -16.715039,
      "direccion": null,
      "codigo_postal": null,
      "telefono": null,
      "web": null,
      "instagram": null,
      "horario": null,
      "terraza": false
    },
    {
      "id": "osm_node_903038079",
      "nombre": "Brisamar",
      "tipo": "bar",
      "lat": 28.3780691,
      "lon": -16.7231631,
      "direccion": null,
      "codigo_postal": null,
      "telefono": null,
      "web": null,
      "instagram": null,
      "horario": null,
      "terraza": false
    },
    {
      "id": "osm_node_903038155",
      "nombre": "Al Mar",
      "tipo": "cafe",
      "lat": 28.1645239,
      "lon": -16.4318392,
      "direccion": null,
      "codigo_postal": null,
      "telefono": null,
      "web": null,
      "instagram": null,
      "horario": null,
      "terraza": true
    },
    {
      "id": "osm_node_903038163",
      "nombre": "Lucy",
      "tipo": "bar",
      "lat": 28.1633203,
      "lon": -16.4326414,
      "direccion": null,
      "codigo_postal": null,
      "telefono": null,
      "web": null,
      "instagram": null,
      "horario": null,
      "terraza": false
    },
    {
      "id": "osm_node_903038196",
      "nombre": "Tamarco",
      "tipo": "bar",
      "lat": 28.5221271,
      "lon": -16.3497119,
      "direccion": null,
      "codigo_postal": null,
      "telefono": null,
      "web": null,
      "instagram": null,
      "horario": null,
      "terraza": false
    },
    {
      "id": "osm_node_903038212",
      "nombre": "Rincon de Anaga",
      "tipo": "pub",
      "lat": 28.5133832,
      "lon": -16.3059722,
      "direccion": null,
      "codigo_postal": null,
      "telefono": null,
      "web": null,
      "instagram": null,
      "horario": null,
      "terraza": false
    },
    {
      "id": "osm_node_903038336",
      "nombre": "Palmero",
      "tipo": "bar",
      "lat": 28.271173,
      "lon": -16.8184843,
      "direccion": null,
      "codigo_postal": null,
      "telefono": null,
      "web": null,
      "instagram": null,
      "horario": null,
      "terraza": false
    },
    {
      "id": "osm_node_903038384",
      "nombre": "Sr. José",
      "tipo": "bar",
      "lat": 28.5155937,
      "lon": -16.3621318,
      "direccion": null,
      "codigo_postal": null,
      "telefono": null,
      "web": null,
      "instagram": null,
      "horario": null,
      "terraza": false
    },
    {
      "id": "osm_node_903038402",
      "nombre": "El Eolio",
      "tipo": "pub",
      "lat": 28.3910885,
      "lon": -16.5803642,
      "direccion": null,
      "codigo_postal": null,
      "telefono": null,
      "web": null,
      "instagram": null,
      "horario": null,
      "terraza": false
    },
    {
      "id": "osm_node_903038412",
      "nombre": "Epoca",
      "tipo": "cafe",
      "lat": 28.056588,
      "lon": -16.7262751,
      "direccion": null,
      "codigo_postal": null,
      "telefono": null,
      "web": null,
      "instagram": null,
      "horario": null,
      "terraza": false
    },
    {
      "id": "osm_node_903038487",
      "nombre": "Tenerife",
      "tipo": "bar",
      "lat": 28.2699161,
      "lon": -16.819357,
      "direccion": null,
      "codigo_postal": null,
      "telefono": null,
      "web": null,
      "instagram": null,
      "horario": null,
      "terraza": false
    },
    {
      "id": "osm_node_903038526",
      "nombre": "El Cafe",
      "tipo": "bar",
      "lat": 28.2956525,
      "lon": -16.8153185,
      "direccion": null,
      "codigo_postal": null,
      "telefono": null,
      "web": null,
      "instagram": null,
      "horario": null,
      "terraza": true
    },
    {
      "id": "osm_node_903038572",
      "nombre": "Casa Domingo",
      "tipo": "bar",
      "lat": 28.5371596,
      "lon": -16.2340057,
      "direccion": null,
      "codigo_postal": null,
      "telefono": null,
      "web": null,
      "instagram": null,
      "horario": null,
      "terraza": false
    },
    {
      "id": "osm_node_903038668",
      "nombre": "El Guanche",
      "tipo": "bar",
      "lat": 28.4457816,
      "lon": -16.3670217,
      "direccion": null,
      "codigo_postal": null,
      "telefono": null,
      "web": null,
      "instagram": null,
      "horario": "Th off",
      "terraza": false
    },
    {
      "id": "osm_node_903038703",
      "nombre": "La Posada del Drago",
      "tipo": "pub",
      "lat": 28.3677394,
      "lon": -16.7209045,
      "direccion": null,
      "codigo_postal": null,
      "telefono": null,
      "web": null,
      "instagram": null,
      "horario": "Mo-Su 09:00-20:00",
      "terraza": false
    },
    {
      "id": "osm_node_903038711",
      "nombre": "Tenderte",
      "tipo": "bar",
      "lat": 28.3919462,
      "lon": -16.5209007,
      "direccion": null,
      "codigo_postal": null,
      "telefono": null,
      "web": null,
      "instagram": null,
      "horario": null,
      "terraza": false
    },
    {
      "id": "osm_node_903038793",
      "nombre": "Melita",
      "tipo": "cafe",
      "lat": 28.5560283,
      "lon": -16.3356664,
      "direccion": "Carretera General 171",
      "codigo_postal": "38250",
      "telefono": "+34 922 540814",
      "web": null,
      "instagram": null,
      "horario": null,
      "terraza": false
    },
    {
      "id": "osm_node_903038801",
      "nombre": "Paraiso",
      "tipo": "cafe",
      "lat": 28.3974942,
      "lon": -16.5769863,
      "direccion": null,
      "codigo_postal": null,
      "telefono": null,
      "web": null,
      "instagram": null,
      "horario": null,
      "terraza": false
    },
    {
      "id": "osm_node_903038807",
      "nombre": "Cafetería Aregume",
      "tipo": "cafe",
      "lat": 28.3654883,
      "lon": -16.8193839,
      "direccion": null,
      "codigo_postal": null,
      "telefono": null,
      "web": null,
      "instagram": null,
      "horario": null,
      "terraza": false
    },
    {
      "id": "osm_node_903038871",
      "nombre": "La Diana",
      "tipo": "bar",
      "lat": 28.378575,
      "lon": -16.6956523,
      "direccion": null,
      "codigo_postal": null,
      "telefono": null,
      "web": null,
      "instagram": null,
      "horario": null,
      "terraza": false
    },
    {
      "id": "osm_node_903038920",
      "nombre": "Abreu",
      "tipo": "bar",
      "lat": 28.326729,
      "lon": -16.8059647,
      "direccion": null,
      "codigo_postal": null,
      "telefono": null,
      "web": null,
      "instagram": null,
      "horario": null,
      "terraza": false
    },
    {
      "id": "osm_node_903038945",
      "nombre": "Mi Niño",
      "tipo": "bar",
      "lat": 28.3971221,
      "lon": -16.5375082,
      "direccion": null,
      "codigo_postal": null,
      "telefono": null,
      "web": null,
      "instagram": null,
      "horario": null,
      "terraza": false
    },
    {
      "id": "osm_node_903038955",
      "nombre": "Azoca",
      "tipo": "cafe",
      "lat": 28.4943779,
      "lon": -16.3549788,
      "direccion": null,
      "codigo_postal": null,
      "telefono": null,
      "web": null,
      "instagram": null,
      "horario": null,
      "terraza": false
    },
    {
      "id": "osm_node_903039012",
      "nombre": "Suso",
      "tipo": "bar",
      "lat": 28.4802463,
      "lon": -16.4122117,
      "direccion": null,
      "codigo_postal": null,
      "telefono": null,
      "web": null,
      "instagram": null,
      "horario": null,
      "terraza": false
    },
    {
      "id": "osm_node_903039072",
      "nombre": "Oasis",
      "tipo": "cafe",
      "lat": 28.1214955,
      "lon": -16.5776214,
      "direccion": null,
      "codigo_postal": null,
      "telefono": null,
      "web": null,
      "instagram": null,
      "horario": null,
      "terraza": false
    },
    {
      "id": "osm_node_903039184",
      "nombre": "Los Barros",
      "tipo": "cafe",
      "lat": 28.3904905,
      "lon": -16.5816053,
      "direccion": null,
      "codigo_postal": null,
      "telefono": null,
      "web": null,
      "instagram": null,
      "horario": null,
      "terraza": false
    },
    {
      "id": "osm_node_903039294",
      "nombre": "El Pulpo",
      "tipo": "bar",
      "lat": 28.3628848,
      "lon": -16.3711569,
      "direccion": null,
      "codigo_postal": null,
      "telefono": null,
      "web": null,
      "instagram": null,
      "horario": null,
      "terraza": false
    },
    {
      "id": "osm_node_903039315",
      "nombre": "Algarrobo",
      "tipo": "bar",
      "lat": 28.4122108,
      "lon": -16.5369774,
      "direccion": null,
      "codigo_postal": null,
      "telefono": null,
      "web": null,
      "instagram": null,
      "horario": null,
      "terraza": false
    },
    {
      "id": "osm_node_903039322",
      "nombre": "Tinguaro",
      "tipo": "bar",
      "lat": 28.3903913,
      "lon": -16.6623305,
      "direccion": null,
      "codigo_postal": null,
      "telefono": null,
      "web": null,
      "instagram": null,
      "horario": null,
      "terraza": false
    },
    {
      "id": "osm_node_903039406",
      "nombre": "Palmelita",
      "tipo": "cafe",
      "lat": 28.5549528,
      "lon": -16.344917,
      "direccion": null,
      "codigo_postal": null,
      "telefono": null,
      "web": null,
      "instagram": null,
      "horario": null,
      "terraza": false
    },
    {
      "id": "osm_node_903039435",
      "nombre": "La Botica",
      "tipo": "bar",
      "lat": 28.4806978,
      "lon": -16.4124588,
      "direccion": null,
      "codigo_postal": null,
      "telefono": null,
      "web": null,
      "instagram": null,
      "horario": null,
      "terraza": false
    },
    {
      "id": "osm_node_903039464",
      "nombre": "La Vinagrera",
      "tipo": "bar",
      "lat": 28.4090088,
      "lon": -16.5671789,
      "direccion": null,
      "codigo_postal": null,
      "telefono": null,
      "web": null,
      "instagram": null,
      "horario": null,
      "terraza": false
    },
    {
      "id": "osm_node_903039507",
      "nombre": "Big Ben",
      "tipo": "pub",
      "lat": 28.3803656,
      "lon": -16.686718,
      "direccion": null,
      "codigo_postal": null,
      "telefono": null,
      "web": null,
      "instagram": null,
      "horario": null,
      "terraza": false
    },
    {
      "id": "osm_node_903039542",
      "nombre": "La Caldera",
      "tipo": "bar",
      "lat": 28.36756,
      "lon": -16.8342863,
      "direccion": null,
      "codigo_postal": null,
      "telefono": null,
      "web": null,
      "instagram": null,
      "horario": null,
      "terraza": false
    },
    {
      "id": "osm_node_903039575",
      "nombre": "Arepera la Escollera",
      "tipo": "cafe",
      "lat": 28.5033241,
      "lon": -16.1932765,
      "direccion": null,
      "codigo_postal": null,
      "telefono": null,
      "web": null,
      "instagram": null,
      "horario": null,
      "terraza": false
    },
    {
      "id": "osm_node_903039613",
      "nombre": "La Estación",
      "tipo": "cafe",
      "lat": 28.5153399,
      "lon": -16.3017416,
      "direccion": null,
      "codigo_postal": null,
      "telefono": null,
      "web": null,
      "instagram": null,
      "horario": null,
      "terraza": false
    },
    {
      "id": "osm_node_903039621",
      "nombre": "El Guanche",
      "tipo": "bar",
      "lat": 28.3789738,
      "lon": -16.6946283,
      "direccion": null,
      "codigo_postal": null,
      "telefono": null,
      "web": null,
      "instagram": null,
      "horario": null,
      "terraza": false
    },
    {
      "id": "osm_node_903039666",
      "nombre": "Carodi",
      "tipo": "cafe",
      "lat": 28.1184425,
      "lon": -16.576358,
      "direccion": null,
      "codigo_postal": null,
      "telefono": null,
      "web": null,
      "instagram": null,
      "horario": null,
      "terraza": false
    },
    {
      "id": "osm_node_903039709",
      "nombre": "El Barco",
      "tipo": "cafe",
      "lat": 28.4005067,
      "lon": -16.5510114,
      "direccion": null,
      "codigo_postal": null,
      "telefono": null,
      "web": null,
      "instagram": null,
      "horario": null,
      "terraza": false
    },
    {
      "id": "osm_node_903039734",
      "nombre": "Tindaya",
      "tipo": "pub",
      "lat": 28.2669226,
      "lon": -16.8206612,
      "direccion": null,
      "codigo_postal": null,
      "telefono": null,
      "web": null,
      "instagram": null,
      "horario": null,
      "terraza": false
    },
    {
      "id": "osm_node_903039761",
      "nombre": "Mirador de Archipenque",
      "tipo": "cafe",
      "lat": 28.2405419,
      "lon": -16.8369028,
      "direccion": null,
      "codigo_postal": null,
      "telefono": null,
      "web": null,
      "instagram": null,
      "horario": "Mo-Su 09:00-21:00",
      "terraza": true
    },
    {
      "id": "osm_node_903039781",
      "nombre": "Los Churritos",
      "tipo": "bar",
      "lat": 28.50356,
      "lon": -16.192779,
      "direccion": null,
      "codigo_postal": null,
      "telefono": null,
      "web": null,
      "instagram": null,
      "horario": "Mo-Fr 11:00-17:00; Sa,Su off",
      "terraza": true
    },
    {
      "id": "osm_node_903039832",
      "nombre": "Carmita",
      "tipo": "cafe",
      "lat": 28.5129432,
      "lon": -16.3058349,
      "direccion": null,
      "codigo_postal": null,
      "telefono": null,
      "web": null,
      "instagram": null,
      "horario": null,
      "terraza": false
    },
    {
      "id": "osm_node_903039850",
      "nombre": "Bahia",
      "tipo": "cafe",
      "lat": 28.4803295,
      "lon": -16.2420135,
      "direccion": "Avenida de Anaga 7",
      "codigo_postal": null,
      "telefono": null,
      "web": null,
      "instagram": null,
      "horario": "Tu-Fr 07:30-16:00; Sa-Su 11:30-16:00",
      "terraza": false
    },
    {
      "id": "osm_node_903039855",
      "nombre": "El Chorro",
      "tipo": "bar",
      "lat": 28.5048587,
      "lon": -16.1934818,
      "direccion": null,
      "codigo_postal": null,
      "telefono": null,
      "web": null,
      "instagram": null,
      "horario": null,
      "terraza": false
    },
    {
      "id": "osm_node_903039984",
      "nombre": "Achimaye",
      "tipo": "cafe",
      "lat": 28.1868445,
      "lon": -16.7654994,
      "direccion": null,
      "codigo_postal": null,
      "telefono": null,
      "web": null,
      "instagram": null,
      "horario": null,
      "terraza": false
    },
    {
      "id": "osm_node_903039996",
      "nombre": "El Pepito",
      "tipo": "bar",
      "lat": 28.3980819,
      "lon": -16.575666,
      "direccion": null,
      "codigo_postal": null,
      "telefono": null,
      "web": null,
      "instagram": null,
      "horario": null,
      "terraza": false
    },
    {
      "id": "osm_node_903040027",
      "nombre": "La Luz",
      "tipo": "bar",
      "lat": 28.3655429,
      "lon": -16.8178497,
      "direccion": "Calle Félix Benítez de Lugo 2",
      "codigo_postal": "38470",
      "telefono": "+34 922 120 038",
      "web": null,
      "instagram": null,
      "horario": "Tu-Sa 06:00-23:00",
      "terraza": true
    },
    {
      "id": "osm_node_903040047",
      "nombre": "Europa",
      "tipo": "cafe",
      "lat": 28.1290769,
      "lon": -16.7833252,
      "direccion": null,
      "codigo_postal": null,
      "telefono": null,
      "web": null,
      "instagram": null,
      "horario": null,
      "terraza": false
    },
    {
      "id": "osm_node_903040063",
      "nombre": "Casa Mary",
      "tipo": "cafe",
      "lat": 28.4908334,
      "lon": -16.3631748,
      "direccion": null,
      "codigo_postal": null,
      "telefono": null,
      "web": null,
      "instagram": null,
      "horario": null,
      "terraza": false
    },
    {
      "id": "osm_node_903040066",
      "nombre": "El Volante",
      "tipo": "bar",
      "lat": 28.1401888,
      "lon": -16.7567781,
      "direccion": null,
      "codigo_postal": null,
      "telefono": null,
      "web": null,
      "instagram": null,
      "horario": null,
      "terraza": false
    },
    {
      "id": "osm_node_903040072",
      "nombre": "El Parralito",
      "tipo": "bar",
      "lat": 28.3805981,
      "lon": -16.6849118,
      "direccion": null,
      "codigo_postal": null,
      "telefono": null,
      "web": null,
      "instagram": null,
      "horario": null,
      "terraza": false
    },
    {
      "id": "osm_node_903040109",
      "nombre": "Mencey Tegueste",
      "tipo": "cafe",
      "lat": 28.5213346,
      "lon": -16.3381326,
      "direccion": null,
      "codigo_postal": null,
      "telefono": null,
      "web": null,
      "instagram": null,
      "horario": null,
      "terraza": false
    },
    {
      "id": "osm_node_903040122",
      "nombre": "Bahia",
      "tipo": "bar",
      "lat": 28.3713391,
      "lon": -16.7675622,
      "direccion": null,
      "codigo_postal": null,
      "telefono": null,
      "web": null,
      "instagram": null,
      "horario": null,
      "terraza": false
    },
    {
      "id": "osm_node_903040138",
      "nombre": "Vera Cruz",
      "tipo": "bar",
      "lat": 28.0976477,
      "lon": -16.6176141,
      "direccion": null,
      "codigo_postal": null,
      "telefono": null,
      "web": null,
      "instagram": null,
      "horario": null,
      "terraza": false
    },
    {
      "id": "osm_node_903958775",
      "nombre": "Billares Garviana",
      "tipo": "bar",
      "lat": 28.4128209,
      "lon": -16.557293,
      "direccion": null,
      "codigo_postal": null,
      "telefono": null,
      "web": null,
      "instagram": null,
      "horario": null,
      "terraza": false
    },
    {
      "id": "osm_node_903958781",
      "nombre": "Nivaria",
      "tipo": "cafe",
      "lat": 28.4127089,
      "lon": -16.5573718,
      "direccion": null,
      "codigo_postal": null,
      "telefono": null,
      "web": null,
      "instagram": null,
      "horario": null,
      "terraza": false
    },
    {
      "id": "osm_node_903958784",
      "nombre": "Los Gorreros",
      "tipo": "bar",
      "lat": 28.4123533,
      "lon": -16.5574636,
      "direccion": null,
      "codigo_postal": null,
      "telefono": null,
      "web": null,
      "instagram": null,
      "horario": null,
      "terraza": false
    },
    {
      "id": "osm_node_903958795",
      "nombre": "Horno de Pan",
      "tipo": "cafe",
      "lat": 28.4130903,
      "lon": -16.5572682,
      "direccion": null,
      "codigo_postal": null,
      "telefono": null,
      "web": null,
      "instagram": null,
      "horario": null,
      "terraza": false
    },
    {
      "id": "osm_node_914385605",
      "nombre": "Lizarran",
      "tipo": "pub",
      "lat": 28.4670564,
      "lon": -16.2486477,
      "direccion": null,
      "codigo_postal": null,
      "telefono": null,
      "web": null,
      "instagram": null,
      "horario": null,
      "terraza": true
    },
    {
      "id": "osm_node_916215900",
      "nombre": "Cafetería Goya",
      "tipo": "bar",
      "lat": 28.4927951,
      "lon": -16.314337,
      "direccion": "2",
      "codigo_postal": null,
      "telefono": null,
      "web": null,
      "instagram": null,
      "horario": null,
      "terraza": false
    },
    {
      "id": "osm_node_920130915",
      "nombre": "Kiosko Numancia",
      "tipo": "cafe",
      "lat": 28.4724382,
      "lon": -16.2555761,
      "direccion": null,
      "codigo_postal": null,
      "telefono": null,
      "web": null,
      "instagram": null,
      "horario": null,
      "terraza": false
    },
    {
      "id": "osm_node_923654108",
      "nombre": "Botánica Café",
      "tipo": "cafe",
      "lat": 28.4937877,
      "lon": -16.3169638,
      "direccion": "Avenida Universidad 9",
      "codigo_postal": null,
      "telefono": "+34 922 09 47 56",
      "web": null,
      "instagram": "https://www.instagram.com/botanicalagunacafe/",
      "horario": "Mo-Tu closed; We-Sa 09:00-20:30; Su 09:00-15:00",
      "terraza": true
    },
    {
      "id": "osm_node_924269335",
      "nombre": "Vanessa",
      "tipo": "cafe",
      "lat": 28.1852035,
      "lon": -16.7652937,
      "direccion": null,
      "codigo_postal": null,
      "telefono": null,
      "web": null,
      "instagram": null,
      "horario": null,
      "terraza": false
    },
    {
      "id": "osm_node_929266818",
      "nombre": "Malagueña",
      "tipo": "bar",
      "lat": 28.3783364,
      "lon": -16.5109763,
      "direccion": null,
      "codigo_postal": null,
      "telefono": null,
      "web": null,
      "instagram": null,
      "horario": null,
      "terraza": false
    },
    {
      "id": "osm_node_929267514",
      "nombre": "Juncar Drago",
      "tipo": "bar",
      "lat": 28.38857,
      "lon": -16.5116339,
      "direccion": null,
      "codigo_postal": null,
      "telefono": null,
      "web": null,
      "instagram": null,
      "horario": null,
      "terraza": false
    },
    {
      "id": "osm_node_930192138",
      "nombre": "Rincón del Norte",
      "tipo": "bar",
      "lat": 28.3696565,
      "lon": -16.8488541,
      "direccion": null,
      "codigo_postal": null,
      "telefono": null,
      "web": null,
      "instagram": null,
      "horario": null,
      "terraza": false
    },
    {
      "id": "osm_node_932145324",
      "nombre": "Moneiba",
      "tipo": "cafe",
      "lat": 28.4933079,
      "lon": -16.4085628,
      "direccion": null,
      "codigo_postal": null,
      "telefono": null,
      "web": null,
      "instagram": null,
      "horario": null,
      "terraza": false
    },
    {
      "id": "osm_node_932145366",
      "nombre": "Club Parque",
      "tipo": "bar",
      "lat": 28.4981134,
      "lon": -16.412594,
      "direccion": null,
      "codigo_postal": null,
      "telefono": null,
      "web": null,
      "instagram": null,
      "horario": null,
      "terraza": false
    },
    {
      "id": "osm_node_932145371",
      "nombre": "Bahia Roja",
      "tipo": "bar",
      "lat": 28.4761577,
      "lon": -16.4159952,
      "direccion": null,
      "codigo_postal": null,
      "telefono": null,
      "web": null,
      "instagram": null,
      "horario": null,
      "terraza": false
    },
    {
      "id": "osm_node_937701358",
      "nombre": "Mi Hermano",
      "tipo": "bar",
      "lat": 28.4881922,
      "lon": -16.3229753,
      "direccion": null,
      "codigo_postal": null,
      "telefono": null,
      "web": null,
      "instagram": null,
      "horario": null,
      "terraza": false
    },
    {
      "id": "osm_node_938615693",
      "nombre": "Eclipse",
      "tipo": "bar",
      "lat": 28.2116256,
      "lon": -16.7815703,
      "direccion": null,
      "codigo_postal": null,
      "telefono": null,
      "web": null,
      "instagram": null,
      "horario": null,
      "terraza": false
    },
    {
      "id": "osm_node_938615700",
      "nombre": "Aripe",
      "tipo": "bar",
      "lat": 28.2161463,
      "lon": -16.7678346,
      "direccion": null,
      "codigo_postal": null,
      "telefono": null,
      "web": null,
      "instagram": null,
      "horario": null,
      "terraza": false
    },
    {
      "id": "osm_node_938624799",
      "nombre": "Valido",
      "tipo": "cafe",
      "lat": 28.4850606,
      "lon": -16.3138985,
      "direccion": null,
      "codigo_postal": null,
      "telefono": null,
      "web": null,
      "instagram": null,
      "horario": null,
      "terraza": false
    },
    {
      "id": "osm_node_942813099",
      "nombre": "Proa Norte",
      "tipo": "cafe",
      "lat": 28.3712427,
      "lon": -16.7673693,
      "direccion": null,
      "codigo_postal": null,
      "telefono": null,
      "web": null,
      "instagram": null,
      "horario": null,
      "terraza": false
    },
    {
      "id": "osm_node_943476558",
      "nombre": "Verode",
      "tipo": "bar",
      "lat": 28.3565529,
      "lon": -16.7796481,
      "direccion": null,
      "codigo_postal": null,
      "telefono": null,
      "web": null,
      "instagram": null,
      "horario": null,
      "terraza": false
    },
    {
      "id": "osm_node_943476561",
      "nombre": "La Espiral",
      "tipo": "cafe",
      "lat": 28.3576314,
      "lon": -16.7750293,
      "direccion": null,
      "codigo_postal": null,
      "telefono": null,
      "web": null,
      "instagram": null,
      "horario": null,
      "terraza": false
    },
    {
      "id": "osm_node_945024319",
      "nombre": "Bar Arepera El Encuentro",
      "tipo": "bar",
      "lat": 28.6872221,
      "lon": -17.7613611,
      "direccion": null,
      "codigo_postal": null,
      "telefono": null,
      "web": null,
      "instagram": null,
      "horario": null,
      "terraza": true
    },
    {
      "id": "osm_node_945025443",
      "nombre": "Kamil Food Bar",
      "tipo": "pub",
      "lat": 28.6794147,
      "lon": -17.7668925,
      "direccion": null,
      "codigo_postal": null,
      "telefono": null,
      "web": null,
      "instagram": null,
      "horario": null,
      "terraza": false
    },
    {
      "id": "osm_node_945064622",
      "nombre": "Kiosco Charco Verde",
      "tipo": "pub",
      "lat": 28.5728667,
      "lon": -17.8994894,
      "direccion": null,
      "codigo_postal": null,
      "telefono": null,
      "web": null,
      "instagram": null,
      "horario": "Th-Tu 13:00-18:00",
      "terraza": true
    },
    {
      "id": "osm_node_945125376",
      "nombre": "Laly's Bar El Bucanero",
      "tipo": "pub",
      "lat": 28.5861839,
      "lon": -17.9100524,
      "direccion": "Paseo Marítimo 23",
      "codigo_postal": "38760",
      "telefono": null,
      "web": null,
      "instagram": null,
      "horario": "Mo off",
      "terraza": false
    },
    {
      "id": "osm_node_945125386",
      "nombre": "Bar Resbel",
      "tipo": "pub",
      "lat": 28.5874475,
      "lon": -17.9100408,
      "direccion": null,
      "codigo_postal": null,
      "telefono": null,
      "web": null,
      "instagram": null,
      "horario": null,
      "terraza": false
    },
    {
      "id": "osm_node_945649367",
      "nombre": "Bar La Brasa",
      "tipo": "bar",
      "lat": 28.7733193,
      "lon": -17.978241,
      "direccion": "Camino El Pinar 27",
      "codigo_postal": "38789",
      "telefono": null,
      "web": null,
      "instagram": null,
      "horario": null,
      "terraza": false
    },
    {
      "id": "osm_node_945766952",
      "nombre": "La Estrella del Sur",
      "tipo": "bar",
      "lat": 28.6514629,
      "lon": -17.7595248,
      "direccion": null,
      "codigo_postal": null,
      "telefono": null,
      "web": null,
      "instagram": null,
      "horario": null,
      "terraza": false
    },
    {
      "id": "osm_node_946481211",
      "nombre": "Bar Jedey",
      "tipo": "bar",
      "lat": 28.585749,
      "lon": -17.8802613,
      "direccion": null,
      "codigo_postal": null,
      "telefono": null,
      "web": null,
      "instagram": null,
      "horario": null,
      "terraza": false
    },
    {
      "id": "osm_node_947003153",
      "nombre": "Route 66",
      "tipo": "bar",
      "lat": 28.2393183,
      "lon": -16.8441173,
      "direccion": null,
      "codigo_postal": null,
      "telefono": null,
      "web": null,
      "instagram": null,
      "horario": null,
      "terraza": false
    },
    {
      "id": "osm_node_957014906",
      "nombre": "Harveys",
      "tipo": "bar",
      "lat": 28.0556439,
      "lon": -16.7308581,
      "direccion": null,
      "codigo_postal": null,
      "telefono": null,
      "web": null,
      "instagram": null,
      "horario": null,
      "terraza": false
    },
    {
      "id": "osm_node_957165082",
      "nombre": "the gaelic corner",
      "tipo": "pub",
      "lat": 28.0606257,
      "lon": -16.7325653,
      "direccion": null,
      "codigo_postal": null,
      "telefono": null,
      "web": null,
      "instagram": null,
      "horario": null,
      "terraza": false
    },
    {
      "id": "osm_node_966082708",
      "nombre": "Manneke Pis",
      "tipo": "pub",
      "lat": 28.0606638,
      "lon": -16.7328001,
      "direccion": null,
      "codigo_postal": null,
      "telefono": null,
      "web": null,
      "instagram": null,
      "horario": null,
      "terraza": false
    },
    {
      "id": "osm_node_986612031",
      "nombre": "OMM",
      "tipo": "bar",
      "lat": 28.0578948,
      "lon": -16.7291674,
      "direccion": null,
      "codigo_postal": null,
      "telefono": null,
      "web": null,
      "instagram": null,
      "horario": null,
      "terraza": false
    },
    {
      "id": "osm_node_1011494473",
      "nombre": "El Rincón",
      "tipo": "pub",
      "lat": 27.641054,
      "lon": -17.9806539,
      "direccion": null,
      "codigo_postal": null,
      "telefono": null,
      "web": null,
      "instagram": null,
      "horario": null,
      "terraza": true
    },
    {
      "id": "osm_node_1011494725",
      "nombre": "Zumería La Restinga",
      "tipo": "pub",
      "lat": 27.6416363,
      "lon": -17.9808225,
      "direccion": null,
      "codigo_postal": null,
      "telefono": "+34686648604",
      "web": null,
      "instagram": null,
      "horario": null,
      "terraza": false
    },
    {
      "id": "osm_node_1011494770",
      "nombre": "Bar Principal",
      "tipo": "pub",
      "lat": 27.6413658,
      "lon": -17.9806518,
      "direccion": null,
      "codigo_postal": null,
      "telefono": null,
      "web": null,
      "instagram": null,
      "horario": null,
      "terraza": false
    },
    {
      "id": "osm_node_1028154875",
      "nombre": "La Baranda",
      "tipo": "cafe",
      "lat": 28.469677,
      "lon": -16.434397,
      "direccion": null,
      "codigo_postal": null,
      "telefono": "+34 922572454",
      "web": "https://www.terrazalabaranda.com/",
      "instagram": null,
      "horario": "Tu, We 09:00-00:00; Th 09:00-01:00; Fr, Sa 09:00-02:00; Su 09:00-23:00",
      "terraza": false
    },
    {
      "id": "osm_node_1062777528",
      "nombre": "El Canario",
      "tipo": "cafe",
      "lat": 28.3731177,
      "lon": -16.7932288,
      "direccion": null,
      "codigo_postal": null,
      "telefono": null,
      "web": null,
      "instagram": null,
      "horario": null,
      "terraza": false
    },
    {
      "id": "osm_node_1065182272",
      "nombre": "El Rubio",
      "tipo": "bar",
      "lat": 28.3755762,
      "lon": -16.7959629,
      "direccion": null,
      "codigo_postal": null,
      "telefono": null,
      "web": null,
      "instagram": null,
      "horario": null,
      "terraza": false
    },
    {
      "id": "osm_node_1072472463",
      "nombre": "Francy's Bar",
      "tipo": "pub",
      "lat": 28.2392756,
      "lon": -16.8440178,
      "direccion": null,
      "codigo_postal": null,
      "telefono": null,
      "web": null,
      "instagram": null,
      "horario": null,
      "terraza": false
    },
    {
      "id": "osm_node_1072474586",
      "nombre": "Donde Tato",
      "tipo": "pub",
      "lat": 28.2391811,
      "lon": -16.8438676,
      "direccion": null,
      "codigo_postal": null,
      "telefono": null,
      "web": null,
      "instagram": null,
      "horario": null,
      "terraza": false
    },
    {
      "id": "osm_node_1072481585",
      "nombre": "The Outside Inn",
      "tipo": "pub",
      "lat": 28.2387605,
      "lon": -16.8445757,
      "direccion": null,
      "codigo_postal": null,
      "telefono": null,
      "web": null,
      "instagram": null,
      "horario": null,
      "terraza": true
    },
    {
      "id": "osm_node_1072487527",
      "nombre": "The Courtyard",
      "tipo": "pub",
      "lat": 28.2390393,
      "lon": -16.8442967,
      "direccion": null,
      "codigo_postal": null,
      "telefono": null,
      "web": null,
      "instagram": null,
      "horario": null,
      "terraza": false
    },
    {
      "id": "osm_node_1072510156",
      "nombre": "Scoobys",
      "tipo": "pub",
      "lat": 28.2389937,
      "lon": -16.8411795,
      "direccion": null,
      "codigo_postal": null,
      "telefono": null,
      "web": null,
      "instagram": null,
      "horario": null,
      "terraza": false
    },
    {
      "id": "osm_node_1072511680",
      "nombre": "El Normandy",
      "tipo": "pub",
      "lat": 28.23916,
      "lon": -16.8411044,
      "direccion": null,
      "codigo_postal": null,
      "telefono": null,
      "web": null,
      "instagram": null,
      "horario": null,
      "terraza": false
    },
    {
      "id": "osm_node_1081613981",
      "nombre": "Oh La Lá",
      "tipo": "cafe",
      "lat": 28.061074,
      "lon": -16.7282403,
      "direccion": null,
      "codigo_postal": null,
      "telefono": null,
      "web": null,
      "instagram": null,
      "horario": null,
      "terraza": false
    },
    {
      "id": "osm_node_1081614001",
      "nombre": "Urbano",
      "tipo": "cafe",
      "lat": 28.128437,
      "lon": -16.757966,
      "direccion": null,
      "codigo_postal": null,
      "telefono": null,
      "web": null,
      "instagram": null,
      "horario": null,
      "terraza": false
    },
    {
      "id": "osm_node_1081614106",
      "nombre": "Bodegón Pepe y Lola",
      "tipo": "bar",
      "lat": 28.1132545,
      "lon": -16.7677413,
      "direccion": null,
      "codigo_postal": null,
      "telefono": null,
      "web": null,
      "instagram": null,
      "horario": "Mo-Fr 10:00-20:30; Sa,Su 10:00-21:30; PH off",
      "terraza": false
    },
    {
      "id": "osm_node_1081614156",
      "nombre": "El Guanche",
      "tipo": "cafe",
      "lat": 28.475856,
      "lon": -16.4171652,
      "direccion": null,
      "codigo_postal": null,
      "telefono": null,
      "web": null,
      "instagram": null,
      "horario": null,
      "terraza": false
    },
    {
      "id": "osm_node_1095066699",
      "nombre": "Frida",
      "tipo": "cafe",
      "lat": 28.6588452,
      "lon": -17.9109074,
      "direccion": "Calle Calvo Sotelo 24",
      "codigo_postal": "38760",
      "telefono": "+34 922 465 110",
      "web": "http://www.frida-lapalma.com/www.frida-lapalma.com/Bienvenidos.html",
      "instagram": null,
      "horario": "Tu-Fr 11:00-18:00; Sa 11:00-15:00",
      "terraza": true
    },
    {
      "id": "osm_node_1097743369",
      "nombre": "The Pirate",
      "tipo": "bar",
      "lat": 28.0817521,
      "lon": -16.7265754,
      "direccion": null,
      "codigo_postal": null,
      "telefono": null,
      "web": null,
      "instagram": null,
      "horario": null,
      "terraza": false
    },
    {
      "id": "osm_node_1097743371",
      "nombre": "Warsteiner Eck",
      "tipo": "pub",
      "lat": 28.1203195,
      "lon": -16.7756765,
      "direccion": null,
      "codigo_postal": null,
      "telefono": null,
      "web": null,
      "instagram": null,
      "horario": null,
      "terraza": false
    },
    {
      "id": "osm_node_1097743373",
      "nombre": "Malibu",
      "tipo": "bar",
      "lat": 28.0795554,
      "lon": -16.726739,
      "direccion": null,
      "codigo_postal": null,
      "telefono": null,
      "web": null,
      "instagram": null,
      "horario": null,
      "terraza": false
    },
    {
      "id": "osm_node_1097743376",
      "nombre": "Le Oveja Negra",
      "tipo": "pub",
      "lat": 28.0573545,
      "lon": -16.7229313,
      "direccion": null,
      "codigo_postal": null,
      "telefono": null,
      "web": null,
      "instagram": null,
      "horario": null,
      "terraza": false
    },