{
  "ciudad": "Tarragona",
  "total": 972,
  "locales": [
    {
      "id": "osm_node_366276961",
      "nombre": "Vinum Priorat",
      "tipo": "cafe",
      "lat": 41.1878513,
      "lon": 0.8562585,
      "direccion": null,
      "codigo_postal": null,
      "telefono": null,
      "web": null,
      "instagram": null,
      "horario": null,
      "terraza": false
    },
    {
      "id": "osm_node_368221558",
      "nombre": "Bar Font de Mora",
      "tipo": "cafe",
      "lat": 41.1000605,
      "lon": 0.6507466,
      "direccion": null,
      "codigo_postal": null,
      "telefono": null,
      "web": null,
      "instagram": null,
      "horario": null,
      "terraza": false
    },
    {
      "id": "osm_node_526167710",
      "nombre": "Pica Pica",
      "tipo": "bar",
      "lat": 41.1097311,
      "lon": 1.2521402,
      "direccion": null,
      "codigo_postal": null,
      "telefono": null,
      "web": null,
      "instagram": null,
      "horario": null,
      "terraza": false
    },
    {
      "id": "osm_node_648227070",
      "nombre": "Bar L'Escala",
      "tipo": "bar",
      "lat": 41.2296568,
      "lon": 0.5492433,
      "direccion": null,
      "codigo_postal": null,
      "telefono": null,
      "web": null,
      "instagram": null,
      "horario": null,
      "terraza": false
    },
    {
      "id": "osm_node_650907801",
      "nombre": "Bar 21",
      "tipo": "bar",
      "lat": 41.2306386,
      "lon": 0.550511,
      "direccion": null,
      "codigo_postal": null,
      "telefono": null,
      "web": null,
      "instagram": null,
      "horario": null,
      "terraza": false
    },
    {
      "id": "osm_node_650907811",
      "nombre": "Bar Catalunya",
      "tipo": "bar",
      "lat": 41.230671,
      "lon": 0.5506523,
      "direccion": null,
      "codigo_postal": null,
      "telefono": null,
      "web": null,
      "instagram": null,
      "horario": null,
      "terraza": false
    },
    {
      "id": "osm_node_650907824",
      "nombre": "Café de Mari",
      "tipo": "cafe",
      "lat": 41.2304639,
      "lon": 0.5507792,
      "direccion": null,
      "codigo_postal": null,
      "telefono": null,
      "web": null,
      "instagram": null,
      "horario": null,
      "terraza": false
    },
    {
      "id": "osm_node_651583941",
      "nombre": "Café Granja La Clau",
      "tipo": "bar",
      "lat": 41.2299108,
      "lon": 0.5511036,
      "direccion": "Avinguda Catalunya 19",
      "codigo_postal": "43750",
      "telefono": "+34 977410106",
      "web": null,
      "instagram": null,
      "horario": "Su-Th 09:00-21:00; Fr-Sa 10:00-10:00",
      "terraza": false
    },
    {
      "id": "osm_node_778489867",
      "nombre": "Cafeteria Catalunya \"la Cafe\"",
      "tipo": "cafe",
      "lat": 40.5418278,
      "lon": 0.4825892,
      "direccion": null,
      "codigo_postal": null,
      "telefono": null,
      "web": null,
      "instagram": null,
      "horario": null,
      "terraza": false
    },
    {
      "id": "osm_node_801231833",
      "nombre": "Bar Andorra",
      "tipo": "cafe",
      "lat": 41.1214104,
      "lon": 1.2504559,
      "direccion": null,
      "codigo_postal": null,
      "telefono": null,
      "web": null,
      "instagram": null,
      "horario": null,
      "terraza": false
    },
    {
      "id": "osm_node_861022726",
      "nombre": "El Xiri",
      "tipo": "bar",
      "lat": 41.1207389,
      "lon": 1.2787323,
      "direccion": null,
      "codigo_postal": null,
      "telefono": null,
      "web": null,
      "instagram": null,
      "horario": null,
      "terraza": true
    },
    {
      "id": "osm_node_861022840",
      "nombre": "Xiringuito Clara",
      "tipo": "bar",
      "lat": 41.1188505,
      "lon": 1.2742345,
      "direccion": null,
      "codigo_postal": null,
      "telefono": null,
      "web": null,
      "instagram": null,
      "horario": null,
      "terraza": true
    },
    {
      "id": "osm_node_861022859",
      "nombre": "Xiringuito Pepe's Lucano",
      "tipo": "bar",
      "lat": 41.1198616,
      "lon": 1.2763781,
      "direccion": null,
      "codigo_postal": null,
      "telefono": null,
      "web": null,
      "instagram": null,
      "horario": null,
      "terraza": false
    },
    {
      "id": "osm_node_952071692",
      "nombre": "Bay-Pass",
      "tipo": "cafe",
      "lat": 41.1162649,
      "lon": 1.2472928,
      "direccion": "Carrer Reding 48",
      "codigo_postal": null,
      "telefono": null,
      "web": null,
      "instagram": null,
      "horario": null,
      "terraza": false
    },
    {
      "id": "osm_node_991360917",
      "nombre": "Victoria",
      "tipo": "cafe",
      "lat": 41.1159475,
      "lon": 1.2444838,
      "direccion": null,
      "codigo_postal": null,
      "telefono": null,
      "web": null,
      "instagram": null,
      "horario": null,
      "terraza": false
    },
    {
      "id": "osm_node_991361889",
      "nombre": "Aruba",
      "tipo": "cafe",
      "lat": 41.1161404,
      "lon": 1.2445829,
      "direccion": null,
      "codigo_postal": null,
      "telefono": null,
      "web": null,
      "instagram": null,
      "horario": null,
      "terraza": false
    },
    {
      "id": "osm_node_991834437",
      "nombre": "Negresco",
      "tipo": "pub",
      "lat": 41.1162649,
      "lon": 1.2440906,
      "direccion": "Carrer de Pere Martell 23",
      "codigo_postal": null,
      "telefono": null,
      "web": null,
      "instagram": null,
      "horario": null,
      "terraza": false
    },
    {
      "id": "osm_node_994799085",
      "nombre": "Mónaco",
      "tipo": "cafe",
      "lat": 41.1171031,
      "lon": 1.2444048,
      "direccion": "Carrer de Pere Martell 9",
      "codigo_postal": null,
      "telefono": null,
      "web": null,
      "instagram": null,
      "horario": null,
      "terraza": false
    },
    {
      "id": "osm_node_994799259",
      "nombre": "pannus",
      "tipo": "cafe",
      "lat": 41.1170306,
      "lon": 1.2443763,
      "direccion": "Carrer de Pere Martell 9",
      "codigo_postal": null,
      "telefono": null,
      "web": null,
      "instagram": null,
      "horario": null,
      "terraza": false
    },
    {
      "id": "osm_node_1000895092",
      "nombre": "Racó",
      "tipo": "cafe",
      "lat": 41.1221916,
      "lon": 1.2492537,
      "direccion": "Avinguda de Catalunya 36",
      "codigo_postal": null,
      "telefono": null,
      "web": null,
      "instagram": null,
      "horario": null,
      "terraza": false
    },
    {
      "id": "osm_node_1003715543",
      "nombre": "Café del Parc",
      "tipo": "cafe",
      "lat": 41.1174968,
      "lon": 1.244338,
      "direccion": null,
      "codigo_postal": null,
      "telefono": null,
      "web": null,
      "instagram": null,
      "horario": null,
      "terraza": false
    },
    {
      "id": "osm_node_1007091433",
      "nombre": "Frankfurt Locrismar",
      "tipo": "bar",
      "lat": 41.116365,
      "lon": 1.2467932,
      "direccion": null,
      "codigo_postal": null,
      "telefono": null,
      "web": null,
      "instagram": null,
      "horario": null,
      "terraza": false
    },
    {
      "id": "osm_node_1035624878",
      "nombre": "La Isla del Mojito",
      "tipo": "pub",
      "lat": 41.1137559,
      "lon": 1.2547001,
      "direccion": null,
      "codigo_postal": null,
      "telefono": null,
      "web": null,
      "instagram": null,
      "horario": null,
      "terraza": false
    },
    {
      "id": "osm_node_1049332781",
      "nombre": "La Vaqueria",
      "tipo": "pub",
      "lat": 41.1120296,
      "lon": 1.2497162,
      "direccion": null,
      "codigo_postal": null,
      "telefono": null,
      "web": null,
      "instagram": null,
      "horario": null,
      "terraza": false
    },
    {
      "id": "osm_node_1241738097",
      "nombre": "La taverna de...",
      "tipo": "bar",
      "lat": 41.1097279,
      "lon": 1.1500841,
      "direccion": null,
      "codigo_postal": null,
      "telefono": null,
      "web": null,
      "instagram": null,
      "horario": null,
      "terraza": false
    },
    {
      "id": "osm_node_1268257352",
      "nombre": "Eden",
      "tipo": "bar",
      "lat": 41.2301053,
      "lon": 0.5500011,
      "direccion": null,
      "codigo_postal": null,
      "telefono": null,
      "web": null,
      "instagram": null,
      "horario": null,
      "terraza": false
    },
    {
      "id": "osm_node_1308233238",
      "nombre": "Bar la Violeta",
      "tipo": "bar",
      "lat": 41.140545,
      "lon": 1.37534,
      "direccion": null,
      "codigo_postal": null,
      "telefono": null,
      "web": null,
      "instagram": null,
      "horario": null,
      "terraza": false
    },
    {
      "id": "osm_node_1341084473",
      "nombre": "Lo Nou Cafè",
      "tipo": "cafe",
      "lat": 40.620033,
      "lon": 0.5924848,
      "direccion": null,
      "codigo_postal": null,
      "telefono": null,
      "web": null,
      "instagram": null,
      "horario": null,
      "terraza": false
    },
    {
      "id": "osm_node_1349063301",
      "nombre": "CONTINENTAL",
      "tipo": "bar",
      "lat": 41.0739919,
      "lon": 1.1443231,
      "direccion": null,
      "codigo_postal": null,
      "telefono": null,
      "web": null,
      "instagram": null,
      "horario": null,
      "terraza": false
    },
    {
      "id": "osm_node_1349071580",
      "nombre": "Tapes Bar",
      "tipo": "bar",
      "lat": 41.0705139,
      "lon": 1.1451894,
      "direccion": null,
      "codigo_postal": null,
      "telefono": null,
      "web": null,
      "instagram": null,
      "horario": null,
      "terraza": false
    },
    {
      "id": "osm_node_1349071590",
      "nombre": "Codigo",
      "tipo": "bar",
      "lat": 41.0716908,
      "lon": 1.1470509,
      "direccion": null,
      "codigo_postal": null,
      "telefono": null,
      "web": null,
      "instagram": null,
      "horario": null,
      "terraza": false
    },
    {
      "id": "osm_node_1349071592",
      "nombre": "Mayabar",
      "tipo": "bar",
      "lat": 41.0723156,
      "lon": 1.1446503,
      "direccion": null,
      "codigo_postal": null,
      "telefono": null,
      "web": null,
      "instagram": null,
      "horario": null,
      "terraza": false
    },
    {
      "id": "osm_node_1478861863",
      "nombre": "La Xocolateria",
      "tipo": "cafe",
      "lat": 41.2214432,
      "lon": 1.5345114,
      "direccion": null,
      "codigo_postal": null,
      "telefono": null,
      "web": null,
      "instagram": null,
      "horario": null,
      "terraza": false
    },
    {
      "id": "osm_node_1558640677",
      "nombre": "Bar del Centre Cultural",
      "tipo": "bar",
      "lat": 41.2495811,
      "lon": 1.2959499,
      "direccion": "Carrer Anselm Clavé",
      "codigo_postal": null,
      "telefono": null,
      "web": null,
      "instagram": null,
      "horario": null,
      "terraza": true
    },
    {
      "id": "osm_node_1635119431",
      "nombre": "Bar de la Torre",
      "tipo": "pub",
      "lat": 41.1449681,
      "lon": 1.3950249,
      "direccion": null,
      "codigo_postal": null,
      "telefono": null,
      "web": null,
      "instagram": null,
      "horario": null,
      "terraza": false
    },
    {
      "id": "osm_node_1662345841",
      "nombre": "Bar Frankfurt 2000",
      "tipo": "bar",
      "lat": 41.1382936,
      "lon": 1.2566549,
      "direccion": null,
      "codigo_postal": null,
      "telefono": null,
      "web": null,
      "instagram": null,
      "horario": null,
      "terraza": false
    },
    {
      "id": "osm_node_1664125446",
      "nombre": "La Rambleta",
      "tipo": "cafe",
      "lat": 40.8820877,
      "lon": 0.7990515,
      "direccion": null,
      "codigo_postal": null,
      "telefono": null,
      "web": null,
      "instagram": null,
      "horario": null,
      "terraza": false
    },
    {
      "id": "osm_node_1664125449",
      "nombre": "Delicies",
      "tipo": "cafe",
      "lat": 40.8818831,
      "lon": 0.7992553,
      "direccion": null,
      "codigo_postal": null,
      "telefono": null,
      "web": null,
      "instagram": null,
      "horario": null,
      "terraza": false
    },
    {
      "id": "osm_node_1664145256",
      "nombre": "L'Ancla",
      "tipo": "pub",
      "lat": 40.8850466,
      "lon": 0.8024846,
      "direccion": null,
      "codigo_postal": null,
      "telefono": null,
      "web": null,
      "instagram": null,
      "horario": null,
      "terraza": false
    },
    {
      "id": "osm_node_1664145290",
      "nombre": "Bar Nou",
      "tipo": "cafe",
      "lat": 40.8853302,
      "lon": 0.8027163,
      "direccion": "Plaça de Catalunya",
      "codigo_postal": null,
      "telefono": null,
      "web": null,
      "instagram": null,
      "horario": null,
      "terraza": false
    },
    {
      "id": "osm_node_1664145319",
      "nombre": "El nou Parisien",
      "tipo": "pub",
      "lat": 40.8852285,
      "lon": 0.8029092,
      "direccion": null,
      "codigo_postal": null,
      "telefono": null,
      "web": null,
      "instagram": null,
      "horario": null,
      "terraza": false
    },
    {
      "id": "osm_node_1664145323",
      "nombre": "Classic's",
      "tipo": "pub",
      "lat": 40.8850891,
      "lon": 0.8023866,
      "direccion": null,
      "codigo_postal": null,
      "telefono": null,
      "web": null,
      "instagram": null,
      "horario": null,
      "terraza": false
    },
    {
      "id": "osm_node_1664202473",
      "nombre": "Carisma",
      "tipo": "cafe",
      "lat": 40.8814449,
      "lon": 0.7997077,
      "direccion": null,
      "codigo_postal": null,
      "telefono": null,
      "web": null,
      "instagram": null,
      "horario": null,
      "terraza": false
    },
    {
      "id": "osm_node_1664221805",
      "nombre": "Glop",
      "tipo": "pub",
      "lat": 40.8850017,
      "lon": 0.8028896,
      "direccion": null,
      "codigo_postal": null,
      "telefono": null,
      "web": null,
      "instagram": null,
      "horario": null,
      "terraza": false
    },
    {
      "id": "osm_node_1683979358",
      "nombre": "Jaume I",
      "tipo": "bar",
      "lat": 41.1314899,
      "lon": 1.3064845,
      "direccion": null,
      "codigo_postal": null,
      "telefono": null,
      "web": null,
      "instagram": null,
      "horario": null,
      "terraza": false
    },
    {
      "id": "osm_node_1706551520",
      "nombre": "El secret",
      "tipo": "cafe",
      "lat": 40.7034843,
      "lon": 0.5834285,
      "direccion": "Carrer de Josep Tarradellas 41",
      "codigo_postal": null,
      "telefono": "+34 977708556",
      "web": null,
      "instagram": null,
      "horario": null,
      "terraza": false
    },
    {
      "id": "osm_node_1707620279",
      "nombre": "Bar la Senia",
      "tipo": "pub",
      "lat": 41.126468,
      "lon": 0.8030465,
      "direccion": "Carrer de la Baixada de la Font 3",
      "codigo_postal": "43775",
      "telefono": null,
      "web": null,
      "instagram": null,
      "horario": "08:00-18:00 (Thursday closed )",
      "terraza": false
    },
    {
      "id": "osm_node_1752235683",
      "nombre": "D'ALÚS & TORRES",
      "tipo": "cafe",
      "lat": 40.7194359,
      "lon": 0.7232388,
      "direccion": null,
      "codigo_postal": "43580",
      "telefono": null,
      "web": null,
      "instagram": null,
      "horario": null,
      "terraza": false
    },
    {
      "id": "osm_node_1752647358",
      "nombre": "Bar Tasca",
      "tipo": "bar",
      "lat": 40.6344177,
      "lon": 0.280636,
      "direccion": null,
      "codigo_postal": null,
      "telefono": null,
      "web": null,
      "instagram": null,
      "horario": null,
      "terraza": false
    },
    {
      "id": "osm_node_1755085006",
      "nombre": "Olivier, Raffa Gelati",
      "tipo": "cafe",
      "lat": 41.1136839,
      "lon": 1.2560438,
      "direccion": null,
      "codigo_postal": null,
      "telefono": null,
      "web": null,
      "instagram": null,
      "horario": null,
      "terraza": false
    },
    {
      "id": "osm_node_1774737370",
      "nombre": "Bar Conchi",
      "tipo": "bar",
      "lat": 41.2540054,
      "lon": 1.5008521,
      "direccion": null,
      "codigo_postal": null,
      "telefono": null,
      "web": null,
      "instagram": null,
      "horario": null,
      "terraza": false
    },
    {
      "id": "osm_node_1796255474",
      "nombre": "Café-Bar Ximo",
      "tipo": "cafe",
      "lat": 40.9065965,
      "lon": 0.4907421,
      "direccion": null,
      "codigo_postal": null,
      "telefono": null,
      "web": null,
      "instagram": null,
      "horario": null,
      "terraza": false
    },
    {
      "id": "osm_node_1799674199",
      "nombre": "Bar Manolo",
      "tipo": "cafe",
      "lat": 40.9067177,
      "lon": 0.4904418,
      "direccion": null,
      "codigo_postal": null,
      "telefono": null,
      "web": null,
      "instagram": null,
      "horario": null,
      "terraza": false
    },
    {
      "id": "osm_node_1833274124",
      "nombre": "jijonenca - tutifruti",
      "tipo": "cafe",
      "lat": 41.1897537,
      "lon": 1.6003003,
      "direccion": null,
      "codigo_postal": null,
      "telefono": null,
      "web": null,
      "instagram": null,
      "horario": null,
      "terraza": false
    },
    {
      "id": "osm_node_1833274128",
      "nombre": "Casa segur",
      "tipo": "bar",
      "lat": 41.1898627,
      "lon": 1.6002949,
      "direccion": null,
      "codigo_postal": null,
      "telefono": null,
      "web": null,
      "instagram": null,
      "horario": null,
      "terraza": false
    },
    {
      "id": "osm_node_1834221581",
      "nombre": "Forn de Marià",
      "tipo": "cafe",
      "lat": 40.542665,
      "lon": 0.482873,
      "direccion": null,
      "codigo_postal": null,
      "telefono": null,
      "web": null,
      "instagram": null,
      "horario": null,
      "terraza": false
    },
    {
      "id": "osm_node_1843708792",
      "nombre": "Cafe Melbourne",
      "tipo": "pub",
      "lat": 41.1143814,
      "lon": 1.2411662,
      "direccion": "Avda. Vidal i Barraquer",
      "codigo_postal": "43005",
      "telefono": null,
      "web": null,
      "instagram": null,
      "horario": null,
      "terraza": false
    },
    {
      "id": "osm_node_1845978072",
      "nombre": "Toful de Mar",
      "tipo": "bar",
      "lat": 41.1291412,
      "lon": 1.3023322,
      "direccion": null,
      "codigo_postal": null,
      "telefono": null,
      "web": null,
      "instagram": null,
      "horario": null,
      "terraza": true
    },
    {
      "id": "osm_node_1855820954",
      "nombre": "Bar Niño",
      "tipo": "pub",
      "lat": 40.884404,
      "lon": 0.8028776,
      "direccion": null,
      "codigo_postal": null,
      "telefono": null,
      "web": null,
      "instagram": null,
      "horario": null,
      "terraza": false
    },
    {
      "id": "osm_node_1855820964",
      "nombre": "El Petit Cafè",
      "tipo": "cafe",
      "lat": 40.885275,
      "lon": 0.8028107,
      "direccion": "Plaça de Catalunya 5",
      "codigo_postal": null,
      "telefono": null,
      "web": null,
      "instagram": null,
      "horario": null,
      "terraza": false
    },
    {
      "id": "osm_node_1867872976",
      "nombre": "La Fumera",
      "tipo": "cafe",
      "lat": 41.1518153,
      "lon": 1.1138014,
      "direccion": null,
      "codigo_postal": null,
      "telefono": null,
      "web": null,
      "instagram": null,
      "horario": null,
      "terraza": false
    },
    {
      "id": "osm_node_1877792529",
      "nombre": "Asueto",
      "tipo": "cafe",
      "lat": 41.1324708,
      "lon": 1.246232,
      "direccion": null,
      "codigo_postal": null,
      "telefono": null,
      "web": null,
      "instagram": null,
      "horario": null,
      "terraza": false
    },
    {
      "id": "osm_node_1877794155",
      "nombre": "Cafeteria",
      "tipo": "cafe",
      "lat": 41.1323661,
      "lon": 1.2439026,
      "direccion": null,
      "codigo_postal": null,
      "telefono": null,
      "web": null,
      "instagram": null,
      "horario": null,
      "terraza": false
    },
    {
      "id": "osm_node_1877798667",
      "nombre": "Universal",
      "tipo": "cafe",
      "lat": 41.1320829,
      "lon": 1.2458057,
      "direccion": null,
      "codigo_postal": null,
      "telefono": null,
      "web": null,
      "instagram": null,
      "horario": null,
      "terraza": false
    },
    {
      "id": "osm_node_1879723759",
      "nombre": "Fixa-t'hi",
      "tipo": "pub",
      "lat": 41.1132414,
      "lon": 1.2515192,
      "direccion": null,
      "codigo_postal": null,
      "telefono": null,
      "web": null,
      "instagram": null,
      "horario": null,
      "terraza": false
    },
    {
      "id": "osm_node_1879723760",
      "nombre": "Les Golfes Club",
      "tipo": "pub",
      "lat": 41.1124681,
      "lon": 1.2512825,
      "direccion": null,
      "codigo_postal": null,
      "telefono": null,
      "web": null,
      "instagram": null,
      "horario": null,
      "terraza": false
    },
    {
      "id": "osm_node_1879723761",
      "nombre": "Planetari",
      "tipo": "pub",
      "lat": 41.1120717,
      "lon": 1.2510149,
      "direccion": null,
      "codigo_postal": null,
      "telefono": null,
      "web": null,
      "instagram": null,
      "horario": null,
      "terraza": false
    },
    {
      "id": "osm_node_1879731571",
      "nombre": "Lab noche y día",
      "tipo": "cafe",
      "lat": 41.1137165,
      "lon": 1.2559582,
      "direccion": null,
      "codigo_postal": null,
      "telefono": null,
      "web": null,
      "instagram": null,
      "horario": null,
      "terraza": false
    },
    {
      "id": "osm_node_1880909249",
      "nombre": "Bar Los Hermanos",
      "tipo": "bar",
      "lat": 41.1394021,
      "lon": 1.2541127,
      "direccion": null,
      "codigo_postal": null,
      "telefono": null,
      "web": null,
      "instagram": null,
      "horario": null,
      "terraza": false
    },
    {
      "id": "osm_node_1885346789",
      "nombre": "La Llar del Pernil",
      "tipo": "pub",
      "lat": 41.1122784,
      "lon": 1.2498553,
      "direccion": null,
      "codigo_postal": null,
      "telefono": null,
      "web": null,
      "instagram": null,
      "horario": null,
      "terraza": false
    },
    {
      "id": "osm_node_1932845343",
      "nombre": "Vivari",
      "tipo": "cafe",
      "lat": 41.1549179,
      "lon": 1.1084412,
      "direccion": null,
      "codigo_postal": null,
      "telefono": null,
      "web": null,
      "instagram": null,
      "horario": null,
      "terraza": false
    },
    {
      "id": "osm_node_1937323683",
      "nombre": "Societat Recreativa de Les Peces",
      "tipo": "bar",
      "lat": 41.2540115,
      "lon": 1.4999186,
      "direccion": null,
      "codigo_postal": null,
      "telefono": null,
      "web": null,
      "instagram": null,
      "horario": null,
      "terraza": false
    },
    {
      "id": "osm_node_1940127425",
      "nombre": "Las Copas",
      "tipo": "bar",
      "lat": 41.2524921,
      "lon": 1.504891,
      "direccion": null,
      "codigo_postal": null,
      "telefono": null,
      "web": null,
      "instagram": null,
      "horario": null,
      "terraza": false
    },
    {
      "id": "osm_node_1972678546",
      "nombre": "Mar i Cel",
      "tipo": "cafe",
      "lat": 40.8839021,
      "lon": 0.8022355,
      "direccion": "Carrer Andreu Llambrich",
      "codigo_postal": null,
      "telefono": null,
      "web": null,
      "instagram": null,
      "horario": null,
      "terraza": false
    },
    {
      "id": "osm_node_1972678556",
      "nombre": "Cerveseria Cal Feliu",
      "tipo": "bar",
      "lat": 40.8842034,
      "lon": 0.8017107,
      "direccion": null,
      "codigo_postal": null,
      "telefono": null,
      "web": null,
      "instagram": null,
      "horario": null,
      "terraza": false
    },
    {
      "id": "osm_node_2102523284",
      "nombre": "Chambao",
      "tipo": "cafe",
      "lat": 41.1220287,
      "lon": 1.2721351,
      "direccion": null,
      "codigo_postal": null,
      "telefono": null,
      "web": null,
      "instagram": null,
      "horario": null,
      "terraza": false
    },
    {
      "id": "osm_node_2102524749",
      "nombre": "Moments",
      "tipo": "cafe",
      "lat": 41.1226131,
      "lon": 1.2759561,
      "direccion": null,
      "codigo_postal": null,
      "telefono": null,
      "web": null,
      "instagram": null,
      "horario": null,
      "terraza": false
    },
    {
      "id": "osm_node_2121432723",
      "nombre": "Bar Colomí",
      "tipo": "pub",
      "lat": 41.2620678,
      "lon": 1.171626,
      "direccion": "Passeig de l'Estació",
      "codigo_postal": null,
      "telefono": null,
      "web": null,
      "instagram": null,
      "horario": null,
      "terraza": false
    },
    {
      "id": "osm_node_2121432842",
      "nombre": "Bar Vanessa",
      "tipo": "bar",
      "lat": 41.2614821,
      "lon": 1.1701078,
      "direccion": null,
      "codigo_postal": null,
      "telefono": null,
      "web": null,
      "instagram": null,
      "horario": null,
      "terraza": false
    },
    {
      "id": "osm_node_2121432923",
      "nombre": "Cafeteria Bonillo",
      "tipo": "bar",
      "lat": 41.2614136,
      "lon": 1.1711968,
      "direccion": null,
      "codigo_postal": null,
      "telefono": null,
      "web": null,
      "instagram": null,
      "horario": null,
      "terraza": false
    },
    {
      "id": "osm_node_2131502586",
      "nombre": "Tereca",
      "tipo": "cafe",
      "lat": 41.121779,
      "lon": 1.271544,
      "direccion": null,
      "codigo_postal": null,
      "telefono": null,
      "web": null,
      "instagram": null,
      "horario": null,
      "terraza": false
    },
    {
      "id": "osm_node_2153096503",
      "nombre": "Bar Ermita de la Pietat",
      "tipo": "pub",
      "lat": 40.6330273,
      "lon": 0.4700915,
      "direccion": null,
      "codigo_postal": null,
      "telefono": "+34 977261008;+34 618070523",
      "web": null,
      "instagram": null,
      "horario": "Tu-Fr 09:00-15:00; Sa-Su 09:00-00:00",
      "terraza": false
    },
    {
      "id": "osm_node_2153114563",
      "nombre": "Bar Celedoni",
      "tipo": "bar",
      "lat": 40.597003,
      "lon": 0.4473839,
      "direccion": null,
      "codigo_postal": null,
      "telefono": "+34 977573103",
      "web": null,
      "instagram": null,
      "horario": "Dimarts tancat",
      "terraza": false
    },
    {
      "id": "osm_node_2153114564",
      "nombre": "Bar La Lluna",
      "tipo": "bar",
      "lat": 40.5999446,
      "lon": 0.4507262,
      "direccion": null,
      "codigo_postal": null,
      "telefono": "+34 977 573242",
      "web": null,
      "instagram": null,
      "horario": "Dilluns tancat",
      "terraza": false
    },
    {
      "id": "osm_node_2153114565",
      "nombre": "Bar La Plaça",
      "tipo": "bar",
      "lat": 40.5972555,
      "lon": 0.4474504,
      "direccion": null,
      "codigo_postal": null,
      "telefono": "+34 633 53 53 05",
      "web": null,
      "instagram": null,
      "horario": "Dilluns tancat",
      "terraza": false
    },
    {
      "id": "osm_node_2154051146",
      "nombre": "Bar Alameda",
      "tipo": "bar",
      "lat": 40.5958983,
      "lon": 0.4454917,
      "direccion": null,
      "codigo_postal": null,
      "telefono": "+34 977 72 03 62",
      "web": null,
      "instagram": null,
      "horario": null,
      "terraza": false
    },
    {
      "id": "osm_node_2154070317",
      "nombre": "Bar La Pollera",
      "tipo": "bar",
      "lat": 40.5967309,
      "lon": 0.4470571,
      "direccion": null,
      "codigo_postal": null,
      "telefono": "+34 977 72 07 50",
      "web": null,
      "instagram": null,
      "horario": null,
      "terraza": false
    },
    {
      "id": "osm_node_2154070322",
      "nombre": "Bar Manolo",
      "tipo": "bar",
      "lat": 40.5960441,
      "lon": 0.4450217,
      "direccion": null,
      "codigo_postal": null,
      "telefono": null,
      "web": null,
      "instagram": null,
      "horario": null,
      "terraza": false
    },
    {
      "id": "osm_node_2154070325",
      "nombre": "La Clau",
      "tipo": "cafe",
      "lat": 40.5969315,
      "lon": 0.4431761,
      "direccion": null,
      "codigo_postal": null,
      "telefono": null,
      "web": null,
      "instagram": null,
      "horario": null,
      "terraza": false
    },
    {
      "id": "osm_node_2154077622",
      "nombre": "Bar l'Oficina",
      "tipo": "bar",
      "lat": 40.5975661,
      "lon": 0.4427057,
      "direccion": null,
      "codigo_postal": null,
      "telefono": "+34 647083301",
      "web": null,
      "instagram": null,
      "horario": null,
      "terraza": false
    },
    {
      "id": "osm_node_2154086584",
      "nombre": "Càfe-fleca Feliu",
      "tipo": "cafe",
      "lat": 40.598938,
      "lon": 0.4437753,
      "direccion": null,
      "codigo_postal": null,
      "telefono": null,
      "web": "http://cafeflecafeliu.blogspot.com.es/",
      "instagram": null,
      "horario": null,
      "terraza": false
    },
    {
      "id": "osm_node_2154124215",
      "nombre": "Bar La Cantina",
      "tipo": "bar",
      "lat": 40.6024549,
      "lon": 0.4376355,
      "direccion": null,
      "codigo_postal": null,
      "telefono": "+34 610610701",
      "web": null,
      "instagram": null,
      "horario": null,
      "terraza": false
    },
    {
      "id": "osm_node_2154127303",
      "nombre": "Pub-Bar Glop's",
      "tipo": "pub",
      "lat": 40.5986715,
      "lon": 0.4450786,
      "direccion": null,
      "codigo_postal": null,
      "telefono": "+34 692 18 29 72",
      "web": null,
      "instagram": null,
      "horario": null,
      "terraza": false
    },
    {
      "id": "osm_node_2154135629",
      "nombre": "Quatre barres, forn artesanal",
      "tipo": "cafe",
      "lat": 40.5972248,
      "lon": 0.4434657,
      "direccion": null,
      "codigo_postal": null,
      "telefono": null,
      "web": null,
      "instagram": null,
      "horario": null,
      "terraza": false
    },
    {
      "id": "osm_node_2154177856",
      "nombre": "Bar-Cafè Valverde",
      "tipo": "bar",
      "lat": 40.5984618,
      "lon": 0.4442096,
      "direccion": null,
      "codigo_postal": null,
      "telefono": "+34 977721176",
      "web": null,
      "instagram": null,
      "horario": null,
      "terraza": false
    },
    {
      "id": "osm_node_2154629064",
      "nombre": "Ariparc",
      "tipo": "pub",
      "lat": 40.8851115,
      "lon": 0.8006461,
      "direccion": null,
      "codigo_postal": null,
      "telefono": null,
      "web": null,
      "instagram": null,
      "horario": null,
      "terraza": false
    },
    {
      "id": "osm_node_2154629177",
      "nombre": "No Stress",
      "tipo": "pub",
      "lat": 40.8830568,
      "lon": 0.8021706,
      "direccion": null,
      "codigo_postal": null,
      "telefono": null,
      "web": null,
      "instagram": null,
      "horario": null,
      "terraza": false
    },
    {
      "id": "osm_node_2154629217",
      "nombre": "Taverna del Port",
      "tipo": "pub",
      "lat": 40.880994,
      "lon": 0.8015384,
      "direccion": null,
      "codigo_postal": null,
      "telefono": null,
      "web": null,
      "instagram": null,
      "horario": null,
      "terraza": false
    },
    {
      "id": "osm_node_2154629220",
      "nombre": "Txe Mari",
      "tipo": "pub",
      "lat": 40.8837932,
      "lon": 0.8047434,
      "direccion": null,
      "codigo_postal": null,
      "telefono": null,
      "web": null,
      "instagram": null,
      "horario": null,
      "terraza": false
    },
    {
      "id": "osm_node_2162423112",
      "nombre": "Cappuccino",
      "tipo": "cafe",
      "lat": 41.1167157,
      "lon": 1.2554668,
      "direccion": null,
      "codigo_postal": null,
      "telefono": null,
      "web": null,
      "instagram": null,
      "horario": null,
      "terraza": false
    },
    {
      "id": "osm_node_2162423116",
      "nombre": "Penya Barcelonista",
      "tipo": "pub",
      "lat": 41.1173549,
      "lon": 1.2548426,
      "direccion": null,
      "codigo_postal": null,
      "telefono": null,
      "web": null,
      "instagram": null,
      "horario": null,
      "terraza": false
    },
    {
      "id": "osm_node_2173003464",
      "nombre": "La Cantonada",
      "tipo": "cafe",
      "lat": 40.5969388,
      "lon": 0.4471104,
      "direccion": "C/ Major, 88",
      "codigo_postal": null,
      "telefono": null,
      "web": null,
      "instagram": null,
      "horario": null,
      "terraza": false
    },
    {
      "id": "osm_node_2173065084",
      "nombre": "Bar-Restaurant Coveta dels Gats",
      "tipo": "bar",
      "lat": 40.6097443,
      "lon": 0.3485067,
      "direccion": null,
      "codigo_postal": null,
      "telefono": null,
      "web": null,
      "instagram": null,
      "horario": null,
      "terraza": false
    },
    {
      "id": "osm_node_2173071316",
      "nombre": "Cafeteria Lo Pontet",
      "tipo": "cafe",
      "lat": 40.5963683,
      "lon": 0.4466742,
      "direccion": null,
      "codigo_postal": null,
      "telefono": null,
      "web": null,
      "instagram": null,
      "horario": null,
      "terraza": false
    },
    {
      "id": "osm_node_2174958498",
      "nombre": "Bar El Canyís",
      "tipo": "pub",
      "lat": 40.8757234,
      "lon": 0.7124511,
      "direccion": null,
      "codigo_postal": null,
      "telefono": null,
      "web": null,
      "instagram": null,
      "horario": null,
      "terraza": true
    },
    {
      "id": "osm_node_2174958499",
      "nombre": "Bar La Plaça",
      "tipo": "pub",
      "lat": 40.8757744,
      "lon": 0.7125147,
      "direccion": null,
      "codigo_postal": null,
      "telefono": null,
      "web": null,
      "instagram": null,
      "horario": null,
      "terraza": false
    },
    {
      "id": "osm_node_2174958512",
      "nombre": "Pau",
      "tipo": "cafe",
      "lat": 40.8761439,
      "lon": 0.7128709,
      "direccion": null,
      "codigo_postal": null,
      "telefono": null,
      "web": null,
      "instagram": null,
      "horario": null,
      "terraza": false
    },
    {
      "id": "osm_node_2174958514",
      "nombre": "homogênik",
      "tipo": "pub",
      "lat": 40.8763452,
      "lon": 0.7114395,
      "direccion": null,
      "codigo_postal": null,
      "telefono": null,
      "web": null,
      "instagram": null,
      "horario": null,
      "terraza": false
    },
    {
      "id": "osm_node_2174963277",
      "nombre": "Puntaire",
      "tipo": "pub",
      "lat": 40.873149,
      "lon": 0.7126746,
      "direccion": null,
      "codigo_postal": null,
      "telefono": null,
      "web": null,
      "instagram": null,
      "horario": null,
      "terraza": false
    },
    {
      "id": "osm_node_2291179610",
      "nombre": "Bar Las Vegas",
      "tipo": "bar",
      "lat": 41.1184923,
      "lon": 1.2602254,
      "direccion": null,
      "codigo_postal": null,
      "telefono": null,
      "web": null,
      "instagram": null,
      "horario": null,
      "terraza": false
    },
    {
      "id": "osm_node_2321258392",
      "nombre": "El Casal",
      "tipo": "pub",
      "lat": 40.8760014,
      "lon": 0.7104315,
      "direccion": null,
      "codigo_postal": null,
      "telefono": null,
      "web": null,
      "instagram": null,
      "horario": null,
      "terraza": false
    },
    {
      "id": "osm_node_2419370619",
      "nombre": "As Crechas",
      "tipo": "pub",
      "lat": 41.1177733,
      "lon": 1.2592069,
      "direccion": "Plaça del Fòrum 10",
      "codigo_postal": "43003",
      "telefono": null,
      "web": null,
      "instagram": null,
      "horario": null,
      "terraza": false
    },
    {
      "id": "osm_node_2434432337",
      "nombre": "El Racó de l'Olga",
      "tipo": "cafe",
      "lat": 41.1965518,
      "lon": 1.6359418,
      "direccion": null,
      "codigo_postal": null,
      "telefono": null,
      "web": null,
      "instagram": null,
      "horario": null,
      "terraza": false
    },
    {
      "id": "osm_node_2458538073",
      "nombre": "Bar Casal Municipal",
      "tipo": "bar",
      "lat": 41.1977133,
      "lon": 1.6347052,
      "direccion": null,
      "codigo_postal": null,
      "telefono": null,
      "web": null,
      "instagram": null,
      "horario": null,
      "terraza": false
    },
    {
      "id": "osm_node_2459178372",
      "nombre": "Bar del Celler",
      "tipo": "bar",
      "lat": 41.3209262,
      "lon": 0.8787755,
      "direccion": null,
      "codigo_postal": null,
      "telefono": null,
      "web": null,
      "instagram": null,
      "horario": null,
      "terraza": false
    },
    {
      "id": "osm_node_2476831315",
      "nombre": "Cafeteria La Palmera",
      "tipo": "cafe",
      "lat": 41.1433739,
      "lon": 1.4021779,
      "direccion": null,
      "codigo_postal": null,
      "telefono": null,
      "web": null,
      "instagram": null,
      "horario": null,
      "terraza": false
    },
    {
      "id": "osm_node_2486668236",
      "nombre": "Il Gattopardo",
      "tipo": "cafe",
      "lat": 40.8113522,
      "lon": 0.7083447,
      "direccion": null,
      "codigo_postal": null,
      "telefono": null,
      "web": null,
      "instagram": null,
      "horario": null,
      "terraza": false
    },
    {
      "id": "osm_node_2542835051",
      "nombre": "Vivari",
      "tipo": "cafe",
      "lat": 41.1567144,
      "lon": 1.1126877,
      "direccion": "Riera de Miró 37",
      "codigo_postal": null,
      "telefono": null,
      "web": null,
      "instagram": null,
      "horario": null,
      "terraza": false
    },
    {
      "id": "osm_node_2561645590",
      "nombre": "The Paddock",
      "tipo": "bar",
      "lat": 41.0599825,
      "lon": 1.1646989,
      "direccion": null,
      "codigo_postal": null,
      "telefono": null,
      "web": null,
      "instagram": null,
      "horario": null,
      "terraza": false
    },
    {
      "id": "osm_node_2561894616",
      "nombre": "La Luz del Faro",
      "tipo": "cafe",
      "lat": 41.0586972,
      "lon": 1.1674632,
      "direccion": "Carrer de la Punta del Cavall 2",
      "codigo_postal": "43840",
      "telefono": null,
      "web": null,
      "instagram": null,
      "horario": null,
      "terraza": false
    },
    {
      "id": "osm_node_2561894629",
      "nombre": "The Smugglers inn",
      "tipo": "cafe",
      "lat": 41.0594419,
      "lon": 1.1641,
      "direccion": "Carrer de la Cala de la Font 1",
      "codigo_postal": "43840",
      "telefono": null,
      "web": null,
      "instagram": null,
      "horario": null,
      "terraza": false
    },
    {
      "id": "osm_node_2561894683",
      "nombre": "Cafeteria Cap Salou",
      "tipo": "cafe",
      "lat": 41.060255,
      "lon": 1.1643717,
      "direccion": null,
      "codigo_postal": null,
      "telefono": null,
      "web": null,
      "instagram": null,
      "horario": null,
      "terraza": false
    },
    {
      "id": "osm_node_2561894691",
      "nombre": "Mexican",
      "tipo": "bar",
      "lat": 41.061831,
      "lon": 1.1671853,
      "direccion": null,
      "codigo_postal": null,
      "telefono": null,
      "web": null,
      "instagram": null,
      "horario": null,
      "terraza": false
    },
    {
      "id": "osm_node_2561986673",
      "nombre": "The Knights Inn",
      "tipo": "bar",
      "lat": 41.061654,
      "lon": 1.161803,
      "direccion": null,
      "codigo_postal": null,
      "telefono": null,
      "web": null,
      "instagram": null,
      "horario": null,
      "terraza": false
    },
    {
      "id": "osm_node_2592680440",
      "nombre": "cafè Bowe",
      "tipo": "cafe",
      "lat": 41.1143141,
      "lon": 1.2423105,
      "direccion": "Carrer Eivissa 24",
      "codigo_postal": null,
      "telefono": null,
      "web": null,
      "instagram": null,
      "horario": null,
      "terraza": false
    },
    {
      "id": "osm_node_2602200704",
      "nombre": "Cafè de la Plaça",
      "tipo": "cafe",
      "lat": 41.2656019,
      "lon": 0.9059935,
      "direccion": "Plaça de la Vila 12",
      "codigo_postal": "43360",
      "telefono": null,
      "web": null,
      "instagram": null,
      "horario": null,
      "terraza": true
    },
    {
      "id": "osm_node_2625624104",
      "nombre": "Lo Pati",
      "tipo": "cafe",
      "lat": 40.7607723,
      "lon": 0.5525847,
      "direccion": null,
      "codigo_postal": null,
      "telefono": null,
      "web": null,
      "instagram": null,
      "horario": null,
      "terraza": false
    },
    {
      "id": "osm_node_2625651712",
      "nombre": "Bar Esport",
      "tipo": "bar",
      "lat": 40.760269,
      "lon": 0.5531827,
      "direccion": null,
      "codigo_postal": null,
      "telefono": null,
      "web": null,
      "instagram": null,
      "horario": null,
      "terraza": false
    },
    {
      "id": "osm_node_2654392047",
      "nombre": "La Cocotte",
      "tipo": "cafe",
      "lat": 41.1173444,
      "lon": 1.2594553,
      "direccion": "Plaça d'en Rovellat 13",
      "codigo_postal": "43003",
      "telefono": null,
      "web": "http://www.lacocottecafe.com/ca",
      "instagram": null,
      "horario": null,
      "terraza": false
    },
    {
      "id": "osm_node_2727311510",
      "nombre": "Bar Restaurant Societat Unió Recreativa",
      "tipo": "bar",
      "lat": 41.246572,
      "lon": 0.7327042,
      "direccion": null,
      "codigo_postal": "43373",
      "telefono": null,
      "web": null,
      "instagram": null,
      "horario": null,
      "terraza": false
    },
    {
      "id": "osm_node_2727311517",
      "nombre": "Bar de la piscina",
      "tipo": "bar",
      "lat": 41.2480042,
      "lon": 0.7363849,
      "direccion": null,
      "codigo_postal": null,
      "telefono": null,
      "web": null,
      "instagram": null,
      "horario": null,
      "terraza": false
    },
    {
      "id": "osm_node_2782032763",
      "nombre": "Bar Camp Nou",
      "tipo": "bar",
      "lat": 41.1254192,
      "lon": 1.2722225,
      "direccion": null,
      "codigo_postal": null,
      "telefono": null,
      "web": null,
      "instagram": null,
      "horario": null,
      "terraza": false
    },
    {
      "id": "osm_node_2891764730",
      "nombre": "Pub Marius",
      "tipo": "pub",
      "lat": 41.0417534,
      "lon": 0.6340149,
      "direccion": null,
      "codigo_postal": null,
      "telefono": null,
      "web": null,
      "instagram": null,
      "horario": null,
      "terraza": false
    },
    {
      "id": "osm_node_2928804214",
      "nombre": "Aloha",
      "tipo": "bar",
      "lat": 41.1945478,
      "lon": 1.635322,
      "direccion": null,
      "codigo_postal": null,
      "telefono": null,
      "web": null,
      "instagram": null,
      "horario": null,
      "terraza": false
    },
    {
      "id": "osm_node_2953789252",
      "nombre": "Paco",
      "tipo": "bar",
      "lat": 41.1905365,
      "lon": 1.6044792,
      "direccion": null,
      "codigo_postal": null,
      "telefono": null,
      "web": null,
      "instagram": null,
      "horario": null,
      "terraza": false
    },
    {
      "id": "osm_node_2963344426",
      "nombre": "Centre Cultural",
      "tipo": "cafe",
      "lat": 40.6699343,
      "lon": 0.7536566,
      "direccion": null,
      "codigo_postal": null,
      "telefono": null,
      "web": null,
      "instagram": null,
      "horario": null,
      "terraza": false
    },
    {
      "id": "osm_node_2984598757",
      "nombre": "A Xalar",
      "tipo": "bar",
      "lat": 40.8839405,
      "lon": 0.8036462,
      "direccion": null,
      "codigo_postal": null,
      "telefono": null,
      "web": null,
      "instagram": null,
      "horario": null,
      "terraza": false
    },
    {
      "id": "osm_node_2984598758",
      "nombre": "Bar Merino",
      "tipo": "bar",
      "lat": 40.8830299,
      "lon": 0.8032715,
      "direccion": null,
      "codigo_postal": null,
      "telefono": null,
      "web": null,
      "instagram": null,
      "horario": null,
      "terraza": false
    },
    {
      "id": "osm_node_2986037525",
      "nombre": "Bar Trebol",
      "tipo": "bar",
      "lat": 40.908419,
      "lon": 0.809161,
      "direccion": null,
      "codigo_postal": null,
      "telefono": null,
      "web": null,
      "instagram": null,
      "horario": null,
      "terraza": false
    },
    {
      "id": "osm_node_2986066960",
      "nombre": "Granja Bar",
      "tipo": "bar",
      "lat": 40.9273437,
      "lon": 0.8426442,
      "direccion": null,
      "codigo_postal": null,
      "telefono": null,
      "web": null,
      "instagram": null,
      "horario": null,
      "terraza": true
    },
    {
      "id": "osm_node_2989013387",
      "nombre": "Txiringuito de Festes",
      "tipo": "bar",
      "lat": 40.6688899,
      "lon": 0.7586012,
      "direccion": null,
      "codigo_postal": null,
      "telefono": null,
      "web": null,
      "instagram": null,
      "horario": "Aug \"La setmana de festes majors,sobre el 10 d'agost\"",
      "terraza": false
    },
    {
      "id": "osm_node_2989021549",
      "nombre": "Bar Bayo",
      "tipo": "bar",
      "lat": 40.6703122,
      "lon": 0.7522408,
      "direccion": null,
      "codigo_postal": null,
      "telefono": null,
      "web": null,
      "instagram": null,
      "horario": null,
      "terraza": false
    },
    {
      "id": "osm_node_3027061757",
      "nombre": "New City",
      "tipo": "bar",
      "lat": 41.1099688,
      "lon": 1.2419753,
      "direccion": null,
      "codigo_postal": null,
      "telefono": null,
      "web": null,
      "instagram": null,
      "horario": null,
      "terraza": false
    },
    {
      "id": "osm_node_3033374177",
      "nombre": "Bar 9",
      "tipo": "pub",
      "lat": 40.7235565,
      "lon": 0.6999405,
      "direccion": null,
      "codigo_postal": null,
      "telefono": null,
      "web": null,
      "instagram": null,
      "horario": null,
      "terraza": false
    },
    {
      "id": "osm_node_3094260585",
      "nombre": "The Butler",
      "tipo": "bar",
      "lat": 41.0759067,
      "lon": 1.147003,
      "direccion": null,
      "codigo_postal": null,
      "telefono": null,
      "web": null,
      "instagram": null,
      "horario": null,
      "terraza": false
    },
    {
      "id": "osm_node_3095316386",
      "nombre": "Tiki-Taka",
      "tipo": "pub",
      "lat": 40.5435821,
      "lon": 0.4859438,
      "direccion": "Carrer Sant Carles 60",
      "codigo_postal": "43530",
      "telefono": null,
      "web": null,
      "instagram": null,
      "horario": null,
      "terraza": false
    },
    {
      "id": "osm_node_3095366839",
      "nombre": "Cuc Sonat",
      "tipo": "pub",
      "lat": 40.5436311,
      "lon": 0.4861475,
      "direccion": "Carrer Sant Carles 62",
      "codigo_postal": "43530",
      "telefono": null,
      "web": null,
      "instagram": null,
      "horario": null,
      "terraza": false
    },
    {
      "id": "osm_node_3096021077",
      "nombre": "Bar Moreno",
      "tipo": "cafe",
      "lat": 40.5430469,
      "lon": 0.4807932,
      "direccion": "Plaça Major",
      "codigo_postal": "43530",
      "telefono": null,
      "web": null,
      "instagram": null,
      "horario": null,
      "terraza": false
    },
    {
      "id": "osm_node_3096021079",
      "nombre": "la Llesca",
      "tipo": "cafe",
      "lat": 40.5429528,
      "lon": 0.4810714,
      "direccion": null,
      "codigo_postal": null,
      "telefono": null,
      "web": null,
      "instagram": null,
      "horario": null,
      "terraza": false
    },
    {
      "id": "osm_node_3096110840",
      "nombre": "Bar Paella",
      "tipo": "cafe",
      "lat": 40.5420984,
      "lon": 0.4815829,
      "direccion": "Carrer de Josep Matamoros i Sancho 7",
      "codigo_postal": "43530",
      "telefono": null,
      "web": null,
      "instagram": null,
      "horario": null,
      "terraza": false
    },
    {
      "id": "osm_node_3096113563",
      "nombre": "Pa d'art",
      "tipo": "bar",
      "lat": 40.5414775,
      "lon": 0.4808173,
      "direccion": "Avinguda de Catalunya 60",
      "codigo_postal": "43530",
      "telefono": null,
      "web": null,
      "instagram": null,
      "horario": null,
      "terraza": false
    },
    {
      "id": "osm_node_3097606174",
      "nombre": "La Volta",
      "tipo": "cafe",
      "lat": 40.5411659,
      "lon": 0.481445,
      "direccion": "Carrer de Ramón y Cajal 35",
      "codigo_postal": null,
      "telefono": null,
      "web": null,
      "instagram": null,
      "horario": null,
      "terraza": false
    },
    {
      "id": "osm_node_3127468962",
      "nombre": "El Cafè",
      "tipo": "bar",
      "lat": 41.2200061,
      "lon": 0.7630588,
      "direccion": null,
      "codigo_postal": null,
      "telefono": null,
      "web": null,
      "instagram": null,
      "horario": null,
      "terraza": false
    },
    {
      "id": "osm_node_3197375360",
      "nombre": "Verdi",
      "tipo": "cafe",
      "lat": 41.1210654,
      "lon": 1.2511327,
      "direccion": null,
      "codigo_postal": null,
      "telefono": null,
      "web": null,
      "instagram": null,
      "horario": null,
      "terraza": false
    },
    {
      "id": "osm_node_3197375661",
      "nombre": "Chaplin",
      "tipo": "cafe",
      "lat": 41.1210088,
      "lon": 1.2512266,
      "direccion": null,
      "codigo_postal": null,
      "telefono": null,
      "web": null,
      "instagram": null,
      "horario": null,
      "terraza": false
    },
    {
      "id": "osm_node_3216358921",
      "nombre": "Amsteleria",
      "tipo": "pub",
      "lat": 41.112837,
      "lon": 1.2418158,
      "direccion": "Carrer Cardenal Vidal i Barraquer 44",
      "codigo_postal": "43005",
      "telefono": null,
      "web": null,
      "instagram": null,
      "horario": null,
      "terraza": false
    },
    {
      "id": "osm_node_3247761988",
      "nombre": "Bar Gil",
      "tipo": "bar",
      "lat": 41.2207626,
      "lon": 1.5280885,
      "direccion": null,
      "codigo_postal": null,
      "telefono": null,
      "web": null,
      "instagram": null,
      "horario": null,
      "terraza": false
    },
    {
      "id": "osm_node_3247772448",
      "nombre": "Cerveseria el Racó",
      "tipo": "pub",
      "lat": 41.221135,
      "lon": 1.5342552,
      "direccion": null,
      "codigo_postal": null,
      "telefono": null,
      "web": null,
      "instagram": null,
      "horario": null,
      "terraza": false
    },
    {
      "id": "osm_node_3507484484",
      "nombre": "Le Ibense",
      "tipo": "cafe",
      "lat": 41.0769875,
      "lon": 1.1305281,
      "direccion": null,
      "codigo_postal": null,
      "telefono": null,
      "web": null,
      "instagram": null,
      "horario": null,
      "terraza": false
    },
    {
      "id": "osm_node_3508800354",
      "nombre": "Cal Noi",
      "tipo": "bar",
      "lat": 41.1991396,
      "lon": 1.5695486,
      "direccion": null,
      "codigo_postal": null,
      "telefono": null,
      "web": null,
      "instagram": null,
      "horario": null,
      "terraza": false
    },
    {
      "id": "osm_node_3594824897",
      "nombre": "Bar Ca la Mari",
      "tipo": "cafe",
      "lat": 41.1350479,
      "lon": 1.3771192,
      "direccion": null,
      "codigo_postal": null,
      "telefono": null,
      "web": null,
      "instagram": null,
      "horario": null,
      "terraza": false
    },
    {
      "id": "osm_node_3624480217",
      "nombre": "Bar Manolo",
      "tipo": "pub",
      "lat": 40.9556685,
      "lon": 0.3148606,
      "direccion": null,
      "codigo_postal": null,
      "telefono": null,
      "web": null,
      "instagram": null,
      "horario": null,
      "terraza": false
    },
    {
      "id": "osm_node_3624480218",
      "nombre": "Cafè La Bassa",
      "tipo": "cafe",
      "lat": 40.9557704,
      "lon": 0.3150406,
      "direccion": null,
      "codigo_postal": null,
      "telefono": null,
      "web": null,
      "instagram": null,
      "horario": null,
      "terraza": false
    },
    {
      "id": "osm_node_3671735993",
      "nombre": "El Tinglado",
      "tipo": "bar",
      "lat": 41.083004,
      "lon": 1.1457391,
      "direccion": null,
      "codigo_postal": null,
      "telefono": null,
      "web": null,
      "instagram": null,
      "horario": null,
      "terraza": false
    },
    {
      "id": "osm_node_3671735994",
      "nombre": "La Bodeguita del Medio",
      "tipo": "bar",
      "lat": 41.0828124,
      "lon": 1.1459312,
      "direccion": null,
      "codigo_postal": null,
      "telefono": null,
      "web": null,
      "instagram": null,
      "horario": "09:00+",
      "terraza": false
    },
    {
      "id": "osm_node_3671735996",
      "nombre": "Mango Bongo",
      "tipo": "bar",
      "lat": 41.081659,
      "lon": 1.1465163,
      "direccion": null,
      "codigo_postal": null,
      "telefono": null,
      "web": null,
      "instagram": null,
      "horario": "08:00-20:00",
      "terraza": false
    },
    {
      "id": "osm_node_3671735998",
      "nombre": "Salsa Café",
      "tipo": "cafe",
      "lat": 41.083352,
      "lon": 1.1450233,
      "direccion": null,
      "codigo_postal": null,
      "telefono": null,
      "web": null,
      "instagram": null,
      "horario": "08:00-20:00",
      "terraza": false
    },
    {
      "id": "osm_node_3750389291",
      "nombre": "Xocola-t",
      "tipo": "cafe",
      "lat": 40.5969292,
      "lon": 0.4437199,
      "direccion": "Calvari",
      "codigo_postal": "43550",
      "telefono": null,
      "web": null,
      "instagram": null,
      "horario": null,
      "terraza": false
    },
    {
      "id": "osm_node_3751438648",
      "nombre": "Cafeteria Boliche",
      "tipo": "cafe",
      "lat": 41.151609,
      "lon": 1.102429,
      "direccion": null,
      "codigo_postal": null,
      "telefono": null,
      "web": null,
      "instagram": null,
      "horario": null,
      "terraza": false
    },
    {
      "id": "osm_node_3751585483",
      "nombre": "Mesón Valencia",
      "tipo": "bar",
      "lat": 41.150416,
      "lon": 1.1010797,
      "direccion": null,
      "codigo_postal": null,
      "telefono": null,
      "web": null,
      "instagram": null,
      "horario": null,
      "terraza": false
    },
    {
      "id": "osm_node_3751602449",
      "nombre": "Cafe Sofia",
      "tipo": "cafe",
      "lat": 41.15045,
      "lon": 1.1007814,
      "direccion": null,
      "codigo_postal": null,
      "telefono": null,
      "web": null,
      "instagram": null,
      "horario": null,
      "terraza": false
    },
    {
      "id": "osm_node_3753267015",
      "nombre": "Cafe-Bar Palmeras",
      "tipo": "cafe",
      "lat": 41.1505058,
      "lon": 1.0992444,
      "direccion": null,
      "codigo_postal": null,
      "telefono": null,
      "web": null,
      "instagram": null,
      "horario": null,
      "terraza": false
    },
    {
      "id": "osm_node_3753267016",
      "nombre": "Cafeteria Marrameu",
      "tipo": "cafe",
      "lat": 41.1518502,
      "lon": 1.1003621,
      "direccion": null,
      "codigo_postal": null,
      "telefono": null,
      "web": null,
      "instagram": null,
      "horario": null,
      "terraza": false
    },
    {
      "id": "osm_node_3753267017",
      "nombre": "Cafetería London",
      "tipo": "cafe",
      "lat": 41.1532859,
      "lon": 1.0994929,
      "direccion": null,
      "codigo_postal": null,
      "telefono": null,
      "web": null,
      "instagram": null,
      "horario": null,
      "terraza": false
    },
    {
      "id": "osm_node_3753267018",
      "nombre": "Diari",
      "tipo": "pub",
      "lat": 41.1523692,
      "lon": 1.1025492,
      "direccion": null,
      "codigo_postal": null,
      "telefono": null,
      "web": null,
      "instagram": null,
      "horario": null,
      "terraza": false
    },
    {
      "id": "osm_node_3753267019",
      "nombre": "El racó del parc",
      "tipo": "bar",
      "lat": 41.1502417,
      "lon": 1.0986052,
      "direccion": null,
      "codigo_postal": null,
      "telefono": null,
      "web": null,
      "instagram": null,
      "horario": null,
      "terraza": false
    },
    {
      "id": "osm_node_3753267020",
      "nombre": "Frankfurt Cafeteria Mare Molas",
      "tipo": "cafe",
      "lat": 41.1505759,
      "lon": 1.0989032,
      "direccion": null,
      "codigo_postal": null,
      "telefono": null,
      "web": null,
      "instagram": null,
      "horario": null,
      "terraza": false
    },
    {
      "id": "osm_node_3753267021",
      "nombre": "L'Osteria Sol i Lluna",
      "tipo": "cafe",
      "lat": 41.1516357,
      "lon": 1.1004221,
      "direccion": null,
      "codigo_postal": null,
      "telefono": null,
      "web": null,
      "instagram": null,
      "horario": null,
      "terraza": false
    },
    {
      "id": "osm_node_3753267022",
      "nombre": "La jarra",
      "tipo": "bar",
      "lat": 41.1513989,
      "lon": 1.1012646,
      "direccion": null,
      "codigo_postal": null,
      "telefono": null,
      "web": null,
      "instagram": null,
      "horario": null,
      "terraza": false
    },
    {
      "id": "osm_node_3753267023",
      "nombre": "La llar del Mos",
      "tipo": "bar",
      "lat": 41.1497926,
      "lon": 1.0985216,
      "direccion": null,
      "codigo_postal": null,
      "telefono": null,
      "web": null,
      "instagram": null,
      "horario": null,
      "terraza": false
    },
    {
      "id": "osm_node_3753275125",
      "nombre": "Punt de trobada",
      "tipo": "bar",
      "lat": 41.1512191,
      "lon": 1.1007435,
      "direccion": null,
      "codigo_postal": null,
      "telefono": null,
      "web": null,
      "instagram": null,
      "horario": null,
      "terraza": false
    },
    {
      "id": "osm_node_3753275128",
      "nombre": "Salvadó",
      "tipo": "bar",
      "lat": 41.151959,
      "lon": 1.1000415,
      "direccion": null,
      "codigo_postal": null,
      "telefono": null,
      "web": null,
      "instagram": null,
      "horario": null,
      "terraza": false
    },
    {
      "id": "osm_node_3753275131",
      "nombre": "el Molí",
      "tipo": "cafe",
      "lat": 41.1532793,
      "lon": 1.1008425,
      "direccion": null,
      "codigo_postal": null,
      "telefono": null,
      "web": null,
      "instagram": null,
      "horario": null,
      "terraza": false
    },
    {
      "id": "osm_node_3771853400",
      "nombre": "Capitan's Refuge",
      "tipo": "bar",
      "lat": 41.0858851,
      "lon": 1.1589695,
      "direccion": null,
      "codigo_postal": null,
      "telefono": null,
      "web": null,
      "instagram": null,
      "horario": null,
      "terraza": false
    },
    {
      "id": "osm_node_3787130993",
      "nombre": "la Renaixença",
      "tipo": "cafe",
      "lat": 41.2642612,
      "lon": 0.9044472,
      "direccion": "Carrer del Comte de Rius 7",
      "codigo_postal": "43360",
      "telefono": null,
      "web": null,
      "instagram": null,
      "horario": null,
      "terraza": true
    },
    {
      "id": "osm_node_3787131051",
      "nombre": "Àtic",
      "tipo": "bar",
      "lat": 41.2645043,
      "lon": 0.9045083,
      "direccion": null,
      "codigo_postal": null,
      "telefono": null,
      "web": null,
      "instagram": null,
      "horario": null,
      "terraza": false
    },
    {
      "id": "osm_node_3799736224",
      "nombre": "Media Lounge Bar",
      "tipo": "bar",
      "lat": 41.030721,
      "lon": 0.9686158,
      "direccion": null,
      "codigo_postal": null,
      "telefono": null,
      "web": null,
      "instagram": null,
      "horario": null,
      "terraza": true
    },
    {
      "id": "osm_node_3827608070",
      "nombre": "Bar del Casal",
      "tipo": "cafe",
      "lat": 40.9106902,
      "lon": 0.2618172,
      "direccion": null,
      "codigo_postal": null,
      "telefono": null,
      "web": null,
      "instagram": null,
      "horario": null,
      "terraza": false
    },
    {
      "id": "osm_node_4052452716",
      "nombre": "Cacao",
      "tipo": "bar",
      "lat": 41.0680493,
      "lon": 1.1765321,
      "direccion": null,
      "codigo_postal": null,
      "telefono": null,
      "web": null,
      "instagram": null,
      "horario": null,
      "terraza": true
    },
    {
      "id": "osm_node_4104880969",
      "nombre": "Groove",
      "tipo": "bar",
      "lat": 41.1139901,
      "lon": 1.2507905,
      "direccion": "Carrer del Cardenal Cervantes 4",
      "codigo_postal": "43001",
      "telefono": "+34 665 15 99 21",
      "web": null,
      "instagram": null,
      "horario": "23:00-03:00",
      "terraza": false
    },
    {
      "id": "osm_node_4108323901",
      "nombre": "Bar Parc Francolí",
      "tipo": "bar",
      "lat": 41.1200223,
      "lon": 1.2372063,
      "direccion": null,
      "codigo_postal": null,
      "telefono": null,
      "web": "http://www.onada.org",
      "instagram": null,
      "horario": null,
      "terraza": false
    },
    {
      "id": "osm_node_4108452105",
      "nombre": "La Clandestina",
      "tipo": "cafe",
      "lat": 41.1231653,
      "lon": 1.2392928,
      "direccion": "Carrer dels Set Lledoners 1",
      "codigo_postal": "43005",
      "telefono": "+34600702006",
      "web": null,
      "instagram": null,
      "horario": null,
      "terraza": true
    },
    {
      "id": "osm_node_4108480389",
      "nombre": "VIVARI",
      "tipo": "cafe",
      "lat": 41.1231289,
      "lon": 1.237727,
      "direccion": null,
      "codigo_postal": null,
      "telefono": null,
      "web": "https://vivari.es/",
      "instagram": null,
      "horario": null,
      "terraza": false
    },
    {
      "id": "osm_node_4128322121",
      "nombre": "Cafè Bar l'Estrella",
      "tipo": "bar",
      "lat": 41.5307634,
      "lon": 1.3812628,
      "direccion": null,
      "codigo_postal": null,
      "telefono": null,
      "web": null,
      "instagram": null,
      "horario": null,
      "terraza": false
    },
    {
      "id": "osm_node_4151668424",
      "nombre": "La Pedrera",
      "tipo": "pub",
      "lat": 40.7202333,
      "lon": 0.7281984,
      "direccion": null,
      "codigo_postal": null,
      "telefono": null,
      "web": null,
      "instagram": null,
      "horario": null,
      "terraza": false
    },
    {
      "id": "osm_node_4204895736",
      "nombre": "AmBar",
      "tipo": "bar",
      "lat": 41.0790716,
      "lon": 1.1433307,
      "direccion": null,
      "codigo_postal": null,
      "telefono": null,
      "web": null,
      "instagram": null,
      "horario": null,
      "terraza": false
    },
    {
      "id": "osm_node_4204897024",
      "nombre": "Vimar",
      "tipo": "bar",
      "lat": 41.0791946,
      "lon": 1.1345795,
      "direccion": null,
      "codigo_postal": null,
      "telefono": null,
      "web": null,
      "instagram": null,
      "horario": null,
      "terraza": false
    },
    {
      "id": "osm_node_4207437514",
      "nombre": "Tip Top",
      "tipo": "cafe",
      "lat": 41.0761867,
      "lon": 1.1397644,
      "direccion": null,
      "codigo_postal": null,
      "telefono": null,
      "web": null,
      "instagram": null,
      "horario": null,
      "terraza": true
    },
    {
      "id": "osm_node_4207672770",
      "nombre": "Don Quichotte",
      "tipo": "bar",
      "lat": 41.0703998,
      "lon": 1.1470895,
      "direccion": null,
      "codigo_postal": null,
      "telefono": null,
      "web": null,
      "instagram": null,
      "horario": null,
      "terraza": false
    },
    {
      "id": "osm_node_4207834088",
      "nombre": "Diamant",
      "tipo": "cafe",
      "lat": 41.0781417,
      "lon": 1.1319018,
      "direccion": null,
      "codigo_postal": null,
      "telefono": null,
      "web": null,
      "instagram": null,
      "horario": null,
      "terraza": true
    },
    {
      "id": "osm_node_4207836189",
      "nombre": "Fuel",
      "tipo": "cafe",
      "lat": 41.0793995,
      "lon": 1.1295172,
      "direccion": null,
      "codigo_postal": null,
      "telefono": null,
      "web": null,
      "instagram": null,
      "horario": null,
      "terraza": false
    },
    {
      "id": "osm_node_4207836190",
      "nombre": "LaMur",
      "tipo": "cafe",
      "lat": 41.075007,
      "lon": 1.1324979,
      "direccion": null,
      "codigo_postal": null,
      "telefono": null,
      "web": null,
      "instagram": null,
      "horario": null,
      "terraza": false
    },
    {
      "id": "osm_node_4207836612",
      "nombre": "Sol",
      "tipo": "cafe",
      "lat": 41.0793721,
      "lon": 1.1301875,
      "direccion": null,
      "codigo_postal": null,
      "telefono": null,
      "web": null,
      "instagram": null,
      "horario": null,
      "terraza": false
    },
    {
      "id": "osm_node_4207925489",
      "nombre": "Cafe de Paris",
      "tipo": "cafe",
      "lat": 41.074261,
      "lon": 1.1152963,
      "direccion": null,
      "codigo_postal": null,
      "telefono": null,
      "web": null,
      "instagram": null,
      "horario": null,
      "terraza": false
    },
    {
      "id": "osm_node_4207925490",
      "nombre": "Central",
      "tipo": "cafe",
      "lat": 41.0742663,
      "lon": 1.1179261,
      "direccion": null,
      "codigo_postal": null,
      "telefono": null,
      "web": null,
      "instagram": null,
      "horario": null,
      "terraza": true
    },
    {
      "id": "osm_node_4207925492",
      "nombre": "Martins Bar",
      "tipo": "bar",
      "lat": 41.0742842,
      "lon": 1.1154221,
      "direccion": null,
      "codigo_postal": null,
      "telefono": null,
      "web": null,
      "instagram": null,
      "horario": null,
      "terraza": false
    },
    {
      "id": "osm_node_4207925494",
      "nombre": "Saoko Beach Bar",
      "tipo": "bar",
      "lat": 41.0752791,
      "lon": 1.1294155,
      "direccion": null,
      "codigo_postal": null,
      "telefono": null,
      "web": null,
      "instagram": null,
      "horario": null,
      "terraza": false
    },
    {
      "id": "osm_node_4207925538",
      "nombre": "Xiringuito Elektra",
      "tipo": "cafe",
      "lat": 41.0750597,
      "lon": 1.1245285,
      "direccion": null,
      "codigo_postal": null,
      "telefono": null,
      "web": "https://xiringuitoelektra.com/",
      "instagram": null,
      "horario": null,
      "terraza": true
    },
    {
      "id": "osm_node_4207926189",
      "nombre": "Tik Tak Beach",
      "tipo": "cafe",
      "lat": 41.074698,
      "lon": 1.1220916,
      "direccion": null,
      "codigo_postal": null,
      "telefono": null,
      "web": null,
      "instagram": null,
      "horario": null,
      "terraza": false
    },
    {
      "id": "osm_node_4314762017",
      "nombre": "llevant Minigolf",
      "tipo": "pub",
      "lat": 41.0726164,
      "lon": 1.1091138,
      "direccion": "Avinguda de la Diputació",
      "codigo_postal": null,
      "telefono": null,
      "web": null,
      "instagram": null,
      "horario": null,
      "terraza": false
    },
    {
      "id": "osm_node_4334070480",
      "nombre": "Möss",
      "tipo": "bar",
      "lat": 40.991466,
      "lon": 0.9215122,
      "direccion": null,
      "codigo_postal": null,
      "telefono": null,
      "web": null,
      "instagram": null,
      "horario": null,
      "terraza": false
    },
    {
      "id": "osm_node_4339656689",
      "nombre": "Vintage",
      "tipo": "bar",
      "lat": 41.0785812,
      "lon": 1.1812014,
      "direccion": "Carrer d'Alfredo Kraus 5",
      "codigo_postal": "43481",
      "telefono": "+34 676658114",
      "web": null,
      "instagram": null,
      "horario": null,
      "terraza": false
    },
    {
      "id": "osm_node_4344489290",
      "nombre": "La martí",
      "tipo": "cafe",
      "lat": 41.1184298,
      "lon": 1.2429973,
      "direccion": "Avinguda de Roma 5B",
      "codigo_postal": null,
      "telefono": null,
      "web": null,
      "instagram": null,
      "horario": null,
      "terraza": false
    },
    {
      "id": "osm_node_4350500489",
      "nombre": "Bar Metal Heart",
      "tipo": "bar",
      "lat": 41.1127497,
      "lon": 1.2435695,
      "direccion": null,
      "codigo_postal": null,
      "telefono": null,
      "web": null,
      "instagram": null,
      "horario": "Mo-Sa 18:00-03:00",
      "terraza": false
    },
    {
      "id": "osm_node_4379538514",
      "nombre": "la finestra",
      "tipo": "pub",
      "lat": 41.1151392,
      "lon": 1.25564,
      "direccion": null,
      "codigo_postal": null,
      "telefono": null,
      "web": null,
      "instagram": null,
      "horario": null,
      "terraza": false
    },
    {
      "id": "osm_node_4385068198",
      "nombre": "Les granotes terraça",
      "tipo": "cafe",
      "lat": 41.1154026,
      "lon": 1.257853,
      "direccion": null,
      "codigo_postal": null,
      "telefono": null,
      "web": "http://lesgranotes.es",
      "instagram": null,
      "horario": null,
      "terraza": false
    },
    {
      "id": "osm_node_4393358747",
      "nombre": "La Maduixa",
      "tipo": "cafe",
      "lat": 41.1177744,
      "lon": 1.2593988,
      "direccion": null,
      "codigo_postal": null,
      "telefono": null,
      "web": null,
      "instagram": null,
      "horario": null,
      "terraza": false
    },
    {
      "id": "osm_node_4395394091",
      "nombre": "K-TOKA",
      "tipo": "bar",
      "lat": 41.1395148,
      "lon": 1.3736937,
      "direccion": null,
      "codigo_postal": null,
      "telefono": null,
      "web": null,
      "instagram": null,
      "horario": null,
      "terraza": false
    },
    {
      "id": "osm_node_4395405689",
      "nombre": "Gori",
      "tipo": "bar",
      "lat": 41.1351507,
      "lon": 1.3799613,
      "direccion": null,
      "codigo_postal": null,
      "telefono": null,
      "web": null,
      "instagram": null,
      "horario": null,
      "terraza": false
    },
    {
      "id": "osm_node_4395405790",
      "nombre": "el chiringito",
      "tipo": "bar",
      "lat": 41.133306,
      "lon": 1.3736799,
      "direccion": null,
      "codigo_postal": null,
      "telefono": null,
      "web": null,
      "instagram": null,
      "horario": null,
      "terraza": false
    },
    {
      "id": "osm_node_4395407892",
      "nombre": "La chunga",
      "tipo": "bar",
      "lat": 41.1385849,
      "lon": 1.3753677,
      "direccion": null,
      "codigo_postal": null,
      "telefono": null,
      "web": null,
      "instagram": null,
      "horario": null,
      "terraza": false
    },
    {
      "id": "osm_node_4395407896",
      "nombre": "Faristol",
      "tipo": "pub",
      "lat": 41.1420635,
      "lon": 1.377012,
      "direccion": null,
      "codigo_postal": null,
      "telefono": null,
      "web": null,
      "instagram": null,
      "horario": "Mo-Sa 19:00-02:00",
      "terraza": false
    },
    {
      "id": "osm_node_4395426790",
      "nombre": "Heladería",
      "tipo": "bar",
      "lat": 41.1341442,
      "lon": 1.3781925,
      "direccion": null,
      "codigo_postal": null,
      "telefono": null,
      "web": null,
      "instagram": null,
      "horario": null,
      "terraza": false
    },
    {
      "id": "osm_node_4395426791",
      "nombre": "Heladería",
      "tipo": "pub",
      "lat": 41.1353476,
      "lon": 1.3785545,
      "direccion": null,
      "codigo_postal": null,
      "telefono": null,
      "web": null,
      "instagram": null,
      "horario": null,
      "terraza": false
    },
    {
      "id": "osm_node_4417112393",
      "nombre": "Sprint",
      "tipo": "bar",
      "lat": 40.6240357,
      "lon": 0.5898557,
      "direccion": null,
      "codigo_postal": null,
      "telefono": null,
      "web": null,
      "instagram": null,
      "horario": null,
      "terraza": false
    },
    {
      "id": "osm_node_4422778848",
      "nombre": "Espardenya",
      "tipo": "pub",
      "lat": 41.0816173,
      "lon": 1.1836586,
      "direccion": null,
      "codigo_postal": null,
      "telefono": null,
      "web": null,
      "instagram": null,
      "horario": null,
      "terraza": false
    },
    {
      "id": "osm_node_4493312465",
      "nombre": "La Vinya",
      "tipo": "bar",
      "lat": 41.2839569,
      "lon": 1.5523855,
      "direccion": null,
      "codigo_postal": null,
      "telefono": null,
      "web": null,
      "instagram": null,
      "horario": null,
      "terraza": false
    },
    {
      "id": "osm_node_4587444132",
      "nombre": "Cor del Delta",
      "tipo": "pub",
      "lat": 40.6451966,
      "lon": 0.6865528,
      "direccion": null,
      "codigo_postal": null,
      "telefono": null,
      "web": null,
      "instagram": null,
      "horario": null,
      "terraza": false
    },
    {
      "id": "osm_node_4589432169",
      "nombre": "Masdeu",
      "tipo": "cafe",
      "lat": 40.6197895,
      "lon": 0.593049,
      "direccion": null,
      "codigo_postal": null,
      "telefono": null,
      "web": null,
      "instagram": null,
      "horario": null,
      "terraza": false
    },
    {
      "id": "osm_node_4595337710",
      "nombre": "La Traviesa",
      "tipo": "pub",
      "lat": 41.1430168,
      "lon": 1.4035487,
      "direccion": "Carrer de Girona 5",
      "codigo_postal": "43830",
      "telefono": "+34 977 64 28 35",
      "web": "https://www.latraviesa.es/",
      "instagram": null,
      "horario": null,
      "terraza": true
    },
    {
      "id": "osm_node_4606478665",
      "nombre": "Bar Terra Alta",
      "tipo": "pub",
      "lat": 41.0763094,
      "lon": 0.4744109,
      "direccion": "Carrer de la Terra Alta 17",
      "codigo_postal": "43784",
      "telefono": "+34 977420831",
      "web": null,
      "instagram": null,
      "horario": null,
      "terraza": false
    },
    {
      "id": "osm_node_4634972336",
      "nombre": "Vivari",
      "tipo": "cafe",
      "lat": 41.1565462,
      "lon": 1.1019802,
      "direccion": "Plaça Nen de les Oques 3",
      "codigo_postal": null,
      "telefono": null,
      "web": null,
      "instagram": null,
      "horario": null,
      "terraza": false
    },
    {
      "id": "osm_node_4634972339",
      "nombre": "Ciurana",
      "tipo": "cafe",
      "lat": 41.1560925,
      "lon": 1.1024497,
      "direccion": "Carrer Sant Joan",
      "codigo_postal": null,
      "telefono": null,
      "web": null,
      "instagram": null,
      "horario": "Mo-Fr 07:30-20:30; Sa 07:30-15:00, 17:00-20:30; Su 09:00-14:00",
      "terraza": false
    },
    {
      "id": "osm_node_4637250147",
      "nombre": "Café Café",
      "tipo": "cafe",
      "lat": 41.1603949,
      "lon": 1.0999999,
      "direccion": "Plaça de l'Estació",
      "codigo_postal": "43203",
      "telefono": "+34 932 401 515",
      "web": "http://www.areas.es",
      "instagram": null,
      "horario": "Mo-Fr 05:00-21:00; Sa,Su 07:00-21:00; PH 07:00-21:00",
      "terraza": false
    },
    {
      "id": "osm_node_4637943146",
      "nombre": "Teïna",
      "tipo": "bar",
      "lat": 41.156081,
      "lon": 1.1095047,
      "direccion": "Plaça de la Farinera 7",
      "codigo_postal": "43201",
      "telefono": "+34656607582",
      "web": null,
      "instagram": null,
      "horario": null,
      "terraza": true
    },
    {
      "id": "osm_node_4637943148",
      "nombre": "Absis",
      "tipo": "bar",
      "lat": 41.1546433,
      "lon": 1.1100149,
      "direccion": "Carrer de la Mar 30",
      "codigo_postal": "43201",
      "telefono": "+34977342992",
      "web": "http://www.labsis.cat/",
      "instagram": null,
      "horario": "Mo-We 09:00-01:00; Th 09:00-02:00; Fr-Sa 09:00-03:00; Su 09:00-23:00",
      "terraza": true
    },
    {
      "id": "osm_node_4647631168",
      "nombre": "Panishop",
      "tipo": "cafe",
      "lat": 41.1559923,
      "lon": 1.1048204,
      "direccion": "Carrer de Sant Joan 34",
      "codigo_postal": "43201",
      "telefono": "+34 977 31 72 47",
      "web": "https://panishop.com/",
      "instagram": null,
      "horario": null,
      "terraza": false
    },
    {
      "id": "osm_node_4648485590",
      "nombre": "Insert Coin",
      "tipo": "bar",
      "lat": 41.154921,
      "lon": 1.1096054,
      "direccion": "Carrer de la Mar 14",
      "codigo_postal": "43201",
      "telefono": "+34977772710",
      "web": "http://insertcoinreus.com/",
      "instagram": null,
      "horario": "Tu-We 19:00-23:00; Th 19:00-02:30; Fr-Sa 19:00-03:00; Su 18:30-22:00",
      "terraza": false
    },
    {
      "id": "osm_node_4656394718",
      "nombre": "Bar Montblanc",
      "tipo": "bar",
      "lat": 41.3775221,
      "lon": 1.1632998,
      "direccion": null,
      "codigo_postal": null,
      "telefono": null,
      "web": null,
      "instagram": null,
      "horario": null,
      "terraza": false
    },
    {
      "id": "osm_node_4656394952",
      "nombre": "Bar Montseny",
      "tipo": "bar",
      "lat": 41.3771535,
      "lon": 1.1636929,
      "direccion": null,
      "codigo_postal": null,
      "telefono": null,
      "web": null,
      "instagram": null,
      "horario": null,
      "terraza": false
    },
    {
      "id": "osm_node_4656395046",
      "nombre": "Antic Cafè",
      "tipo": "cafe",
      "lat": 41.3765988,
      "lon": 1.1634667,
      "direccion": null,
      "codigo_postal": null,
      "telefono": null,
      "web": null,
      "instagram": null,
      "horario": null,
      "terraza": false
    },
    {
      "id": "osm_node_4656395948",
      "nombre": "Monmany",
      "tipo": "cafe",
      "lat": 41.3767167,
      "lon": 1.1615935,
      "direccion": "Plaça Major 5",
      "codigo_postal": "43400",
      "telefono": null,
      "web": null,
      "instagram": null,
      "horario": null,
      "terraza": false
    },
    {
      "id": "osm_node_4672889689",
      "nombre": "Escubidu",
      "tipo": "pub",
      "lat": 41.267126,
      "lon": 1.3399234,
      "direccion": null,
      "codigo_postal": null,
      "telefono": null,
      "web": null,
      "instagram": null,
      "horario": null,
      "terraza": false
    },
    {
      "id": "osm_node_4712892335",
      "nombre": "Cris Xell",
      "tipo": "cafe",
      "lat": 41.1572786,
      "lon": 1.1010616,
      "direccion": null,
      "codigo_postal": null,
      "telefono": null,
      "web": null,
      "instagram": null,
      "horario": null,
      "terraza": false
    },
    {
      "id": "osm_node_4714755294",
      "nombre": "Els 7 Gats",
      "tipo": "bar",
      "lat": 41.0571846,
      "lon": 0.6343835,
      "direccion": null,
      "codigo_postal": null,
      "telefono": null,
      "web": null,
      "instagram": null,
      "horario": null,
      "terraza": false
    },
    {
      "id": "osm_node_4756430529",
      "nombre": "Colombo",
      "tipo": "bar",
      "lat": 41.5314502,
      "lon": 1.3822051,
      "direccion": null,
      "codigo_postal": null,
      "telefono": null,
      "web": null,
      "instagram": null,
      "horario": "Tu-Th 09:00-22:00; Fr, Sa 09:00-00:00; Su 17:00-21:00",
      "terraza": false
    },
    {
      "id": "osm_node_4756430530",
      "nombre": "La Pizzeria",
      "tipo": "bar",
      "lat": 41.5312691,
      "lon": 1.3821626,
      "direccion": null,
      "codigo_postal": null,
      "telefono": null,
      "web": null,
      "instagram": null,
      "horario": null,
      "terraza": false
    },
    {
      "id": "osm_node_4756430531",
      "nombre": "Bar La Segarra",
      "tipo": "bar",
      "lat": 41.531649,
      "lon": 1.3832095,
      "direccion": null,
      "codigo_postal": null,
      "telefono": null,
      "web": null,
      "instagram": null,
      "horario": null,
      "terraza": false
    },
    {
      "id": "osm_node_4756430532",
      "nombre": "bar Griu",
      "tipo": "pub",
      "lat": 41.5324867,
      "lon": 1.3841164,
      "direccion": null,
      "codigo_postal": null,
      "telefono": null,
      "web": null,
      "instagram": null,
      "horario": null,
      "terraza": false
    },
    {
      "id": "osm_node_4756430533",
      "nombre": "La Caixa",
      "tipo": "pub",
      "lat": 41.5320584,
      "lon": 1.3839436,
      "direccion": null,
      "codigo_postal": null,
      "telefono": null,
      "web": null,
      "instagram": null,
      "horario": null,
      "terraza": false
    },
    {
      "id": "osm_node_4756430534",
      "nombre": "Bar Rosa",
      "tipo": "pub",
      "lat": 41.5321836,
      "lon": 1.3837519,
      "direccion": null,
      "codigo_postal": null,
      "telefono": null,
      "web": null,
      "instagram": null,
      "horario": null,
      "terraza": false
    },
    {
      "id": "osm_node_4778626160",
      "nombre": "Café Café",
      "tipo": "cafe",
      "lat": 41.1114168,
      "lon": 1.2530819,
      "direccion": null,
      "codigo_postal": null,
      "telefono": "+34 932 401 515",
      "web": null,
      "instagram": null,
      "horario": null,
      "terraza": false
    },
    {
      "id": "osm_node_4782922486",
      "nombre": "Frankfurt Lakla",
      "tipo": "bar",
      "lat": 40.8852322,
      "lon": 0.804193,
      "direccion": null,
      "codigo_postal": null,
      "telefono": null,
      "web": null,
      "instagram": null,
      "horario": null,
      "terraza": false
    },
    {
      "id": "osm_node_4808068306",
      "nombre": "La Botiga de Civit",
      "tipo": "cafe",
      "lat": 40.8098257,
      "lon": 0.5221194,
      "direccion": null,
      "codigo_postal": null,
      "telefono": null,
      "web": null,
      "instagram": null,
      "horario": null,
      "terraza": false
    },
    {
      "id": "osm_node_4823383923",
      "nombre": "bar Pepe",
      "tipo": "bar",
      "lat": 40.8210453,
      "lon": 0.7313667,
      "direccion": null,
      "codigo_postal": null,
      "telefono": null,
      "web": null,
      "instagram": null,
      "horario": null,
      "terraza": false
    },
    {
      "id": "osm_node_4845748908",
      "nombre": "Ca l'Antòn",
      "tipo": "cafe",
      "lat": 41.1139001,
      "lon": 1.0401666,
      "direccion": "Carrer de l'Església",
      "codigo_postal": "43391",
      "telefono": "+34 977768194",
      "web": null,
      "instagram": null,
      "horario": null,
      "terraza": true
    },
    {
      "id": "osm_node_4847681813",
      "nombre": "Bar la Susi",
      "tipo": "bar",
      "lat": 41.1383502,
      "lon": 0.9090906,
      "direccion": null,
      "codigo_postal": null,
      "telefono": null,
      "web": null,
      "instagram": null,
      "horario": null,
      "terraza": false
    },
    {
      "id": "osm_node_4907083821",
      "nombre": "Sisters cafe",
      "tipo": "cafe",
      "lat": 41.0755354,
      "lon": 1.1401985,
      "direccion": "Carrer de Girona 9",
      "codigo_postal": "43840",
      "telefono": "+34877067420",
      "web": null,
      "instagram": null,
      "horario": "Mo-Su 10:00-23:00",
      "terraza": false
    },
    {
      "id": "osm_node_4964371622",
      "nombre": "Sisters Cafè",
      "tipo": "cafe",
      "lat": 41.0757316,
      "lon": 1.1403436,
      "direccion": null,
      "codigo_postal": null,
      "telefono": null,
      "web": null,
      "instagram": null,
      "horario": null,
      "terraza": false
    },
    {
      "id": "osm_node_4983147686",
      "nombre": "Los Faroles",
      "tipo": "bar",
      "lat": 41.1254662,
      "lon": 1.212014,
      "direccion": null,
      "codigo_postal": null,
      "telefono": null,
      "web": null,
      "instagram": null,
      "horario": null,
      "terraza": false
    },
    {
      "id": "osm_node_4983147687",
      "nombre": "Bar La Floresta",
      "tipo": "bar",
      "lat": 41.1254242,
      "lon": 1.2121484,
      "direccion": null,
      "codigo_postal": null,
      "telefono": null,
      "web": null,
      "instagram": null,
      "horario": null,
      "terraza": false
    },
    {
      "id": "osm_node_4983147688",
      "nombre": "El Sauce",
      "tipo": "bar",
      "lat": 41.1251921,
      "lon": 1.2118118,
      "direccion": null,
      "codigo_postal": null,
      "telefono": null,
      "web": null,
      "instagram": null,
      "horario": null,
      "terraza": false
    },
    {
      "id": "osm_node_4983147689",
      "nombre": "Bar Angel",
      "tipo": "bar",
      "lat": 41.1251249,
      "lon": 1.2120378,
      "direccion": null,
      "codigo_postal": null,
      "telefono": null,
      "web": null,
      "instagram": null,
      "horario": null,
      "terraza": false
    },
    {
      "id": "osm_node_5021886321",
      "nombre": "Mesón la Cantonada",
      "tipo": "cafe",
      "lat": 41.1690744,
      "lon": 1.4382743,
      "direccion": null,
      "codigo_postal": null,
      "telefono": null,
      "web": null,
      "instagram": null,
      "horario": null,
      "terraza": false
    },
    {
      "id": "osm_node_5021888128",
      "nombre": "El Nou Mirador",
      "tipo": "bar",
      "lat": 41.1675492,
      "lon": 1.4416166,
      "direccion": null,
      "codigo_postal": null,
      "telefono": null,
      "web": null,
      "instagram": null,
      "horario": null,
      "terraza": false
    },
    {
      "id": "osm_node_5022667929",
      "nombre": "Mediterraneo",
      "tipo": "bar",
      "lat": 41.1700738,
      "lon": 1.4818222,
      "direccion": null,
      "codigo_postal": null,
      "telefono": null,
      "web": null,
      "instagram": null,
      "horario": null,
      "terraza": false
    },
    {
      "id": "osm_node_5022892523",
      "nombre": "La Taberna",
      "tipo": "bar",
      "lat": 41.1670885,
      "lon": 1.4406496,
      "direccion": null,
      "codigo_postal": null,
      "telefono": null,
      "web": null,
      "instagram": null,
      "horario": null,
      "terraza": false
    },
    {
      "id": "osm_node_5026154829",
      "nombre": "Mercatbar",
      "tipo": "pub",
      "lat": 41.165109,
      "lon": 1.44812,
      "direccion": null,
      "codigo_postal": null,
      "telefono": null,
      "web": null,
      "instagram": null,
      "horario": null,
      "terraza": false
    },
    {
      "id": "osm_node_5028454325",
      "nombre": "Esport",
      "tipo": "cafe",
      "lat": 41.3468208,
      "lon": 1.3627886,
      "direccion": null,
      "codigo_postal": null,
      "telefono": null,
      "web": null,
      "instagram": null,
      "horario": null,
      "terraza": false
    },
    {
      "id": "osm_node_5028462721",
      "nombre": "El Casalot",
      "tipo": "bar",
      "lat": 41.3485316,
      "lon": 1.362613,
      "direccion": null,
      "codigo_postal": null,
      "telefono": null,
      "web": null,
      "instagram": null,
      "horario": null,
      "terraza": false
    },
    {
      "id": "osm_node_5029071023",
      "nombre": "Bar el Celler",
      "tipo": "bar",
      "lat": 41.1675972,
      "lon": 1.440845,
      "direccion": null,
      "codigo_postal": null,
      "telefono": null,
      "web": null,
      "instagram": null,
      "horario": null,
      "terraza": false
    },
    {
      "id": "osm_node_5029085923",
      "nombre": "Cal Tito",
      "tipo": "bar",
      "lat": 41.1681768,
      "lon": 1.4383873,
      "direccion": null,
      "codigo_postal": null,
      "telefono": null,
      "web": null,
      "instagram": null,
      "horario": null,
      "terraza": false
    },
    {
      "id": "osm_node_5029124021",
      "nombre": "Milenium",
      "tipo": "bar",
      "lat": 41.1683987,
      "lon": 1.4376344,
      "direccion": null,
      "codigo_postal": null,
      "telefono": null,
      "web": null,
      "instagram": null,
      "horario": null,
      "terraza": false
    },
    {
      "id": "osm_node_5042765150",
      "nombre": "Cal Xixonenc",
      "tipo": "cafe",
      "lat": 41.376325,
      "lon": 1.1622397,
      "direccion": null,
      "codigo_postal": null,
      "telefono": null,
      "web": null,
      "instagram": null,
      "horario": null,
      "terraza": false
    },
    {
      "id": "osm_node_5060936122",
      "nombre": "Columbretes",
      "tipo": "bar",
      "lat": 40.5535786,
      "lon": 0.5295663,
      "direccion": "Carrer Trafalgar 43",
      "codigo_postal": null,
      "telefono": null,
      "web": null,
      "instagram": null,
      "horario": null,
      "terraza": false
    },
    {
      "id": "osm_node_5088325616",
      "nombre": "Taverna Despertaferro",
      "tipo": "pub",
      "lat": 41.1563236,
      "lon": 1.1097408,
      "direccion": "Carrer de Martí Napolità 7",
      "codigo_postal": "43201",
      "telefono": null,
      "web": "http://www.casaldespertaferro.cat/",
      "instagram": null,
      "horario": "Tu 18:00-22:00; We 18:00-24:00; Th 18:00-02:00; Fr-Sa 18:00-03:00",
      "terraza": false
    },
    {
      "id": "osm_node_5088325617",
      "nombre": "Va de vi",
      "tipo": "bar",
      "lat": 41.1563754,
      "lon": 1.1098701,
      "direccion": "Carrer de Martí Napolità 11",
      "codigo_postal": "43201",
      "telefono": null,
      "web": null,
      "instagram": null,
      "horario": null,
      "terraza": true
    },
    {
      "id": "osm_node_5102521221",
      "nombre": "Peggy Sue's",
      "tipo": "bar",
      "lat": 41.1142232,
      "lon": 1.2550803,
      "direccion": "Rambla Nova",
      "codigo_postal": null,
      "telefono": null,
      "web": null,
      "instagram": null,
      "horario": null,
      "terraza": false
    },
    {
      "id": "osm_node_5137444097",
      "nombre": "Absenta",
      "tipo": "bar",
      "lat": 41.1556649,
      "lon": 1.1085287,
      "direccion": "Carrer d'Aleus 2",
      "codigo_postal": "43201",
      "telefono": "+34 977 12 85 92",
      "web": null,
      "instagram": null,
      "horario": "Su-Th 18:30-02:30; Fr-Sa 18:30-03:00",
      "terraza": true
    },
    {
      "id": "osm_node_5137444099",
      "nombre": "Campus",
      "tipo": "bar",
      "lat": 41.1555846,
      "lon": 1.1058141,
      "direccion": "Carrer de Sant Llorenç 11",
      "codigo_postal": "43201",
      "telefono": "+34 977 31 95 53",
      "web": "https://campusreus.org/",
      "instagram": null,
      "horario": "Mo-Sa 18:00-02:00",
      "terraza": false
    },
    {
      "id": "osm_node_5137444100",
      "nombre": "Green Moon",
      "tipo": "bar",
      "lat": 41.1555052,
      "lon": 1.1058399,
      "direccion": "Carrer de Sant Llorenç 12",
      "codigo_postal": "43201",
      "telefono": null,
      "web": null,
      "instagram": null,
      "horario": null,
      "terraza": false
    },
    {
      "id": "osm_node_5169265027",
      "nombre": "El Bloc",
      "tipo": "bar",
      "lat": 41.1436261,
      "lon": 1.4121062,
      "direccion": null,
      "codigo_postal": null,
      "telefono": null,
      "web": null,
      "instagram": null,
      "horario": null,
      "terraza": false
    },
    {
      "id": "osm_node_5169265029",
      "nombre": "Ku Bar",
      "tipo": "bar",
      "lat": 41.143815,
      "lon": 1.4125367,
      "direccion": null,
      "codigo_postal": null,
      "telefono": null,
      "web": null,
      "instagram": null,
      "horario": null,
      "terraza": false
    },
    {
      "id": "osm_node_5169339028",
      "nombre": "La Prenda",
      "tipo": "bar",
      "lat": 41.1439968,
      "lon": 1.4123795,
      "direccion": null,
      "codigo_postal": null,
      "telefono": null,
      "web": null,
      "instagram": null,
      "horario": null,
      "terraza": false
    },
    {
      "id": "osm_node_5169339030",
      "nombre": "Xaloquell",
      "tipo": "bar",
      "lat": 41.143938,
      "lon": 1.4127924,
      "direccion": null,
      "codigo_postal": null,
      "telefono": null,
      "web": null,
      "instagram": null,
      "horario": null,
      "terraza": false
    },
    {
      "id": "osm_node_5169420444",
      "nombre": "Sport Bar",
      "tipo": "bar",
      "lat": 41.1442122,
      "lon": 1.412532,
      "direccion": null,
      "codigo_postal": null,
      "telefono": null,
      "web": null,
      "instagram": null,
      "horario": null,
      "terraza": false
    },
    {
      "id": "osm_node_5172086015",
      "nombre": "Lo Racó del Passeig",
      "tipo": "bar",
      "lat": 41.0781226,
      "lon": 0.4793846,
      "direccion": "Carrer del Doctor Ferran 21",
      "codigo_postal": "43784",
      "telefono": null,
      "web": null,
      "instagram": null,
      "horario": null,
      "terraza": false
    },
    {
      "id": "osm_node_5206618223",
      "nombre": "Bar",
      "tipo": "bar",
      "lat": 40.9883924,
      "lon": 0.9234269,
      "direccion": null,
      "codigo_postal": null,
      "telefono": null,
      "web": null,
      "instagram": null,
      "horario": null,
      "terraza": false
    },
    {
      "id": "osm_node_5218484415",
      "nombre": "Bar Piqué",
      "tipo": "bar",
      "lat": 41.0763931,
      "lon": 0.4746998,
      "direccion": "Carrer de la Terra Alta 7",
      "codigo_postal": "43784",
      "telefono": null,
      "web": null,
      "instagram": null,
      "horario": null,
      "terraza": false
    },
    {
      "id": "osm_node_5243820621",
      "nombre": "Fordies",
      "tipo": "bar",
      "lat": 41.0724266,
      "lon": 1.153984,
      "direccion": "Carrer de Fra Juníper Serra 17",
      "codigo_postal": null,
      "telefono": null,
      "web": null,
      "instagram": null,
      "horario": null,
      "terraza": false
    },
    {
      "id": "osm_node_5244131668",
      "nombre": "Bar Modern",
      "tipo": "bar",
      "lat": 41.1576572,
      "lon": 1.1119941,
      "direccion": null,
      "codigo_postal": null,
      "telefono": null,
      "web": null,
      "instagram": null,
      "horario": null,
      "terraza": true
    },
    {
      "id": "osm_node_5293587935",
      "nombre": "Strega",
      "tipo": "bar",
      "lat": 40.9958387,
      "lon": 0.9224731,
      "direccion": "Carrer de la Terra Alta",
      "codigo_postal": null,
      "telefono": null,
      "web": null,
      "instagram": null,
      "horario": null,
      "terraza": false
    },
    {
      "id": "osm_node_5321844519",
      "nombre": "Nasi",
      "tipo": "bar",
      "lat": 41.1321456,
      "lon": 1.3452743,
      "direccion": null,
      "codigo_postal": null,
      "telefono": null,
      "web": null,
      "instagram": null,
      "horario": null,
      "terraza": true
    },
    {
      "id": "osm_node_5395613290",
      "nombre": "La Queixalada",
      "tipo": "pub",
      "lat": 41.2107641,
      "lon": 1.1405523,
      "direccion": null,
      "codigo_postal": null,
      "telefono": null,
      "web": null,
      "instagram": null,
      "horario": null,
      "terraza": false
    },
    {
      "id": "osm_node_5407819131",
      "nombre": "La Crème",
      "tipo": "cafe",
      "lat": 41.2143741,
      "lon": 1.1402442,
      "direccion": "Carrer de l'Horta 5",
      "codigo_postal": null,
      "telefono": null,
      "web": null,
      "instagram": null,
      "horario": null,
      "terraza": false
    },
    {
      "id": "osm_node_5407819132",
      "nombre": "Tramuntana",
      "tipo": "bar",
      "lat": 41.2141499,
      "lon": 1.1403112,
      "direccion": "Carrer de l'Horta 6",
      "codigo_postal": null,
      "telefono": null,
      "web": null,
      "instagram": null,
      "horario": null,
      "terraza": false
    },
    {
      "id": "osm_node_5464877747",
      "nombre": "Pardo",
      "tipo": "bar",
      "lat": 41.0080789,
      "lon": 0.9371068,
      "direccion": "Avinguda de Barcelona 132",
      "codigo_postal": "43892",
      "telefono": null,
      "web": null,
      "instagram": null,
      "horario": null,
      "terraza": false
    },
    {
      "id": "osm_node_5468266496",
      "nombre": "Chiringuito Ona",
      "tipo": "biergarten",
      "lat": 41.0098422,
      "lon": 0.9445809,
      "direccion": null,
      "codigo_postal": null,
      "telefono": null,
      "web": null,
      "instagram": null,
      "horario": null,
      "terraza": false
    },
    {
      "id": "osm_node_5468266524",
      "nombre": "chiringuito les Sirenes",
      "tipo": "biergarten",
      "lat": 41.0121213,
      "lon": 0.9473542,
      "direccion": null,
      "codigo_postal": null,
      "telefono": null,
      "web": null,
      "instagram": null,
      "horario": null,
      "terraza": false
    },
    {
      "id": "osm_node_5471346031",
      "nombre": "Moai",
      "tipo": "bar",
      "lat": 41.0094399,
      "lon": 0.9388711,
      "direccion": "Avinguda de Barcelona",
      "codigo_postal": "43892",
      "telefono": null,
      "web": null,
      "instagram": null,
      "horario": null,
      "terraza": true
    },
    {
      "id": "osm_node_5471346056",
      "nombre": "Forn Gloria",
      "tipo": "cafe",
      "lat": 41.0103835,
      "lon": 0.9408324,
      "direccion": "Avinguda de Barcelona",
      "codigo_postal": "43892",
      "telefono": null,
      "web": null,
      "instagram": null,
      "horario": null,
      "terraza": false
    },
    {
      "id": "osm_node_5471591995",
      "nombre": "Chiringuito CAP",
      "tipo": "biergarten",
      "lat": 41.014301,
      "lon": 0.9493785,
      "direccion": "Passeig Maritim",
      "codigo_postal": null,
      "telefono": null,
      "web": null,
      "instagram": null,
      "horario": null,
      "terraza": false
    },
    {
      "id": "osm_node_5473917446",
      "nombre": "La union",
      "tipo": "bar",
      "lat": 41.0023697,
      "lon": 0.9313336,
      "direccion": "Carrer de Conca 33",
      "codigo_postal": "43892",
      "telefono": null,
      "web": null,
      "instagram": null,
      "horario": null,
      "terraza": false
    },
    {
      "id": "osm_node_5562420320",
      "nombre": "Lo Goleró",
      "tipo": "bar",
      "lat": 40.7917501,
      "lon": 0.7035804,
      "direccion": null,
      "codigo_postal": null,
      "telefono": null,
      "web": null,
      "instagram": null,
      "horario": null,
      "terraza": false
    },
    {
      "id": "osm_node_5596900821",
      "nombre": "LoXibec",
      "tipo": "cafe",
      "lat": 40.6161094,
      "lon": 0.5924973,
      "direccion": null,
      "codigo_postal": null,
      "telefono": null,
      "web": null,
      "instagram": null,
      "horario": null,
      "terraza": false
    },
    {
      "id": "osm_node_5731338765",
      "nombre": "El Call",
      "tipo": "bar",
      "lat": 41.1544839,
      "lon": 1.1102987,
      "direccion": null,
      "codigo_postal": null,
      "telefono": null,
      "web": null,
      "instagram": null,
      "horario": null,
      "terraza": false
    },