{
  "ciudad": "Toledo",
  "total": 585,
  "locales": [
    {
      "id": "osm_node_852601459",
      "nombre": "Martini & Nuzzis",
      "tipo": "bar",
      "lat": 41.593897,
      "lon": -83.6845745,
      "direccion": null,
      "codigo_postal": null,
      "telefono": null,
      "web": null,
      "instagram": null,
      "horario": null,
      "terraza": false
    },
    {
      "id": "osm_node_1143263160",
      "nombre": "Azul Banana",
      "tipo": "bar",
      "lat": -24.7225334,
      "lon": -53.7429553,
      "direccion": null,
      "codigo_postal": null,
      "telefono": null,
      "web": null,
      "instagram": null,
      "horario": null,
      "terraza": false
    },
    {
      "id": "osm_node_1430398302",
      "nombre": "Sabor a Caramelo",
      "tipo": "pub",
      "lat": 40.1325245,
      "lon": -3.6697227,
      "direccion": null,
      "codigo_postal": null,
      "telefono": null,
      "web": null,
      "instagram": null,
      "horario": null,
      "terraza": false
    },
    {
      "id": "osm_node_1452417129",
      "nombre": "Gambrinus",
      "tipo": "bar",
      "lat": 40.1232831,
      "lon": -3.8503315,
      "direccion": "Plaza del Mercado 9",
      "codigo_postal": null,
      "telefono": null,
      "web": null,
      "instagram": null,
      "horario": null,
      "terraza": false
    },
    {
      "id": "osm_node_1487468608",
      "nombre": "Café-Pub Las Cadenas",
      "tipo": "pub",
      "lat": 40.1251664,
      "lon": -3.8490194,
      "direccion": null,
      "codigo_postal": null,
      "telefono": null,
      "web": null,
      "instagram": null,
      "horario": null,
      "terraza": false
    },
    {
      "id": "osm_node_1487468609",
      "nombre": "Cervecería Anubis",
      "tipo": "bar",
      "lat": 40.1233639,
      "lon": -3.8496393,
      "direccion": null,
      "codigo_postal": null,
      "telefono": null,
      "web": null,
      "instagram": null,
      "horario": null,
      "terraza": false
    },
    {
      "id": "osm_node_1487468654",
      "nombre": "Pub Callejón",
      "tipo": "pub",
      "lat": 40.1244152,
      "lon": -3.8479523,
      "direccion": null,
      "codigo_postal": null,
      "telefono": null,
      "web": null,
      "instagram": null,
      "horario": null,
      "terraza": false
    },
    {
      "id": "osm_node_1628227341",
      "nombre": "Bar de Moe",
      "tipo": "bar",
      "lat": 40.2341854,
      "lon": -4.3905934,
      "direccion": null,
      "codigo_postal": null,
      "telefono": null,
      "web": null,
      "instagram": null,
      "horario": null,
      "terraza": false
    },
    {
      "id": "osm_node_1628361224",
      "nombre": "El Quijote",
      "tipo": "bar",
      "lat": 40.2335885,
      "lon": -4.3905002,
      "direccion": null,
      "codigo_postal": null,
      "telefono": null,
      "web": null,
      "instagram": null,
      "horario": null,
      "terraza": false
    },
    {
      "id": "osm_node_1628361254",
      "nombre": "The Dalton",
      "tipo": "bar",
      "lat": 40.2334009,
      "lon": -4.3908386,
      "direccion": null,
      "codigo_postal": null,
      "telefono": null,
      "web": null,
      "instagram": null,
      "horario": null,
      "terraza": false
    },
    {
      "id": "osm_node_1833756999",
      "nombre": "Maumee Bay Brewpub",
      "tipo": "pub",
      "lat": 41.6433097,
      "lon": -83.5380142,
      "direccion": "Broadway Street 27",
      "codigo_postal": null,
      "telefono": null,
      "web": null,
      "instagram": null,
      "horario": null,
      "terraza": false
    },
    {
      "id": "osm_node_1864180235",
      "nombre": "Bar Zaca",
      "tipo": "bar",
      "lat": 39.9759045,
      "lon": -4.5052749,
      "direccion": null,
      "codigo_postal": null,
      "telefono": null,
      "web": null,
      "instagram": null,
      "horario": null,
      "terraza": false
    },
    {
      "id": "osm_node_1907871009",
      "nombre": "D'Cine",
      "tipo": "bar",
      "lat": 40.0270196,
      "lon": -3.9122205,
      "direccion": null,
      "codigo_postal": null,
      "telefono": null,
      "web": null,
      "instagram": null,
      "horario": null,
      "terraza": false
    },
    {
      "id": "osm_node_1907871025",
      "nombre": "Bar Alex",
      "tipo": "pub",
      "lat": 40.0273177,
      "lon": -3.9113684,
      "direccion": null,
      "codigo_postal": null,
      "telefono": null,
      "web": null,
      "instagram": null,
      "horario": null,
      "terraza": false
    },
    {
      "id": "osm_node_1907871155",
      "nombre": "El Cafetín",
      "tipo": "pub",
      "lat": 40.0269417,
      "lon": -3.9117805,
      "direccion": null,
      "codigo_postal": null,
      "telefono": null,
      "web": null,
      "instagram": null,
      "horario": null,
      "terraza": false
    },
    {
      "id": "osm_node_1907871157",
      "nombre": "Velvet",
      "tipo": "cafe",
      "lat": 40.0270666,
      "lon": -3.912469,
      "direccion": null,
      "codigo_postal": null,
      "telefono": null,
      "web": null,
      "instagram": null,
      "horario": null,
      "terraza": false
    },
    {
      "id": "osm_node_1910777845",
      "nombre": "Indian Chief",
      "tipo": "pub",
      "lat": 40.0283012,
      "lon": -3.910796,
      "direccion": null,
      "codigo_postal": null,
      "telefono": null,
      "web": null,
      "instagram": null,
      "horario": null,
      "terraza": false
    },
    {
      "id": "osm_node_1910777945",
      "nombre": "Akepicas",
      "tipo": "bar",
      "lat": 40.028636,
      "lon": -3.9135104,
      "direccion": null,
      "codigo_postal": null,
      "telefono": null,
      "web": null,
      "instagram": null,
      "horario": null,
      "terraza": false
    },
    {
      "id": "osm_node_1956505627",
      "nombre": "Pinocchio",
      "tipo": "bar",
      "lat": 39.8666723,
      "lon": -3.9446104,
      "direccion": null,
      "codigo_postal": null,
      "telefono": null,
      "web": null,
      "instagram": null,
      "horario": null,
      "terraza": false
    },
    {
      "id": "osm_node_1956505633",
      "nombre": "Albertos",
      "tipo": "bar",
      "lat": 39.8619445,
      "lon": -3.9493328,
      "direccion": "Calle del Río Fresnedoso 15",
      "codigo_postal": "45007",
      "telefono": null,
      "web": null,
      "instagram": null,
      "horario": null,
      "terraza": true
    },
    {
      "id": "osm_node_1956505634",
      "nombre": "Go Street",
      "tipo": "bar",
      "lat": 39.8670867,
      "lon": -3.9441373,
      "direccion": "Paseo Federico García Lorca 3a",
      "codigo_postal": "45007",
      "telefono": "+34 925 48 40 86",
      "web": null,
      "instagram": null,
      "horario": null,
      "terraza": false
    },
    {
      "id": "osm_node_1956505635",
      "nombre": "Geminis",
      "tipo": "bar",
      "lat": 39.8670499,
      "lon": -3.9443212,
      "direccion": null,
      "codigo_postal": null,
      "telefono": null,
      "web": null,
      "instagram": null,
      "horario": null,
      "terraza": false
    },
    {
      "id": "osm_node_1956505637",
      "nombre": "La Tapa",
      "tipo": "bar",
      "lat": 39.8672138,
      "lon": -3.9437951,
      "direccion": null,
      "codigo_postal": null,
      "telefono": null,
      "web": null,
      "instagram": null,
      "horario": null,
      "terraza": false
    },
    {
      "id": "osm_node_2000911148",
      "nombre": "Bar Arena",
      "tipo": "bar",
      "lat": 40.1158487,
      "lon": -3.9227595,
      "direccion": null,
      "codigo_postal": null,
      "telefono": null,
      "web": null,
      "instagram": null,
      "horario": null,
      "terraza": false
    },
    {
      "id": "osm_node_2000911151",
      "nombre": "Bar Aki T Espero",
      "tipo": "bar",
      "lat": 40.1137134,
      "lon": -3.9243581,
      "direccion": null,
      "codigo_postal": null,
      "telefono": null,
      "web": null,
      "instagram": null,
      "horario": null,
      "terraza": false
    },
    {
      "id": "osm_node_2000911635",
      "nombre": "Bar La Piscina",
      "tipo": "bar",
      "lat": 40.1128949,
      "lon": -3.9313128,
      "direccion": null,
      "codigo_postal": null,
      "telefono": null,
      "web": null,
      "instagram": null,
      "horario": null,
      "terraza": false
    },
    {
      "id": "osm_node_2092860376",
      "nombre": "Bar La Taberna",
      "tipo": "bar",
      "lat": 40.1340837,
      "lon": -3.8509679,
      "direccion": null,
      "codigo_postal": null,
      "telefono": null,
      "web": null,
      "instagram": null,
      "horario": null,
      "terraza": false
    },
    {
      "id": "osm_node_2107610598",
      "nombre": "Bar Desi",
      "tipo": "bar",
      "lat": 40.088585,
      "lon": -3.8737777,
      "direccion": null,
      "codigo_postal": null,
      "telefono": null,
      "web": null,
      "instagram": null,
      "horario": null,
      "terraza": false
    },
    {
      "id": "osm_node_2147956170",
      "nombre": "Milltown Coffee Stop",
      "tipo": "cafe",
      "lat": 44.6241633,
      "lon": -123.941545,
      "direccion": null,
      "codigo_postal": null,
      "telefono": null,
      "web": null,
      "instagram": null,
      "horario": null,
      "terraza": false
    },
    {
      "id": "osm_node_2284534162",
      "nombre": "Cervecería El Buho",
      "tipo": "bar",
      "lat": 39.8676921,
      "lon": -3.9421856,
      "direccion": null,
      "codigo_postal": null,
      "telefono": null,
      "web": null,
      "instagram": null,
      "horario": null,
      "terraza": false
    },
    {
      "id": "osm_node_2360968534",
      "nombre": "Bar La Piscina",
      "tipo": "bar",
      "lat": 39.630579,
      "lon": -5.1131866,
      "direccion": null,
      "codigo_postal": null,
      "telefono": null,
      "web": null,
      "instagram": null,
      "horario": null,
      "terraza": false
    },
    {
      "id": "osm_node_2360968686",
      "nombre": "Bar Salero",
      "tipo": "bar",
      "lat": 39.6343638,
      "lon": -5.1134949,
      "direccion": null,
      "codigo_postal": null,
      "telefono": null,
      "web": null,
      "instagram": null,
      "horario": null,
      "terraza": false
    },
    {
      "id": "osm_node_2367705827",
      "nombre": "Starbucks",
      "tipo": "cafe",
      "lat": 41.6769431,
      "lon": -83.6233429,
      "direccion": "West Central Avenue 3305",
      "codigo_postal": "43606",
      "telefono": "+1 419-535-2943",
      "web": "https://www.starbucks.com/store-locator/store/17093/secor-central-westgate-3305-w-central-avenue-toledo-oh-436061408-us",
      "instagram": null,
      "horario": null,
      "terraza": false
    },
    {
      "id": "osm_node_2471312817",
      "nombre": "El Trebol",
      "tipo": "pub",
      "lat": 39.8599207,
      "lon": -4.0208594,
      "direccion": "Calle Santa Fe 1",
      "codigo_postal": "45001",
      "telefono": null,
      "web": null,
      "instagram": null,
      "horario": null,
      "terraza": false
    },
    {
      "id": "osm_node_2569470321",
      "nombre": "CACHITO",
      "tipo": "bar",
      "lat": 39.9613325,
      "lon": -3.8855548,
      "direccion": null,
      "codigo_postal": null,
      "telefono": null,
      "web": null,
      "instagram": null,
      "horario": null,
      "terraza": false
    },
    {
      "id": "osm_node_2577293441",
      "nombre": "Lanchonete São Pedro",
      "tipo": "bar",
      "lat": -24.7197206,
      "lon": -53.7382479,
      "direccion": null,
      "codigo_postal": null,
      "telefono": null,
      "web": null,
      "instagram": null,
      "horario": null,
      "terraza": false
    },
    {
      "id": "osm_node_2589826355",
      "nombre": "Engenho",
      "tipo": "bar",
      "lat": -24.7213124,
      "lon": -53.7422622,
      "direccion": null,
      "codigo_postal": null,
      "telefono": null,
      "web": null,
      "instagram": null,
      "horario": null,
      "terraza": false
    },
    {
      "id": "osm_node_2595102747",
      "nombre": "CISCOPAR",
      "tipo": "cafe",
      "lat": -24.7312163,
      "lon": -53.741341,
      "direccion": null,
      "codigo_postal": null,
      "telefono": null,
      "web": null,
      "instagram": null,
      "horario": null,
      "terraza": false
    },
    {
      "id": "osm_node_2611678104",
      "nombre": "Botanic Bar Legendario",
      "tipo": "cafe",
      "lat": 39.8593041,
      "lon": -4.0247859,
      "direccion": "Plaza de San Vicente 4",
      "codigo_postal": "45002",
      "telefono": "+34925252356",
      "web": null,
      "instagram": null,
      "horario": null,
      "terraza": false
    },
    {
      "id": "osm_node_2611678114",
      "nombre": "Flor de la Esquina",
      "tipo": "pub",
      "lat": 39.8582506,
      "lon": -4.0257954,
      "direccion": "Calle Alfonso X El Sabio 2",
      "codigo_postal": "45002",
      "telefono": null,
      "web": null,
      "instagram": null,
      "horario": null,
      "terraza": false
    },
    {
      "id": "osm_node_2611678126",
      "nombre": "Círculo de Arte de Toledo",
      "tipo": "bar",
      "lat": 39.859478,
      "lon": -4.0252121,
      "direccion": null,
      "codigo_postal": null,
      "telefono": "+34 925 25 66 53",
      "web": "https://www.circuloartetoledo.org/",
      "instagram": null,
      "horario": null,
      "terraza": false
    },
    {
      "id": "osm_node_2611678131",
      "nombre": "Café Del Fin",
      "tipo": "cafe",
      "lat": 39.8563775,
      "lon": -4.026793,
      "direccion": "Calle Taller del Moro 1",
      "codigo_postal": "45002",
      "telefono": "+34 925 251 052",
      "web": "http://www.cafedelfin.com/",
      "instagram": null,
      "horario": null,
      "terraza": false
    },
    {
      "id": "osm_node_2611678132",
      "nombre": "Next Level",
      "tipo": "pub",
      "lat": 39.8572291,
      "lon": -4.0272633,
      "direccion": "Calle Rojas 5",
      "codigo_postal": "45001",
      "telefono": null,
      "web": null,
      "instagram": null,
      "horario": null,
      "terraza": false
    },
    {
      "id": "osm_node_2611678133",
      "nombre": "Cervecería Lúpulo",
      "tipo": "pub",
      "lat": 39.8573218,
      "lon": -4.0274938,
      "direccion": "Calle del Aljibillo 4",
      "codigo_postal": "45002",
      "telefono": "+34647554806",
      "web": null,
      "instagram": null,
      "horario": "We 19:00-00:00; Th 19:00-01:00; Fr 19:00-01:00; Sa 12:00-16:00,19:00-02:00; Su 12:00-16:00,19:00-00:00; Mo,Tu off",
      "terraza": false
    },
    {
      "id": "osm_node_2611678142",
      "nombre": "Tapas Babia",
      "tipo": "bar",
      "lat": 39.8589332,
      "lon": -4.022019,
      "direccion": null,
      "codigo_postal": null,
      "telefono": null,
      "web": null,
      "instagram": null,
      "horario": null,
      "terraza": false
    },
    {
      "id": "osm_node_2611678147",
      "nombre": "Enebro",
      "tipo": "bar",
      "lat": 39.8591711,
      "lon": -4.0202508,
      "direccion": null,
      "codigo_postal": null,
      "telefono": null,
      "web": null,
      "instagram": null,
      "horario": null,
      "terraza": false
    },
    {
      "id": "osm_node_2611778714",
      "nombre": "El Colmadito",
      "tipo": "bar",
      "lat": 39.867067,
      "lon": -4.0299061,
      "direccion": null,
      "codigo_postal": null,
      "telefono": null,
      "web": null,
      "instagram": null,
      "horario": null,
      "terraza": false
    },
    {
      "id": "osm_node_2611778719",
      "nombre": "Cervecería San Eugenio",
      "tipo": "bar",
      "lat": 39.8689763,
      "lon": -4.0218006,
      "direccion": null,
      "codigo_postal": null,
      "telefono": null,
      "web": null,
      "instagram": null,
      "horario": null,
      "terraza": false
    },
    {
      "id": "osm_node_2623890611",
      "nombre": "Panadería Manzano",
      "tipo": "cafe",
      "lat": 39.8685903,
      "lon": -4.0297931,
      "direccion": "Avenida de Barber 2",
      "codigo_postal": "45004",
      "telefono": "+34925229762",
      "web": "https://www.panaderiamanzano.es/",
      "instagram": null,
      "horario": "Mo-Su 07:30-21:30",
      "terraza": true
    },
    {
      "id": "osm_node_2626146218",
      "nombre": "Epílogo",
      "tipo": "cafe",
      "lat": 39.8667391,
      "lon": -4.0271319,
      "direccion": null,
      "codigo_postal": null,
      "telefono": null,
      "web": null,
      "instagram": null,
      "horario": null,
      "terraza": false
    },
    {
      "id": "osm_node_2626563393",
      "nombre": "Bar El Látigo",
      "tipo": "bar",
      "lat": 39.8669814,
      "lon": -3.9502472,
      "direccion": "Plaza Poeta Miguel Hernández 27",
      "codigo_postal": "45007",
      "telefono": null,
      "web": null,
      "instagram": null,
      "horario": null,
      "terraza": false
    },
    {
      "id": "osm_node_2628549719",
      "nombre": "Tomo y Lomo",
      "tipo": "cafe",
      "lat": 39.8715532,
      "lon": -4.0225189,
      "direccion": "Paseo de San Eugenio 14",
      "codigo_postal": "45003",
      "telefono": null,
      "web": null,
      "instagram": null,
      "horario": null,
      "terraza": false
    },
    {
      "id": "osm_node_2628943156",
      "nombre": "El rincón Granaíno",
      "tipo": "bar",
      "lat": 39.8684692,
      "lon": -4.0219728,
      "direccion": "Calle Marqués de Mendigorría",
      "codigo_postal": "45003",
      "telefono": null,
      "web": null,
      "instagram": null,
      "horario": null,
      "terraza": false
    },
    {
      "id": "osm_node_2630142428",
      "nombre": "Bulas",
      "tipo": "bar",
      "lat": 39.8574992,
      "lon": -4.0279962,
      "direccion": "Plaza Valdecaleros 7",
      "codigo_postal": "45002",
      "telefono": null,
      "web": null,
      "instagram": null,
      "horario": null,
      "terraza": false
    },
    {
      "id": "osm_node_2630142454",
      "nombre": "Casa Carlos",
      "tipo": "bar",
      "lat": 39.8575215,
      "lon": -4.026102,
      "direccion": "Calle Alfonso XII 3",
      "codigo_postal": "45002",
      "telefono": null,
      "web": null,
      "instagram": null,
      "horario": null,
      "terraza": false
    },
    {
      "id": "osm_node_2630142511",
      "nombre": "Trébedes Café",
      "tipo": "cafe",
      "lat": 39.8658338,
      "lon": -4.0231044,
      "direccion": "Calle Cardenal Tavera 22",
      "codigo_postal": "45003",
      "telefono": null,
      "web": null,
      "instagram": null,
      "horario": null,
      "terraza": false
    },
    {
      "id": "osm_node_2630142513",
      "nombre": "Café Bar Sierra",
      "tipo": "cafe",
      "lat": 39.8655401,
      "lon": -4.0234092,
      "direccion": "Calle Cardenal Tavera 18",
      "codigo_postal": "45003",
      "telefono": null,
      "web": null,
      "instagram": null,
      "horario": null,
      "terraza": false
    },
    {
      "id": "osm_node_2630142522",
      "nombre": "La Taberna del Pintor",
      "tipo": "bar",
      "lat": 39.865121,
      "lon": -4.0237022,
      "direccion": "Calle Cardenal Tavera 24",
      "codigo_postal": "45003",
      "telefono": null,
      "web": null,
      "instagram": null,
      "horario": null,
      "terraza": false
    },
    {
      "id": "osm_node_2630142524",
      "nombre": "Cafetería María Cristina",
      "tipo": "cafe",
      "lat": 39.8665294,
      "lon": -4.0229794,
      "direccion": "Calle Marqués de Mendigorría 1",
      "codigo_postal": "45003",
      "telefono": null,
      "web": null,
      "instagram": null,
      "horario": null,
      "terraza": false
    },
    {
      "id": "osm_node_2631538397",
      "nombre": "Valinor Café",
      "tipo": "cafe",
      "lat": 39.8626478,
      "lon": -4.0248309,
      "direccion": "Calle Real del Arrabal 26",
      "codigo_postal": "45003",
      "telefono": null,
      "web": null,
      "instagram": null,
      "horario": null,
      "terraza": false
    },
    {
      "id": "osm_node_2631538398",
      "nombre": "Taberna del Livingstone",
      "tipo": "bar",
      "lat": 39.8596237,
      "lon": -4.0247055,
      "direccion": "Calle Alfileritos 4",
      "codigo_postal": "45003",
      "telefono": null,
      "web": null,
      "instagram": null,
      "horario": null,
      "terraza": false
    },
    {
      "id": "osm_node_2632531188",
      "nombre": "Café-Bar La Plaza",
      "tipo": "cafe",
      "lat": 40.0432015,
      "lon": -3.9022897,
      "direccion": null,
      "codigo_postal": null,
      "telefono": null,
      "web": null,
      "instagram": null,
      "horario": null,
      "terraza": false
    },
    {
      "id": "osm_node_2632740499",
      "nombre": "Jacaranda Bar",
      "tipo": "bar",
      "lat": 39.8599929,
      "lon": -4.0242705,
      "direccion": "Callejón Dos Codos 1",
      "codigo_postal": "45003",
      "telefono": "+34 925 21 22 31",
      "web": null,
      "instagram": null,
      "horario": null,
      "terraza": false
    },
    {
      "id": "osm_node_2635994185",
      "nombre": "Cervezería El Pozo",
      "tipo": "bar",
      "lat": 39.8682841,
      "lon": -4.0248927,
      "direccion": "Calle de Valdivias 11",
      "codigo_postal": "45003",
      "telefono": null,
      "web": null,
      "instagram": null,
      "horario": null,
      "terraza": false
    },
    {
      "id": "osm_node_2635994187",
      "nombre": "Bar San Antonio",
      "tipo": "bar",
      "lat": 39.8682947,
      "lon": -4.0249765,
      "direccion": "Calle de Valdivias 11",
      "codigo_postal": "45003",
      "telefono": null,
      "web": null,
      "instagram": null,
      "horario": null,
      "terraza": false
    },
    {
      "id": "osm_node_2637702277",
      "nombre": "Buca",
      "tipo": "bar",
      "lat": 39.8642296,
      "lon": -4.0270214,
      "direccion": "Calle de Talavera de la Reina 4",
      "codigo_postal": "45003",
      "telefono": "+34 655 32 23 18",
      "web": null,
      "instagram": null,
      "horario": null,
      "terraza": false
    },
    {
      "id": "osm_node_2637702284",
      "nombre": "Bar Rest. La Muralla",
      "tipo": "bar",
      "lat": 39.864394,
      "lon": -4.026441,
      "direccion": "Calle de la Diputación 1",
      "codigo_postal": "45003",
      "telefono": null,
      "web": null,
      "instagram": null,
      "horario": null,
      "terraza": false
    },
    {
      "id": "osm_node_2639769717",
      "nombre": "Samoa",
      "tipo": "bar",
      "lat": 39.9593521,
      "lon": -3.4990327,
      "direccion": null,
      "codigo_postal": null,
      "telefono": null,
      "web": null,
      "instagram": null,
      "horario": null,
      "terraza": false
    },
    {
      "id": "osm_node_2642882411",
      "nombre": "Libro Taberna El Internacional",
      "tipo": "bar",
      "lat": 39.8562847,
      "lon": -4.0255845,
      "direccion": "Calle de la Ciudad 15",
      "codigo_postal": "45002",
      "telefono": "+34 925 67 27 65",
      "web": null,
      "instagram": null,
      "horario": null,
      "terraza": false
    },
    {
      "id": "osm_node_2642882448",
      "nombre": "Café de las Monjas",
      "tipo": "cafe",
      "lat": 39.8568547,
      "lon": -4.0271774,
      "direccion": "Calle Santo Tomé 2",
      "codigo_postal": "45002",
      "telefono": "+34 925 213424",
      "web": "https://www.elcafedelasmonjas.com/",
      "instagram": null,
      "horario": null,
      "terraza": false
    },
    {
      "id": "osm_node_2642882452",
      "nombre": "Restaurante Cervecería Almacén 51",
      "tipo": "pub",
      "lat": 39.8569277,
      "lon": -4.026975,
      "direccion": "Calle Rojas 2",
      "codigo_postal": "45002",
      "telefono": "+34 925224059",
      "web": null,
      "instagram": null,
      "horario": null,
      "terraza": false
    },
    {
      "id": "osm_node_2642882493",
      "nombre": "Vía Máxima Cafetería",
      "tipo": "cafe",
      "lat": 39.8577349,
      "lon": -4.0249047,
      "direccion": "Calle La Trinidad 6",
      "codigo_postal": "45002",
      "telefono": "+34 925225270",
      "web": "http://www.viamaxima.com",
      "instagram": null,
      "horario": null,
      "terraza": false
    },
    {
      "id": "osm_node_2642882494",
      "nombre": "la malquerida de la trinidad",
      "tipo": "cafe",
      "lat": 39.857752,
      "lon": -4.0246836,
      "direccion": "Calle La Trinidad 2",
      "codigo_postal": "45002",
      "telefono": "+34 925672054",
      "web": "https://www.lamalquerida.es",
      "instagram": null,
      "horario": null,
      "terraza": false
    },
    {
      "id": "osm_node_2648637518",
      "nombre": "Bar La Alcaldía",
      "tipo": "bar",
      "lat": 39.8580672,
      "lon": -4.0245267,
      "direccion": "Calle de la Granada 3",
      "codigo_postal": "45001",
      "telefono": null,
      "web": null,
      "instagram": null,
      "horario": null,
      "terraza": false
    },
    {
      "id": "osm_node_2648637532",
      "nombre": "Sala Pícaro",
      "tipo": "pub",
      "lat": 39.8595858,
      "lon": -4.0228975,
      "direccion": "Calle de las Cadenas 6",
      "codigo_postal": "45001",
      "telefono": "+34 925 22 13 01",
      "web": "https://www.picarotoledo.com/",
      "instagram": null,
      "horario": null,
      "terraza": false
    },
    {
      "id": "osm_node_2648637539",
      "nombre": "Cafetería La Pepa",
      "tipo": "cafe",
      "lat": 39.8595009,
      "lon": -4.0229917,
      "direccion": "Calle de las Cadenas 5",
      "codigo_postal": "45001",
      "telefono": null,
      "web": null,
      "instagram": null,
      "horario": null,
      "terraza": false
    },
    {
      "id": "osm_node_2648637547",
      "nombre": "Starbucks",
      "tipo": "cafe",
      "lat": 39.8592023,
      "lon": -4.0223516,
      "direccion": "Calle del Comercio 40",
      "codigo_postal": "45001",
      "telefono": "+34 925 25 15 06",
      "web": "https://www.starbucks.es",
      "instagram": null,
      "horario": "Mo-Su 08:00-22:00",
      "terraza": false
    },
    {
      "id": "osm_node_2648705984",
      "nombre": "Taberna Amboades",
      "tipo": "bar",
      "lat": 39.8619127,
      "lon": -4.0257793,
      "direccion": "Calle Alfonso VI 5",
      "codigo_postal": "45003",
      "telefono": "+34 678483749",
      "web": "http://amboades.com/taberna-amboades/",
      "instagram": null,
      "horario": null,
      "terraza": false
    },
    {
      "id": "osm_node_2656736072",
      "nombre": "Café Bar Casablanca",
      "tipo": "cafe",
      "lat": 39.8622398,
      "lon": -4.0220107,
      "direccion": "Calle Azacanes 49",
      "codigo_postal": "45003",
      "telefono": null,
      "web": null,
      "instagram": null,
      "horario": null,
      "terraza": false
    },
    {
      "id": "osm_node_2656736161",
      "nombre": "El Pellejito Bar",
      "tipo": "bar",
      "lat": 39.8592469,
      "lon": -4.0265503,
      "direccion": "Calle Tendillas 12",
      "codigo_postal": "45002",
      "telefono": null,
      "web": null,
      "instagram": null,
      "horario": null,
      "terraza": false
    },
    {
      "id": "osm_node_2660367744",
      "nombre": "Oki Oki Rock",
      "tipo": "bar",
      "lat": 39.8597877,
      "lon": -4.0234388,
      "direccion": "Calle Alfileritos 26",
      "codigo_postal": "45003",
      "telefono": "+34678 53 38 99",
      "web": null,
      "instagram": null,
      "horario": null,
      "terraza": false
    },
    {
      "id": "osm_node_2660367745",
      "nombre": "Caelia Cervecería",
      "tipo": "pub",
      "lat": 39.8599686,
      "lon": -4.0235394,
      "direccion": "Calle Cristo de la Luz 4",
      "codigo_postal": "45003",
      "telefono": "+34 647 56 37 85",
      "web": null,
      "instagram": null,
      "horario": null,
      "terraza": false
    },
    {
      "id": "osm_node_2660367746",
      "nombre": "Camelot",
      "tipo": "pub",
      "lat": 39.8601396,
      "lon": -4.0235853,
      "direccion": "Calle Cristo de la Luz 10",
      "codigo_postal": "45003",
      "telefono": "+34 610 47 18 86",
      "web": null,
      "instagram": null,
      "horario": null,
      "terraza": false
    },
    {
      "id": "osm_node_2660367747",
      "nombre": "MamaPaca",
      "tipo": "pub",
      "lat": 39.8604726,
      "lon": -4.0241327,
      "direccion": "Calle Cristo de la Luz 20",
      "codigo_postal": "45003",
      "telefono": null,
      "web": null,
      "instagram": null,
      "horario": null,
      "terraza": false
    },
    {
      "id": "osm_node_2660367748",
      "nombre": "La Clave de Corleone",
      "tipo": "bar",
      "lat": 39.8598265,
      "lon": -4.0238963,
      "direccion": "Calle Alfileritos 13",
      "codigo_postal": "45003",
      "telefono": "+34 610 83 22 77",
      "web": null,
      "instagram": null,
      "horario": "Th 22:00-02:30; Fr,Sa 22:00-04:00",
      "terraza": false
    },
    {
      "id": "osm_node_2660367750",
      "nombre": "Ginger´s Bar de Copas",
      "tipo": "bar",
      "lat": 39.8597772,
      "lon": -4.0236026,
      "direccion": "Calle Alfileritos 22",
      "codigo_postal": "45003",
      "telefono": "+34661 81 37 37",
      "web": null,
      "instagram": null,
      "horario": "Th-Sa 23:00-02:30",
      "terraza": false
    },
    {
      "id": "osm_node_2660367765",
      "nombre": "Bar Sillería",
      "tipo": "bar",
      "lat": 39.860026,
      "lon": -4.021846,
      "direccion": "Calle Sillería 9",
      "codigo_postal": "45001",
      "telefono": "+34615 01 79 66",
      "web": null,
      "instagram": null,
      "horario": null,
      "terraza": false
    },
    {
      "id": "osm_node_2660367766",
      "nombre": "El Gallo Café & Bar",
      "tipo": "pub",
      "lat": 39.8600501,
      "lon": -4.0216518,
      "direccion": "Callejón Sillería 1",
      "codigo_postal": "45001",
      "telefono": "+34 925 25 64 51",
      "web": null,
      "instagram": null,
      "horario": null,
      "terraza": false
    },
    {
      "id": "osm_node_2660367773",
      "nombre": "Dodici",
      "tipo": "pub",
      "lat": 39.8605503,
      "lon": -4.0213303,
      "direccion": "Plaza de la Campana",
      "codigo_postal": "45001",
      "telefono": null,
      "web": null,
      "instagram": null,
      "horario": null,
      "terraza": false
    },
    {
      "id": "osm_node_2660367777",
      "nombre": "O'Briens Irish Pub",
      "tipo": "bar",
      "lat": 39.8602744,
      "lon": -4.0209894,
      "direccion": "Calle de las Armas 12",
      "codigo_postal": "45001",
      "telefono": null,
      "web": null,
      "instagram": null,
      "horario": "Mo-We 19:00-02:30; Th-Su 11:00-04:00",
      "terraza": false
    },
    {
      "id": "osm_node_2692528930",
      "nombre": "Café Bar Avenida",
      "tipo": "cafe",
      "lat": 39.8625313,
      "lon": -3.9462246,
      "direccion": "Calle del Río Fresnedoso 22",
      "codigo_postal": "45007",
      "telefono": null,
      "web": null,
      "instagram": null,
      "horario": null,
      "terraza": false
    },
    {
      "id": "osm_node_2699260518",
      "nombre": "Café Bar El Nido",
      "tipo": "cafe",
      "lat": 39.8592381,
      "lon": -4.0236515,
      "direccion": "Calle de la Plata 13",
      "codigo_postal": "45001",
      "telefono": null,
      "web": null,
      "instagram": null,
      "horario": null,
      "terraza": false
    },
    {
      "id": "osm_node_2699260531",
      "nombre": "Restaurante Cervecería Entrecalles",
      "tipo": "bar",
      "lat": 39.8590345,
      "lon": -4.0208552,
      "direccion": "Calle Unión",
      "codigo_postal": "45001",
      "telefono": null,
      "web": null,
      "instagram": null,
      "horario": null,
      "terraza": false
    },
    {
      "id": "osm_node_2699260552",
      "nombre": "The Explorer´s Club",
      "tipo": "pub",
      "lat": 39.8583753,
      "lon": -4.0216465,
      "direccion": "Plaza Horno de La Magdalena 1",
      "codigo_postal": "45001",
      "telefono": null,
      "web": null,
      "instagram": null,
      "horario": null,
      "terraza": false
    },
    {
      "id": "osm_node_2699260554",
      "nombre": "Sithon´s",
      "tipo": "pub",
      "lat": 39.858682,
      "lon": -4.0214502,
      "direccion": "Callejón del Lucio 2",
      "codigo_postal": "45001",
      "telefono": "+34617312439",
      "web": "http://www.sithons-discoteca.es/index.html",
      "instagram": null,
      "horario": null,
      "terraza": false
    },
    {
      "id": "osm_node_2707951312",
      "nombre": "Rous Café Corma",
      "tipo": "cafe",
      "lat": 39.9244233,
      "lon": -4.3489956,
      "direccion": "Plaza del Generalísimo",
      "codigo_postal": "45517",
      "telefono": null,
      "web": null,
      "instagram": null,
      "horario": null,
      "terraza": false
    },
    {
      "id": "osm_node_2707951324",
      "nombre": "Cervecería Acirate",
      "tipo": "bar",
      "lat": 39.9247905,
      "lon": -4.348662,
      "direccion": "Plaza de España 5",
      "codigo_postal": "45517",
      "telefono": null,
      "web": null,
      "instagram": null,
      "horario": null,
      "terraza": false
    },
    {
      "id": "osm_node_2707951329",
      "nombre": "Bar Saisa´s",
      "tipo": "bar",
      "lat": 39.9245412,
      "lon": -4.348582,
      "direccion": "Calle Mesón 4",
      "codigo_postal": "45517",
      "telefono": null,
      "web": null,
      "instagram": null,
      "horario": null,
      "terraza": false
    },
    {
      "id": "osm_node_2707951334",
      "nombre": "Asperilla Bar Terraza",
      "tipo": "pub",
      "lat": 39.9245079,
      "lon": -4.3485013,
      "direccion": "Calle Mesón 3",
      "codigo_postal": "45517",
      "telefono": null,
      "web": null,
      "instagram": null,
      "horario": null,
      "terraza": false
    },
    {
      "id": "osm_node_2707960454",
      "nombre": "Taberna El Encanto",
      "tipo": "bar",
      "lat": 39.860207,
      "lon": -4.0281935,
      "direccion": "Plaza de la Merced 3",
      "codigo_postal": "45002",
      "telefono": null,
      "web": null,
      "instagram": null,
      "horario": null,
      "terraza": false
    },
    {
      "id": "osm_node_2721666354",
      "nombre": "Cervecería Tragaldabas",
      "tipo": "pub",
      "lat": 39.7976562,
      "lon": -3.9443658,
      "direccion": "Plaza de la Constitución 7",
      "codigo_postal": "45190",
      "telefono": "+34 925 36 66 28",
      "web": null,
      "instagram": null,
      "horario": "Mo-Fr 09:00-24:00; Sa-Su 11:00-02:00",
      "terraza": false
    },
    {
      "id": "osm_node_2722493095",
      "nombre": "Grey Cafetería",
      "tipo": "cafe",
      "lat": 39.8732014,
      "lon": -4.0265663,
      "direccion": null,
      "codigo_postal": null,
      "telefono": null,
      "web": null,
      "instagram": null,
      "horario": null,
      "terraza": false
    },
    {
      "id": "osm_node_2723860716",
      "nombre": "Manduka Cafetería",
      "tipo": "cafe",
      "lat": 39.8590322,
      "lon": -4.0226788,
      "direccion": "Calle Comercio 33",
      "codigo_postal": "45001",
      "telefono": "+34 675 53 90 35",
      "web": null,
      "instagram": null,
      "horario": "Mo-Su 08:00-02:00",
      "terraza": false
    },
    {
      "id": "osm_node_2724325755",
      "nombre": "Cafetería Zocodover",
      "tipo": "cafe",
      "lat": 39.8585878,
      "lon": -4.0231531,
      "direccion": "Calle Comercio 11",
      "codigo_postal": "45001",
      "telefono": null,
      "web": null,
      "instagram": null,
      "horario": null,
      "terraza": false
    },
    {
      "id": "osm_node_2724325944",
      "nombre": "Cafetería Wamba",
      "tipo": "cafe",
      "lat": 39.8583117,
      "lon": -4.0233444,
      "direccion": "Calle Comercio 2",
      "codigo_postal": "45001",
      "telefono": "+34 925222057",
      "web": null,
      "instagram": null,
      "horario": null,
      "terraza": false
    },
    {
      "id": "osm_node_2758044382",
      "nombre": "Bar Planchas",
      "tipo": "bar",
      "lat": 39.7217235,
      "lon": -3.6559932,
      "direccion": null,
      "codigo_postal": null,
      "telefono": null,
      "web": null,
      "instagram": null,
      "horario": null,
      "terraza": false
    },
    {
      "id": "osm_node_2800624293",
      "nombre": "Bar Eni",
      "tipo": "pub",
      "lat": 40.024665,
      "lon": -3.8569285,
      "direccion": null,
      "codigo_postal": null,
      "telefono": null,
      "web": null,
      "instagram": null,
      "horario": null,
      "terraza": false
    },
    {
      "id": "osm_node_2805405501",
      "nombre": "Bar Nilamón",
      "tipo": "bar",
      "lat": 40.0228785,
      "lon": -3.8588906,
      "direccion": "Plaza de la Constitución 13",
      "codigo_postal": "45291",
      "telefono": null,
      "web": null,
      "instagram": null,
      "horario": null,
      "terraza": false
    },
    {
      "id": "osm_node_2805435444",
      "nombre": "Bar Hogar del Pensionista",
      "tipo": "pub",
      "lat": 40.0231163,
      "lon": -3.8595,
      "direccion": null,
      "codigo_postal": null,
      "telefono": null,
      "web": null,
      "instagram": null,
      "horario": null,
      "terraza": false
    },
    {
      "id": "osm_node_2891458186",
      "nombre": "Carola",
      "tipo": "cafe",
      "lat": 39.7592019,
      "lon": -3.1675467,
      "direccion": null,
      "codigo_postal": null,
      "telefono": null,
      "web": null,
      "instagram": null,
      "horario": null,
      "terraza": false
    },
    {
      "id": "osm_node_2940992722",
      "nombre": "The Times",
      "tipo": "bar",
      "lat": 39.8672746,
      "lon": -3.9431995,
      "direccion": null,
      "codigo_postal": null,
      "telefono": null,
      "web": null,
      "instagram": null,
      "horario": null,
      "terraza": false
    },
    {
      "id": "osm_node_2981446767",
      "nombre": "Cervecería Barley’s",
      "tipo": "pub",
      "lat": 39.8776442,
      "lon": -4.0373943,
      "direccion": "Ronda de Buenavista 31",
      "codigo_postal": "45005",
      "telefono": "+34 925 62 12 74",
      "web": "http://www.grupoenebro.com/barleys/",
      "instagram": null,
      "horario": "Tu 17:00-23:30; We,Th,Su 09:00-00:30; Fr,Sa 09:00-01:30",
      "terraza": true
    },
    {
      "id": "osm_node_2984271292",
      "nombre": "Café-Bar Olías",
      "tipo": "cafe",
      "lat": 39.9451299,
      "lon": -3.9871216,
      "direccion": null,
      "codigo_postal": null,
      "telefono": null,
      "web": null,
      "instagram": null,
      "horario": null,
      "terraza": false
    },
    {
      "id": "osm_node_2987551460",
      "nombre": "Bar Olías",
      "tipo": "pub",
      "lat": 39.9468753,
      "lon": -3.9874408,
      "direccion": null,
      "codigo_postal": null,
      "telefono": null,
      "web": null,
      "instagram": null,
      "horario": null,
      "terraza": false
    },
    {
      "id": "osm_node_3023044349",
      "nombre": "Los Cocos",
      "tipo": "pub",
      "lat": 40.0026297,
      "lon": -4.3692547,
      "direccion": null,
      "codigo_postal": null,
      "telefono": null,
      "web": null,
      "instagram": null,
      "horario": null,
      "terraza": false
    },
    {
      "id": "osm_node_3042500895",
      "nombre": "Entre Agujas",
      "tipo": "bar",
      "lat": 40.1835167,
      "lon": -4.7404718,
      "direccion": null,
      "codigo_postal": null,
      "telefono": null,
      "web": null,
      "instagram": null,
      "horario": null,
      "terraza": false
    },
    {
      "id": "osm_node_3044848495",
      "nombre": "Bar Castilla",
      "tipo": "bar",
      "lat": 40.1750707,
      "lon": -4.8489939,
      "direccion": null,
      "codigo_postal": null,
      "telefono": null,
      "web": null,
      "instagram": null,
      "horario": null,
      "terraza": false
    },
    {
      "id": "osm_node_3048471090",
      "nombre": "Salamanca",
      "tipo": "bar",
      "lat": 39.4130934,
      "lon": -3.7162288,
      "direccion": null,
      "codigo_postal": null,
      "telefono": null,
      "web": null,
      "instagram": null,
      "horario": null,
      "terraza": false
    },
    {
      "id": "osm_node_3048471091",
      "nombre": "La Concha",
      "tipo": "bar",
      "lat": 39.4127488,
      "lon": -3.7160422,
      "direccion": null,
      "codigo_postal": null,
      "telefono": null,
      "web": null,
      "instagram": null,
      "horario": null,
      "terraza": true
    },
    {
      "id": "osm_node_3048471094",
      "nombre": "Mesón el Sultán",
      "tipo": "bar",
      "lat": 39.4127544,
      "lon": -3.7154811,
      "direccion": null,
      "codigo_postal": null,
      "telefono": null,
      "web": null,
      "instagram": null,
      "horario": null,
      "terraza": false
    },
    {
      "id": "osm_node_3048471095",
      "nombre": "Padi",
      "tipo": "bar",
      "lat": 39.4137185,
      "lon": -3.7159689,
      "direccion": null,
      "codigo_postal": null,
      "telefono": null,
      "web": null,
      "instagram": null,
      "horario": null,
      "terraza": true
    },
    {
      "id": "osm_node_3048471096",
      "nombre": "Media Hoja",
      "tipo": "bar",
      "lat": 39.4134471,
      "lon": -3.7156081,
      "direccion": null,
      "codigo_postal": null,
      "telefono": null,
      "web": null,
      "instagram": null,
      "horario": null,
      "terraza": false
    },
    {
      "id": "osm_node_3048471100",
      "nombre": "Chaplin",
      "tipo": "pub",
      "lat": 39.4148158,
      "lon": -3.7162934,
      "direccion": null,
      "codigo_postal": null,
      "telefono": null,
      "web": null,
      "instagram": null,
      "horario": null,
      "terraza": false
    },
    {
      "id": "osm_node_3048471101",
      "nombre": "La Posada de Lenín",
      "tipo": "bar",
      "lat": 39.4131984,
      "lon": -3.7163672,
      "direccion": null,
      "codigo_postal": null,
      "telefono": null,
      "web": null,
      "instagram": null,
      "horario": null,
      "terraza": false
    },
    {
      "id": "osm_node_3048480538",
      "nombre": "Bar Blayan",
      "tipo": "pub",
      "lat": 39.6228452,
      "lon": -3.3421564,
      "direccion": null,
      "codigo_postal": null,
      "telefono": null,
      "web": null,
      "instagram": null,
      "horario": null,
      "terraza": true
    },
    {
      "id": "osm_node_3057874243",
      "nombre": "Cafetería Miguel Ángel",
      "tipo": "cafe",
      "lat": 39.8736771,
      "lon": -4.0289946,
      "direccion": "Calle París 3",
      "codigo_postal": "45003",
      "telefono": "+34 925 22 78 82",
      "web": null,
      "instagram": null,
      "horario": null,
      "terraza": false
    },
    {
      "id": "osm_node_3068883776",
      "nombre": "Custom Bar",
      "tipo": "bar",
      "lat": 40.0484347,
      "lon": -4.2111094,
      "direccion": "Avenida del Cristo del Amparo 72",
      "codigo_postal": "45510",
      "telefono": null,
      "web": null,
      "instagram": null,
      "horario": null,
      "terraza": false
    },
    {
      "id": "osm_node_3068883777",
      "nombre": "Papa´s",
      "tipo": "bar",
      "lat": 40.0482948,
      "lon": -4.2111097,
      "direccion": "Avenida del Cristo del Amparo",
      "codigo_postal": "45510",
      "telefono": null,
      "web": null,
      "instagram": null,
      "horario": null,
      "terraza": false
    },
    {
      "id": "osm_node_3077662612",
      "nombre": "Taberna El Burladero",
      "tipo": "bar",
      "lat": 39.8645531,
      "lon": -4.3589683,
      "direccion": null,
      "codigo_postal": null,
      "telefono": null,
      "web": null,
      "instagram": null,
      "horario": null,
      "terraza": false
    },
    {
      "id": "osm_node_3077662866",
      "nombre": "Retro",
      "tipo": "bar",
      "lat": 39.8668637,
      "lon": -4.3599958,
      "direccion": null,
      "codigo_postal": null,
      "telefono": null,
      "web": null,
      "instagram": null,
      "horario": null,
      "terraza": false
    },
    {
      "id": "osm_node_3077662867",
      "nombre": "Bolera Paris",
      "tipo": "bar",
      "lat": 39.8668645,
      "lon": -4.3601706,
      "direccion": null,
      "codigo_postal": null,
      "telefono": null,
      "web": null,
      "instagram": null,
      "horario": null,
      "terraza": false
    },
    {
      "id": "osm_node_3092410354",
      "nombre": "Cervecería Tere",
      "tipo": "pub",
      "lat": 39.624281,
      "lon": -3.3318677,
      "direccion": null,
      "codigo_postal": null,
      "telefono": null,
      "web": null,
      "instagram": null,
      "horario": null,
      "terraza": true
    },
    {
      "id": "osm_node_3112559169",
      "nombre": "Bar La Casuca",
      "tipo": "pub",
      "lat": 40.2333582,
      "lon": -4.3915354,
      "direccion": null,
      "codigo_postal": null,
      "telefono": null,
      "web": null,
      "instagram": null,
      "horario": null,
      "terraza": false
    },
    {
      "id": "osm_node_3112559170",
      "nombre": "Bar Escor",
      "tipo": "bar",
      "lat": 40.2332361,
      "lon": -4.3907626,
      "direccion": null,
      "codigo_postal": null,
      "telefono": null,
      "web": null,
      "instagram": null,
      "horario": null,
      "terraza": false
    },
    {
      "id": "osm_node_3147337519",
      "nombre": "Bar Casa Blanca",
      "tipo": "cafe",
      "lat": 39.6963684,
      "lon": -3.5032437,
      "direccion": null,
      "codigo_postal": null,
      "telefono": null,
      "web": null,
      "instagram": null,
      "horario": null,
      "terraza": false
    },
    {
      "id": "osm_node_3147337520",
      "nombre": "Café Vizcaíno",
      "tipo": "cafe",
      "lat": 39.6981099,
      "lon": -3.5029925,
      "direccion": null,
      "codigo_postal": null,
      "telefono": null,
      "web": null,
      "instagram": null,
      "horario": null,
      "terraza": false
    },
    {
      "id": "osm_node_3157663131",
      "nombre": "Bar Roland",
      "tipo": "pub",
      "lat": 39.6972975,
      "lon": -3.5042181,
      "direccion": null,
      "codigo_postal": null,
      "telefono": null,
      "web": null,
      "instagram": null,
      "horario": null,
      "terraza": false
    },
    {
      "id": "osm_node_3187191636",
      "nombre": "Club Social",
      "tipo": "bar",
      "lat": 40.1420558,
      "lon": -4.4027905,
      "direccion": null,
      "codigo_postal": null,
      "telefono": null,
      "web": null,
      "instagram": null,
      "horario": null,
      "terraza": false
    },
    {
      "id": "osm_node_3228101750",
      "nombre": "Bar Mesón del Cerro Pelón 1",
      "tipo": "bar",
      "lat": 39.7252618,
      "lon": -4.6408267,
      "direccion": "Calle la Iglesia",
      "codigo_postal": null,
      "telefono": null,
      "web": null,
      "instagram": null,
      "horario": null,
      "terraza": false
    },
    {
      "id": "osm_node_3228101751",
      "nombre": "CHARRA'S",
      "tipo": "pub",
      "lat": 39.7249565,
      "lon": -4.6416625,
      "direccion": null,
      "codigo_postal": null,
      "telefono": null,
      "web": null,
      "instagram": null,
      "horario": null,
      "terraza": false
    },
    {
      "id": "osm_node_3247706098",
      "nombre": "Bar Pacheco",
      "tipo": "bar",
      "lat": 39.7265328,
      "lon": -4.6396579,
      "direccion": null,
      "codigo_postal": null,
      "telefono": null,
      "web": null,
      "instagram": null,
      "horario": null,
      "terraza": false
    },
    {
      "id": "osm_node_3254881157",
      "nombre": "El Último",
      "tipo": "pub",
      "lat": 39.8560498,
      "lon": -4.0224159,
      "direccion": null,
      "codigo_postal": null,
      "telefono": null,
      "web": null,
      "instagram": null,
      "horario": null,
      "terraza": false
    },
    {
      "id": "osm_node_3254881336",
      "nombre": "Virtudes Café Bar & Music",
      "tipo": "bar",
      "lat": 39.8563381,
      "lon": -4.021866,
      "direccion": "Plaza de San Justo 9",
      "codigo_postal": null,
      "telefono": null,
      "web": null,
      "instagram": null,
      "horario": null,
      "terraza": false
    },
    {
      "id": "osm_node_3332492443",
      "nombre": "SIP COFFEE",
      "tipo": "cafe",
      "lat": 41.6768197,
      "lon": -83.6208853,
      "direccion": "Markway Road 3160",
      "codigo_postal": "43606",
      "telefono": null,
      "web": null,
      "instagram": null,
      "horario": null,
      "terraza": false
    },
    {
      "id": "osm_node_3334518941",
      "nombre": "Black Kite Coffee & Pies",
      "tipo": "cafe",
      "lat": 41.670946,
      "lon": -83.5554114,
      "direccion": "Collingwood Boulevard 2499",
      "codigo_postal": "43620",
      "telefono": "+1 419-720-5820",
      "web": "http://www.blackkitecoffee.com",
      "instagram": null,
      "horario": "Mo-Fr 07:00-19:00; Sa 09:00-17:00; Su 10:00-17:00",
      "terraza": false
    },
    {
      "id": "osm_node_3445006432",
      "nombre": "Maribel",
      "tipo": "pub",
      "lat": 39.9417979,
      "lon": -4.4384125,
      "direccion": null,
      "codigo_postal": null,
      "telefono": null,
      "web": null,
      "instagram": null,
      "horario": null,
      "terraza": false
    },
    {
      "id": "osm_node_3445006455",
      "nombre": "Cervecería Rober",
      "tipo": "pub",
      "lat": 39.9411267,
      "lon": -4.4382598,
      "direccion": null,
      "codigo_postal": null,
      "telefono": null,
      "web": null,
      "instagram": null,
      "horario": null,
      "terraza": false
    },
    {
      "id": "osm_node_3452188783",
      "nombre": "Cafetería Los Patos",
      "tipo": "bar",
      "lat": 39.8653982,
      "lon": -3.945484,
      "direccion": null,
      "codigo_postal": null,
      "telefono": null,
      "web": null,
      "instagram": null,
      "horario": null,
      "terraza": false
    },
    {
      "id": "osm_node_3467706489",
      "nombre": "El Túnel",
      "tipo": "bar",
      "lat": 39.9576437,
      "lon": -3.4991987,
      "direccion": "Avenida del Generalísimo 3",
      "codigo_postal": "45300",
      "telefono": null,
      "web": null,
      "instagram": null,
      "horario": null,
      "terraza": false
    },
    {
      "id": "osm_node_3512177366",
      "nombre": "El Peseto",
      "tipo": "bar",
      "lat": 39.7227597,
      "lon": -3.6546715,
      "direccion": null,
      "codigo_postal": null,
      "telefono": null,
      "web": null,
      "instagram": null,
      "horario": null,
      "terraza": false
    },
    {
      "id": "osm_node_3524458049",
      "nombre": "Miguel",
      "tipo": "bar",
      "lat": 39.6096507,
      "lon": -4.9050676,
      "direccion": "Real 4",
      "codigo_postal": "45674",
      "telefono": null,
      "web": null,
      "instagram": null,
      "horario": null,
      "terraza": false
    },
    {
      "id": "osm_node_3577261445",
      "nombre": "Bar de Loli",
      "tipo": "bar",
      "lat": 39.8300533,
      "lon": -5.2262605,
      "direccion": null,
      "codigo_postal": null,
      "telefono": null,
      "web": null,
      "instagram": null,
      "horario": null,
      "terraza": false
    },
    {
      "id": "osm_node_3603950038",
      "nombre": "Corbatos",
      "tipo": "bar",
      "lat": 39.8823194,
      "lon": -3.972086,
      "direccion": null,
      "codigo_postal": null,
      "telefono": null,
      "web": null,
      "instagram": null,
      "horario": null,
      "terraza": false
    },
    {
      "id": "osm_node_3623093041",
      "nombre": "Enebro",
      "tipo": "bar",
      "lat": 39.866717,
      "lon": -3.9443749,
      "direccion": null,
      "codigo_postal": null,
      "telefono": null,
      "web": null,
      "instagram": null,
      "horario": null,
      "terraza": false
    },
    {
      "id": "osm_node_3676799992",
      "nombre": "Bar Escalón",
      "tipo": "bar",
      "lat": 40.120863,
      "lon": -3.8046136,
      "direccion": "Avenida Rufino Rubio 5",
      "codigo_postal": "45220",
      "telefono": null,
      "web": null,
      "instagram": null,
      "horario": null,
      "terraza": false
    },
    {
      "id": "osm_node_3710210309",
      "nombre": "Bar Tubilla",
      "tipo": "bar",
      "lat": 39.9568183,
      "lon": -4.8326398,
      "direccion": "Calle de Francisco Arroyo",
      "codigo_postal": "45600",
      "telefono": null,
      "web": null,
      "instagram": null,
      "horario": null,
      "terraza": false
    },
    {
      "id": "osm_node_3713802936",
      "nombre": "Cafetería Still",
      "tipo": "cafe",
      "lat": 39.8067609,
      "lon": -5.1690668,
      "direccion": null,
      "codigo_postal": null,
      "telefono": null,
      "web": null,
      "instagram": null,
      "horario": null,
      "terraza": false
    },
    {
      "id": "osm_node_3713803589",
      "nombre": "Cafetería Herrero",
      "tipo": "cafe",
      "lat": 39.8028788,
      "lon": -5.1727951,
      "direccion": null,
      "codigo_postal": null,
      "telefono": null,
      "web": null,
      "instagram": null,
      "horario": null,
      "terraza": false
    },
    {
      "id": "osm_node_3713803590",
      "nombre": "Cafetería Blanco",
      "tipo": "cafe",
      "lat": 39.8026542,
      "lon": -5.1724384,
      "direccion": null,
      "codigo_postal": null,
      "telefono": null,
      "web": null,
      "instagram": null,
      "horario": null,
      "terraza": false
    },
    {
      "id": "osm_node_3713803664",
      "nombre": "Cafetería Etcétera",
      "tipo": "cafe",
      "lat": 39.8048693,
      "lon": -5.1700754,
      "direccion": null,
      "codigo_postal": null,
      "telefono": null,
      "web": null,
      "instagram": null,
      "horario": null,
      "terraza": false
    },
    {
      "id": "osm_node_3714921501",
      "nombre": "Galería 54",
      "tipo": "bar",
      "lat": 39.8028103,
      "lon": -5.1722018,
      "direccion": null,
      "codigo_postal": null,
      "telefono": null,
      "web": null,
      "instagram": null,
      "horario": null,
      "terraza": false
    },
    {
      "id": "osm_node_3750347863",
      "nombre": "Cris Ana",
      "tipo": "bar",
      "lat": 39.9588774,
      "lon": -3.4999583,
      "direccion": "Calle Mayor 3",
      "codigo_postal": "45300",
      "telefono": null,
      "web": null,
      "instagram": null,
      "horario": null,
      "terraza": false
    },
    {
      "id": "osm_node_3750347864",
      "nombre": "Baretto",
      "tipo": "bar",
      "lat": 39.9589441,
      "lon": -3.4997236,
      "direccion": "Calle Mayor",
      "codigo_postal": "45300",
      "telefono": null,
      "web": null,
      "instagram": null,
      "horario": null,
      "terraza": false
    },
    {
      "id": "osm_node_3769297314",
      "nombre": "El Pico",
      "tipo": "bar",
      "lat": 40.1315339,
      "lon": -3.9761143,
      "direccion": null,
      "codigo_postal": null,
      "telefono": null,
      "web": null,
      "instagram": null,
      "horario": null,
      "terraza": false
    },
    {
      "id": "osm_node_3791306972",
      "nombre": "milenio 2000",
      "tipo": "bar",
      "lat": 39.8604632,
      "lon": -4.0216741,
      "direccion": null,
      "codigo_postal": null,
      "telefono": null,
      "web": null,
      "instagram": null,
      "horario": null,
      "terraza": false
    },
    {
      "id": "osm_node_3849105032",
      "nombre": "Tornerías Cervecería Restaurante",
      "tipo": "cafe",
      "lat": 39.8583336,
      "lon": -4.0226671,
      "direccion": "Calle Tornerías 5",
      "codigo_postal": null,
      "telefono": null,
      "web": null,
      "instagram": null,
      "horario": null,
      "terraza": false
    },
    {
      "id": "osm_node_3881619915",
      "nombre": "Rincón Bar",
      "tipo": "pub",
      "lat": 39.8571413,
      "lon": -4.0286652,
      "direccion": "Calle Santo Tomé 30",
      "codigo_postal": null,
      "telefono": null,
      "web": null,
      "instagram": null,
      "horario": null,
      "terraza": false
    },
    {
      "id": "osm_node_3881619916",
      "nombre": "Taberna Fábula",
      "tipo": "pub",
      "lat": 39.8602234,
      "lon": -4.0279793,
      "direccion": "Plaza La Merced 6",
      "codigo_postal": null,
      "telefono": null,
      "web": null,
      "instagram": null,
      "horario": null,
      "terraza": false
    },
    {
      "id": "osm_node_3881619917",
      "nombre": "Terraza Caracena",
      "tipo": "pub",
      "lat": 39.8567534,
      "lon": -4.0271364,
      "direccion": "Plaza de El Salvador",
      "codigo_postal": null,
      "telefono": null,
      "web": null,
      "instagram": null,
      "horario": null,
      "terraza": false
    },
    {
      "id": "osm_node_3913100903",
      "nombre": "Terraza Bar Piscina",
      "tipo": "biergarten",
      "lat": 39.9070916,
      "lon": -3.6246948,
      "direccion": null,
      "codigo_postal": null,
      "telefono": null,
      "web": null,
      "instagram": null,
      "horario": null,
      "terraza": false
    },
    {
      "id": "osm_node_4022842803",
      "nombre": "El Lagar",
      "tipo": "bar",
      "lat": 39.761856,
      "lon": -4.9476352,
      "direccion": "Calle Real 33",
      "codigo_postal": "45660",
      "telefono": null,
      "web": null,
      "instagram": null,
      "horario": null,
      "terraza": false
    },
    {
      "id": "osm_node_4022867989",
      "nombre": "Garnache",
      "tipo": "bar",
      "lat": 39.7594137,
      "lon": -4.9493128,
      "direccion": null,
      "codigo_postal": null,
      "telefono": null,
      "web": null,
      "instagram": null,
      "horario": null,
      "terraza": false
    },
    {
      "id": "osm_node_4065819451",
      "nombre": "Avenida Copas",
      "tipo": "bar",
      "lat": 39.5143363,
      "lon": -2.9941122,
      "direccion": null,
      "codigo_postal": null,
      "telefono": null,
      "web": null,
      "instagram": null,
      "horario": null,
      "terraza": false
    },
    {
      "id": "osm_node_4065819457",
      "nombre": "La Competencia",
      "tipo": "bar",
      "lat": 39.5144315,
      "lon": -2.99419,
      "direccion": null,
      "codigo_postal": null,
      "telefono": null,
      "web": null,
      "instagram": null,
      "horario": null,
      "terraza": false
    },
    {
      "id": "osm_node_4065819463",
      "nombre": "El Rincón de La Mancha",
      "tipo": "bar",
      "lat": 39.5166994,
      "lon": -2.9956733,
      "direccion": null,
      "codigo_postal": null,
      "telefono": null,
      "web": null,
      "instagram": null,
      "horario": null,
      "terraza": false
    },
    {
      "id": "osm_node_4065819465",
      "nombre": "Rocinante",
      "tipo": "bar",
      "lat": 39.5160558,
      "lon": -2.9954854,
      "direccion": null,
      "codigo_postal": null,
      "telefono": null,
      "web": null,
      "instagram": null,
      "horario": null,
      "terraza": false
    },
    {
      "id": "osm_node_4065910234",
      "nombre": "Hermanos Martínez",
      "tipo": "bar",
      "lat": 39.5165029,
      "lon": -2.9954479,
      "direccion": null,
      "codigo_postal": null,
      "telefono": null,
      "web": null,
      "instagram": null,
      "horario": null,
      "terraza": false
    },
    {
      "id": "osm_node_4080102305",
      "nombre": "Starbucks",
      "tipo": "cafe",
      "lat": 41.7048787,
      "lon": -83.5868212,
      "direccion": "Jackman Road 4925",
      "codigo_postal": "43613",
      "telefono": "+1 419-475-4394",
      "web": "https://www.starbucks.com/store-locator/store/13744/kroger-toledo-511-4925-jackman-rd-toledo-oh-436133574-us",
      "instagram": null,
      "horario": null,
      "terraza": false
    },
    {
      "id": "osm_node_4085057590",
      "nombre": "Nuevo Milenio",
      "tipo": "bar",
      "lat": 39.7595665,
      "lon": -4.949766,
      "direccion": null,
      "codigo_postal": null,
      "telefono": null,
      "web": null,
      "instagram": null,
      "horario": null,
      "terraza": false
    },
    {
      "id": "osm_node_4085057591",
      "nombre": "Melenas",
      "tipo": "bar",
      "lat": 39.7552299,
      "lon": -4.948104,
      "direccion": null,
      "codigo_postal": null,
      "telefono": null,
      "web": null,
      "instagram": null,
      "horario": null,
      "terraza": false
    },
    {
      "id": "osm_node_4178986050",
      "nombre": "Cerveceria el Tirador",
      "tipo": "pub",
      "lat": 39.8612159,
      "lon": -4.0246174,
      "direccion": "Calle Real del Arrabal 2",
      "codigo_postal": "45003",
      "telefono": "+34925229300",
      "web": null,
      "instagram": null,
      "horario": null,
      "terraza": false
    },
    {
      "id": "osm_node_4180690989",
      "nombre": "Canelita",
      "tipo": "cafe",
      "lat": 39.8631503,
      "lon": -4.020659,
      "direccion": null,
      "codigo_postal": null,
      "telefono": null,
      "web": null,
      "instagram": null,
      "horario": null,
      "terraza": false
    },
    {
      "id": "osm_node_4181194906",
      "nombre": "El Brocal",
      "tipo": "cafe",
      "lat": 39.8562555,
      "lon": -4.0245801,
      "direccion": null,
      "codigo_postal": null,
      "telefono": null,
      "web": null,
      "instagram": null,
      "horario": null,
      "terraza": false
    },
    {
      "id": "osm_node_4183895899",
      "nombre": "El Quiñón",
      "tipo": "cafe",
      "lat": 40.1284127,
      "lon": -3.669488,
      "direccion": null,
      "codigo_postal": null,
      "telefono": null,
      "web": null,
      "instagram": null,
      "horario": null,
      "terraza": false
    },
    {
      "id": "osm_node_4226588361",
      "nombre": "Bar Piscis",
      "tipo": "bar",
      "lat": 39.8685938,
      "lon": -3.9410732,
      "direccion": "Calle del Río Cascajoso 9",
      "codigo_postal": "45007",
      "telefono": null,
      "web": null,
      "instagram": null,
      "horario": null,
      "terraza": false
    },
    {
      "id": "osm_node_4226980337",
      "nombre": "Suizo",
      "tipo": "bar",
      "lat": 39.9838189,
      "lon": -4.2881789,
      "direccion": null,
      "codigo_postal": null,
      "telefono": null,
      "web": null,
      "instagram": null,
      "horario": null,
      "terraza": false
    },
    {
      "id": "osm_node_4226982790",
      "nombre": "Beatriz",
      "tipo": "bar",
      "lat": 39.9820524,
      "lon": -4.2862103,
      "direccion": null,
      "codigo_postal": null,
      "telefono": null,
      "web": null,
      "instagram": null,
      "horario": null,
      "terraza": false
    },
    {
      "id": "osm_node_4226992926",
      "nombre": "El Cristo",
      "tipo": "bar",
      "lat": 39.9820358,
      "lon": -4.2832107,
      "direccion": null,
      "codigo_postal": null,
      "telefono": null,
      "web": null,
      "instagram": null,
      "horario": null,
      "terraza": false
    },
    {
      "id": "osm_node_4226998631",
      "nombre": "Los Ceibos",
      "tipo": "bar",
      "lat": 39.9834253,
      "lon": -4.2876061,
      "direccion": null,
      "codigo_postal": null,
      "telefono": null,
      "web": null,
      "instagram": null,
      "horario": null,
      "terraza": false
    },
    {
      "id": "osm_node_4227005820",
      "nombre": "La Bellota",
      "tipo": "cafe",
      "lat": 39.9857496,
      "lon": -4.2812857,
      "direccion": null,
      "codigo_postal": null,
      "telefono": null,
      "web": null,
      "instagram": null,
      "horario": null,
      "terraza": false
    },
    {
      "id": "osm_node_4264630993",
      "nombre": "La prudenciana",
      "tipo": "cafe",
      "lat": 39.6363383,
      "lon": -3.5174529,
      "direccion": null,
      "codigo_postal": null,
      "telefono": null,
      "web": null,
      "instagram": null,
      "horario": null,
      "terraza": false
    },
    {
      "id": "osm_node_4351791990",
      "nombre": "Los Gavilanes",
      "tipo": "bar",
      "lat": 39.8672261,
      "lon": -4.0222656,
      "direccion": "Avenida de la Plaza de Toros",
      "codigo_postal": "45003",
      "telefono": "+34 925215869",
      "web": "http://www.gavilanes.to",
      "instagram": null,
      "horario": null,
      "terraza": false
    },
    {
      "id": "osm_node_4404137500",
      "nombre": "San Gil",
      "tipo": "bar",
      "lat": 39.983493,
      "lon": -4.2881332,
      "direccion": null,
      "codigo_postal": null,
      "telefono": null,
      "web": null,
      "instagram": null,
      "horario": null,
      "terraza": false
    },
    {
      "id": "osm_node_4404137501",
      "nombre": "La Perla",
      "tipo": "bar",
      "lat": 39.9824663,
      "lon": -4.2834361,
      "direccion": null,
      "codigo_postal": null,
      "telefono": null,
      "web": null,
      "instagram": null,
      "horario": null,
      "terraza": false
    },
    {
      "id": "osm_node_4404142925",
      "nombre": "La Cantina",
      "tipo": "bar",
      "lat": 39.9789485,
      "lon": -4.282973,
      "direccion": null,
      "codigo_postal": null,
      "telefono": null,
      "web": null,
      "instagram": null,
      "horario": null,
      "terraza": false
    },
    {
      "id": "osm_node_4416045489",
      "nombre": "Bar Casino",
      "tipo": "cafe",
      "lat": 39.6967239,
      "lon": -3.5033593,
      "direccion": "Calle de la Iglesia 10",
      "codigo_postal": null,
      "telefono": null,
      "web": null,
      "instagram": null,
      "horario": null,
      "terraza": false
    },
    {
      "id": "osm_node_4416492390",
      "nombre": "El Navarro",
      "tipo": "cafe",
      "lat": 39.9175278,
      "lon": -5.1745342,
      "direccion": "Plaza del Navarro 25",
      "codigo_postal": null,
      "telefono": null,
      "web": null,
      "instagram": null,
      "horario": null,
      "terraza": true
    },
    {
      "id": "osm_node_4437056255",
      "nombre": "Bar Más Allá",
      "tipo": "bar",
      "lat": 40.106643,
      "lon": -4.3279377,
      "direccion": null,
      "codigo_postal": null,
      "telefono": null,
      "web": null,
      "instagram": null,
      "horario": null,
      "terraza": false
    },
    {
      "id": "osm_node_4530920037",
      "nombre": "Cafetería Marietta",
      "tipo": "cafe",
      "lat": 39.8663577,
      "lon": -4.0302725,
      "direccion": "Calle Brasil 4",
      "codigo_postal": "45004",
      "telefono": null,
      "web": null,
      "instagram": null,
      "horario": null,
      "terraza": false
    },
    {
      "id": "osm_node_4530920038",
      "nombre": "Central Perks",
      "tipo": "cafe",
      "lat": 39.8662177,
      "lon": -4.0305944,
      "direccion": "Calle Brasil 3",
      "codigo_postal": "45004",
      "telefono": null,
      "web": null,
      "instagram": null,
      "horario": null,
      "terraza": false
    },
    {
      "id": "osm_node_4530920039",
      "nombre": "Coliseum Cafetería",
      "tipo": "cafe",
      "lat": 39.8661539,
      "lon": -4.0296279,
      "direccion": "Calle Bolivia 2",
      "codigo_postal": "45004",
      "telefono": null,
      "web": null,
      "instagram": null,
      "horario": null,
      "terraza": false
    },
    {
      "id": "osm_node_4587485246",
      "nombre": "Mesón Villahermosa",
      "tipo": "bar",
      "lat": 39.8646232,
      "lon": -4.359378,
      "direccion": "Plaza Mayor 5",
      "codigo_postal": "45516",
      "telefono": null,
      "web": null,
      "instagram": null,
      "horario": null,
      "terraza": false
    },
    {
      "id": "osm_node_4587485248",
      "nombre": "El Túnel",
      "tipo": "bar",
      "lat": 39.8648766,
      "lon": -4.3596409,
      "direccion": "Calle Caño Grande 5",
      "codigo_postal": "45516",
      "telefono": "+34 925 75 00 33",
      "web": null,
      "instagram": null,
      "horario": null,
      "terraza": false
    },
    {
      "id": "osm_node_4594045197",
      "nombre": "Bariloche",
      "tipo": "pub",
      "lat": 39.8667655,
      "lon": -4.0316679,
      "direccion": null,
      "codigo_postal": null,
      "telefono": null,
      "web": null,
      "instagram": null,
      "horario": null,
      "terraza": false
    },
    {
      "id": "osm_node_4594045198",
      "nombre": "Irish Pub",
      "tipo": "pub",
      "lat": 39.8665803,
      "lon": -4.0315979,
      "direccion": null,
      "codigo_postal": null,
      "telefono": null,
      "web": null,
      "instagram": null,
      "horario": null,
      "terraza": false
    },
    {
      "id": "osm_node_4594067096",
      "nombre": "Chocolate con Cecilia",
      "tipo": "cafe",
      "lat": 39.868112,
      "lon": -4.0309118,
      "direccion": null,
      "codigo_postal": null,
      "telefono": null,
      "web": null,
      "instagram": null,
      "horario": null,
      "terraza": false
    },
    {
      "id": "osm_node_4594067097",
      "nombre": "Madeira",
      "tipo": "cafe",
      "lat": 39.8675649,
      "lon": -4.0315956,
      "direccion": null,
      "codigo_postal": null,
      "telefono": null,
      "web": null,
      "instagram": null,
      "horario": null,
      "terraza": false
    },
    {
      "id": "osm_node_4610797239",
      "nombre": "Bar Cuevas de Sancho",
      "tipo": "pub",
      "lat": 39.5915291,
      "lon": -3.0426632,
      "direccion": "Calle Princesa 1",
      "codigo_postal": "45800",
      "telefono": "+34 925180349",
      "web": null,
      "instagram": null,
      "horario": null,
      "terraza": false
    },
    {
      "id": "osm_node_4635631422",
      "nombre": "Bar Diego",
      "tipo": "bar",
      "lat": 40.2336642,
      "lon": -4.3902821,
      "direccion": null,
      "codigo_postal": null,
      "telefono": null,
      "web": null,
      "instagram": null,
      "horario": null,
      "terraza": false
    },
    {
      "id": "osm_node_4705418489",
      "nombre": "Los Faroles",
      "tipo": "bar",
      "lat": 39.7214671,
      "lon": -4.6434555,
      "direccion": null,
      "codigo_postal": null,
      "telefono": null,
      "web": null,
      "instagram": null,
      "horario": null,
      "terraza": false
    },
    {
      "id": "osm_node_4705853336",
      "nombre": "El Cid",
      "tipo": "bar",
      "lat": 39.7252198,
      "lon": -4.6400786,
      "direccion": null,
      "codigo_postal": null,
      "telefono": null,
      "web": null,
      "instagram": null,
      "horario": null,
      "terraza": false
    },
    {
      "id": "osm_node_4732152608",
      "nombre": "La Luna",
      "tipo": "pub",
      "lat": 40.0260372,
      "lon": -4.4264085,
      "direccion": null,
      "codigo_postal": null,
      "telefono": null,
      "web": null,
      "instagram": null,
      "horario": null,
      "terraza": false
    },
    {
      "id": "osm_node_4732164505",
      "nombre": "Plaza",
      "tipo": "pub",
      "lat": 40.02456,
      "lon": -4.4283801,
      "direccion": null,
      "codigo_postal": null,
      "telefono": null,
      "web": null,
      "instagram": null,
      "horario": null,
      "terraza": false
    },
    {
      "id": "osm_node_4745458374",
      "nombre": "La Casona",
      "tipo": "bar",
      "lat": 40.0102686,
      "lon": -4.883038,
      "direccion": "Plaza de la Constitución 12",
      "codigo_postal": "45622",
      "telefono": null,
      "web": null,
      "instagram": null,
      "horario": null,
      "terraza": false
    },
    {
      "id": "osm_node_4745458375",
      "nombre": "Bar El Pájaro",
      "tipo": "bar",
      "lat": 40.0103209,
      "lon": -4.8832248,
      "direccion": "Plaza de la Constitución 13",
      "codigo_postal": "45622",
      "telefono": null,
      "web": null,
      "instagram": null,
      "horario": null,
      "terraza": false
    },
    {
      "id": "osm_node_4745458376",
      "nombre": "Bar Real",
      "tipo": "bar",
      "lat": 40.0103571,
      "lon": -4.8833368,
      "direccion": "Calle Real 4",
      "codigo_postal": "45622",
      "telefono": null,
      "web": null,
      "instagram": null,
      "horario": null,
      "terraza": false
    },
    {
      "id": "osm_node_4806539922",
      "nombre": "Visi",
      "tipo": "bar",
      "lat": 39.7610281,
      "lon": -4.949525,
      "direccion": null,
      "codigo_postal": null,
      "telefono": null,
      "web": null,
      "instagram": null,
      "horario": null,
      "terraza": false
    },
    {
      "id": "osm_node_4833440921",
      "nombre": "agapo Indie & Food",
      "tipo": "bar",
      "lat": 39.8590468,
      "lon": -4.0215258,
      "direccion": null,
      "codigo_postal": null,
      "telefono": null,
      "web": null,
      "instagram": null,
      "horario": null,
      "terraza": false
    },
    {
      "id": "osm_node_4988652304",
      "nombre": "Bar Eloy",
      "tipo": "bar",
      "lat": 39.6607853,
      "lon": -4.6409239,
      "direccion": "Calle Don Tomás 76",
      "codigo_postal": "45130",
      "telefono": "+34 925426332",
      "web": null,
      "instagram": null,
      "horario": null,
      "terraza": false
    },
    {
      "id": "osm_node_4989127721",
      "nombre": "La Fábrica",
      "tipo": "bar",
      "lat": 39.8570008,
      "lon": -4.0275645,
      "direccion": "Calle Santo Tomé 10",
      "codigo_postal": null,
      "telefono": null,
      "web": null,
      "instagram": null,
      "horario": null,
      "terraza": false
    },
    {
      "id": "osm_node_4992296846",
      "nombre": "Cafetería Grys",
      "tipo": "cafe",
      "lat": 39.8730282,
      "lon": -4.035041,
      "direccion": "Calle Canarias 4",
      "codigo_postal": "45004",
      "telefono": null,
      "web": null,
      "instagram": null,
      "horario": "Mo-Su,PH 06:30-14:30",
      "terraza": true
    },
    {
      "id": "osm_node_4992406753",
      "nombre": "Nuevo Ruedo",
      "tipo": "bar",
      "lat": 39.8765226,
      "lon": -4.0328148,
      "direccion": "Calle Agen",
      "codigo_postal": "45004",
      "telefono": null,
      "web": null,
      "instagram": null,
      "horario": null,
      "terraza": true
    },
    {
      "id": "osm_node_4992406760",
      "nombre": "Agen 17",
      "tipo": "bar",
      "lat": 39.8763727,
      "lon": -4.0326806,
      "direccion": "Calle Agen 17",
      "codigo_postal": "45004",
      "telefono": null,
      "web": null,
      "instagram": null,
      "horario": null,
      "terraza": true
    },
    {
      "id": "osm_node_4992406762",
      "nombre": "Palencia de Lara",
      "tipo": "bar",
      "lat": 39.8765955,
      "lon": -4.0328781,
      "direccion": "Calle Agen",
      "codigo_postal": "45004",
      "telefono": null,
      "web": null,
      "instagram": null,
      "horario": null,
      "terraza": true
    },
    {
      "id": "osm_node_4995192121",
      "nombre": "Manzano",
      "tipo": "cafe",
      "lat": 39.8819454,
      "lon": -4.0333237,
      "direccion": "Calle Reino Unido",
      "codigo_postal": "45004",
      "telefono": null,
      "web": null,
      "instagram": null,
      "horario": null,
      "terraza": false
    },
    {
      "id": "osm_node_5001923753",
      "nombre": "Azabache",
      "tipo": "bar",
      "lat": 39.8800141,
      "lon": -4.0295793,
      "direccion": "Plaza de Holanda",
      "codigo_postal": "45004",
      "telefono": null,
      "web": null,
      "instagram": null,
      "horario": null,
      "terraza": false
    },
    {
      "id": "osm_node_5004925868",
      "nombre": "La Rosa",
      "tipo": "cafe",
      "lat": 39.8784213,
      "lon": -4.0364786,
      "direccion": "Ronda de Buenavista",
      "codigo_postal": "45005",
      "telefono": null,
      "web": null,
      "instagram": null,
      "horario": null,
      "terraza": false
    },
    {
      "id": "osm_node_5076135824",
      "nombre": "El rollo del pollo",
      "tipo": "cafe",
      "lat": 40.1272988,
      "lon": -3.6705981,
      "direccion": "Calle de Clauido Coello 9",
      "codigo_postal": "45223",
      "telefono": null,
      "web": null,
      "instagram": null,
      "horario": null,
      "terraza": true
    },
    {
      "id": "osm_node_5076138230",
      "nombre": "Bar Velázquez",
      "tipo": "cafe",
      "lat": 40.1277173,
      "lon": -3.6725032,
      "direccion": null,
      "codigo_postal": null,
      "telefono": null,
      "web": null,
      "instagram": null,
      "horario": null,
      "terraza": false
    },
    {
      "id": "osm_node_5089847847",
      "nombre": "Bombay",
      "tipo": "pub",
      "lat": 39.9748494,
      "lon": -4.9755554,
      "direccion": null,
      "codigo_postal": null,
      "telefono": null,
      "web": null,
      "instagram": null,
      "horario": null,
      "terraza": false
    },
    {
      "id": "osm_node_5246105422",
      "nombre": "Taberna Embrujo",
      "tipo": "pub",
      "lat": 39.8601703,
      "lon": -4.0283882,
      "direccion": "Calle de Santa Leocadia 6",
      "codigo_postal": "45002",
      "telefono": "+34 925 21 07 06",
      "web": "https://www.tabernaembrujo.com/",
      "instagram": "https://www.instagram.com/tabernaelembrujo/",
      "horario": null,
      "terraza": false
    },
    {
      "id": "osm_node_5290653421",
      "nombre": "Beastro Bar",
      "tipo": "bar",
      "lat": 41.6187629,
      "lon": -83.5810983,
      "direccion": null,
      "codigo_postal": null,
      "telefono": null,
      "web": null,
      "instagram": null,
      "horario": null,
      "terraza": true
    },
    {
      "id": "osm_node_5457527122",
      "nombre": "Bar Pretiles",
      "tipo": "bar",
      "lat": 39.6726679,
      "lon": -3.0124363,
      "direccion": "Calle de Miguel Morlán",
      "codigo_postal": null,
      "telefono": null,
      "web": null,
      "instagram": null,
      "horario": "Mo-Su 07:00-01:30",
      "terraza": false
    },
    {
      "id": "osm_node_5457852564",
      "nombre": "La Clave",
      "tipo": "pub",
      "lat": 39.6713667,
      "lon": -3.0121603,
      "direccion": null,
      "codigo_postal": null,
      "telefono": null,
      "web": null,
      "instagram": null,
      "horario": null,
      "terraza": false
    },
    {
      "id": "osm_node_5460215192",
      "nombre": "Siper",
      "tipo": "pub",
      "lat": 39.669176,
      "lon": -3.0131787,
      "direccion": null,
      "codigo_postal": null,
      "telefono": null,
      "web": null,
      "instagram": null,
      "horario": null,
      "terraza": false
    },
    {
      "id": "osm_node_5460215193",
      "nombre": "Dolce Vita",
      "tipo": "pub",
      "lat": 39.669087,
      "lon": -3.0132038,
      "direccion": null,
      "codigo_postal": null,
      "telefono": null,
      "web": null,
      "instagram": null,
      "horario": null,
      "terraza": false
    },
    {
      "id": "osm_node_5485328682",
      "nombre": "Plan B",
      "tipo": "pub",
      "lat": 39.669392,
      "lon": -3.0139956,
      "direccion": null,
      "codigo_postal": null,
      "telefono": null,
      "web": null,
      "instagram": null,
      "horario": null,
      "terraza": false
    },
    {
      "id": "osm_node_5485328683",
      "nombre": "Greca",
      "tipo": "bar",
      "lat": 39.6706979,
      "lon": -3.0132137,
      "direccion": null,
      "codigo_postal": null,
      "telefono": null,
      "web": null,
      "instagram": null,
      "horario": null,
      "terraza": false
    },
    {
      "id": "osm_node_5485328684",
      "nombre": "La Bodeguilla",
      "tipo": "pub",
      "lat": 39.6731648,
      "lon": -3.0165049,
      "direccion": null,
      "codigo_postal": null,
      "telefono": null,
      "web": null,
      "instagram": null,
      "horario": null,
      "terraza": false
    },
    {
      "id": "osm_node_5531853581",
      "nombre": "Bubble Tea",
      "tipo": "cafe",
      "lat": 41.6541695,
      "lon": -83.6215891,
      "direccion": null,
      "codigo_postal": null,
      "telefono": null,
      "web": null,
      "instagram": null,
      "horario": null,
      "terraza": false
    },
    {
      "id": "osm_node_5531853591",
      "nombre": "Brew Coffee Bar",
      "tipo": "cafe",
      "lat": 41.6525901,
      "lon": -83.612425,
      "direccion": null,
      "codigo_postal": null,
      "telefono": null,
      "web": null,
      "instagram": null,
      "horario": null,
      "terraza": false
    },
    {
      "id": "osm_node_5731318713",
      "nombre": "Olde Cock n' Bull Tavern",
      "tipo": "bar",
      "lat": 41.6486327,
      "lon": -83.5402038,
      "direccion": null,
      "codigo_postal": null,
      "telefono": null,
      "web": null,
      "instagram": null,
      "horario": null,
      "terraza": false
    },
    {
      "id": "osm_node_5777495678",
      "nombre": "Bar Felix",
      "tipo": "pub",
      "lat": 39.9677858,
      "lon": -4.8215359,
      "direccion": null,
      "codigo_postal": null,
      "telefono": null,
      "web": null,
      "instagram": null,
      "horario": null,
      "terraza": false
    },
    {
      "id": "osm_node_5778988931",
      "nombre": "El Kiosoko del Café",
      "tipo": "cafe",
      "lat": 39.8676437,
      "lon": -3.9460111,
      "direccion": null,
      "codigo_postal": null,
      "telefono": null,
      "web": null,
      "instagram": null,
      "horario": null,
      "terraza": false
    },
    {
      "id": "osm_node_5813278018",
      "nombre": "San Francisco",
      "tipo": "bar",
      "lat": 39.9662661,
      "lon": -4.8227868,
      "direccion": null,
      "codigo_postal": null,
      "telefono": null,
      "web": null,
      "instagram": null,
      "horario": null,
      "terraza": false
    },
    {
      "id": "osm_node_5828050140",
      "nombre": "Fowl & Fodder",
      "tipo": "pub",
      "lat": 41.6539438,
      "lon": -83.5362252,
      "direccion": "Adams Street 614",
      "codigo_postal": null,
      "telefono": "+1-419-214-1588",
      "web": null,
      "instagram": null,
      "horario": "Mo-Sa 08:00-22:00; Su 08:00-16:00",
      "terraza": false
    },
    {
      "id": "osm_node_5846895838",
      "nombre": "Cerveceria La Nava",
      "tipo": "bar",
      "lat": 39.9685333,
      "lon": -4.8228632,
      "direccion": null,
      "codigo_postal": null,
      "telefono": null,
      "web": null,
      "instagram": null,
      "horario": null,
      "terraza": false
    },
    {
      "id": "osm_node_5846910915",
      "nombre": "Bar Vidal",
      "tipo": "bar",
      "lat": 39.9680841,
      "lon": -4.8235466,
      "direccion": "Avenida de Juan Carlos I",
      "codigo_postal": "45600",
      "telefono": null,
      "web": null,
      "instagram": null,
      "horario": null,
      "terraza": false
    },
    {
      "id": "osm_node_5848743059",
      "nombre": "Sabores de Antaño",
      "tipo": "cafe",
      "lat": 39.9671657,
      "lon": -4.8217062,
      "direccion": null,
      "codigo_postal": null,
      "telefono": null,
      "web": null,
      "instagram": null,
      "horario": null,
      "terraza": false
    },
    {
      "id": "osm_node_5848743060",
      "nombre": "Bar la Plaza",
      "tipo": "pub",
      "lat": 39.9673388,
      "lon": -4.8216209,
      "direccion": null,
      "codigo_postal": null,
      "telefono": null,
      "web": null,
      "instagram": null,
      "horario": null,
      "terraza": false
    },
    {
      "id": "osm_node_5848743064",
      "nombre": "Bar Tommy",
      "tipo": "bar",
      "lat": 39.9677739,
      "lon": -4.8221216,
      "direccion": null,
      "codigo_postal": null,
      "telefono": null,
      "web": null,
      "instagram": null,
      "horario": null,
      "terraza": false
    },
    {
      "id": "osm_node_5849076980",
      "nombre": "Cerverceria Neila 2.0",
      "tipo": "pub",
      "lat": 39.9678978,
      "lon": -4.8222528,
      "direccion": null,
      "codigo_postal": null,
      "telefono": null,
      "web": null,
      "instagram": null,
      "horario": null,
      "terraza": false
    },
    {
      "id": "osm_node_5849076981",
      "nombre": "Cerverceria Use",
      "tipo": "bar",
      "lat": 39.9688074,
      "lon": -4.822511,
      "direccion": null,
      "codigo_postal": null,
      "telefono": null,
      "web": null,
      "instagram": null,
      "horario": null,
      "terraza": false
    },
    {
      "id": "osm_node_5849770282",
      "nombre": "Bar Javi",
      "tipo": "pub",
      "lat": 39.9681966,
      "lon": -4.8221094,
      "direccion": null,
      "codigo_postal": null,
      "telefono": null,
      "web": null,
      "instagram": null,
      "horario": null,
      "terraza": false
    },
    {
      "id": "osm_node_5849770485",
      "nombre": "Cerveceria Shagü",
      "tipo": "bar",
      "lat": 39.968137,
      "lon": -4.8233856,
      "direccion": null,
      "codigo_postal": null,
      "telefono": null,
      "web": null,
      "instagram": null,
      "horario": null,
      "terraza": false
    },
    {
      "id": "osm_node_5849901994",
      "nombre": "Diverxa 40",
      "tipo": "pub",
      "lat": 39.9646679,
      "lon": -4.8130753,
      "direccion": "Calle de Rubens 40",
      "codigo_postal": "45600",
      "telefono": null,
      "web": null,
      "instagram": null,
      "horario": null,
      "terraza": false
    },
    {
      "id": "osm_node_5849902020",
      "nombre": "La Fakultad 1",
      "tipo": "pub",
      "lat": 39.9634655,
      "lon": -4.8146941,
      "direccion": null,
      "codigo_postal": null,
      "telefono": null,
      "web": null,
      "instagram": null,
      "horario": null,
      "terraza": false
    },
    {
      "id": "osm_node_5849902021",
      "nombre": "La Fakultad 2",
      "tipo": "pub",
      "lat": 39.9638576,
      "lon": -4.8158551,
      "direccion": null,
      "codigo_postal": null,
      "telefono": null,
      "web": null,
      "instagram": null,
      "horario": null,
      "terraza": false
    },
    {
      "id": "osm_node_5849902056",
      "nombre": "Zapata",
      "tipo": "pub",
      "lat": 39.9635006,
      "lon": -4.8144653,
      "direccion": null,
      "codigo_postal": null,
      "telefono": null,
      "web": null,
      "instagram": null,
      "horario": null,
      "terraza": false
    },
    {
      "id": "osm_node_5849902068",
      "nombre": "La Cañita",
      "tipo": "pub",
      "lat": 39.9636228,
      "lon": -4.814869,
      "direccion": null,
      "codigo_postal": null,
      "telefono": null,
      "web": null,
      "instagram": null,
      "horario": null,
      "terraza": false
    },
    {
      "id": "osm_node_5853129771",
      "nombre": "Cafe Sixt Avenue",
      "tipo": "cafe",
      "lat": 39.9636454,
      "lon": -4.8405917,
      "direccion": null,
      "codigo_postal": null,
      "telefono": null,
      "web": null,
      "instagram": null,
      "horario": null,
      "terraza": true
    },
    {
      "id": "osm_node_5853162143",
      "nombre": "Irish Pub",
      "tipo": "pub",
      "lat": 39.9661179,
      "lon": -4.8160551,
      "direccion": null,
      "codigo_postal": null,
      "telefono": null,
      "web": null,
      "instagram": null,
      "horario": null,
      "terraza": false
    },
    {
      "id": "osm_node_5853162146",
      "nombre": "Teteria Shams",
      "tipo": "cafe",
      "lat": 39.9661567,
      "lon": -4.8159926,
      "direccion": null,
      "codigo_postal": null,
      "telefono": null,
      "web": null,
      "instagram": null,
      "horario": null,
      "terraza": false
    },
    {
      "id": "osm_node_5853180490",
      "nombre": "Pepe´s",
      "tipo": "pub",
      "lat": 39.9665147,
      "lon": -4.8153755,
      "direccion": null,
      "codigo_postal": null,
      "telefono": null,
      "web": null,
      "instagram": null,
      "horario": null,
      "terraza": false
    },
    {
      "id": "osm_node_5853180491",
      "nombre": "Cerveceria Alhambra",
      "tipo": "bar",
      "lat": 39.9667282,
      "lon": -4.8150289,
      "direccion": null,
      "codigo_postal": null,
      "telefono": null,
      "web": null,
      "instagram": null,
      "horario": null,
      "terraza": false
    },
    {
      "id": "osm_node_5873159256",
      "nombre": "Bar los Extremeños",
      "tipo": "pub",
      "lat": 39.9669489,
      "lon": -4.8254456,
      "direccion": null,
      "codigo_postal": null,
      "telefono": null,
      "web": null,
      "instagram": null,
      "horario": null,
      "terraza": false
    },
    {
      "id": "osm_node_5873283636",
      "nombre": "Bar Sánchez",
      "tipo": "bar",
      "lat": 39.9683389,
      "lon": -4.826738,
      "direccion": null,
      "codigo_postal": null,
      "telefono": null,
      "web": null,
      "instagram": null,
      "horario": null,
      "terraza": false
    },
    {
      "id": "osm_node_5873283639",
      "nombre": "Bar Suizo",
      "tipo": "bar",
      "lat": 39.9683169,
      "lon": -4.8271303,
      "direccion": null,
      "codigo_postal": null,
      "telefono": null,
      "web": null,
      "instagram": null,
      "horario": null,
      "terraza": false
    },
    {
      "id": "osm_node_5873283640",
      "nombre": "El Amanecer",
      "tipo": "bar",
      "lat": 39.9664635,
      "lon": -4.826968,
      "direccion": null,
      "codigo_postal": null,
      "telefono": null,
      "web": null,
      "instagram": null,
      "horario": null,
      "terraza": false
    },
    {
      "id": "osm_node_5967961392",
      "nombre": "Starbucks",
      "tipo": "cafe",
      "lat": 41.6510635,
      "lon": -83.53393,
      "direccion": "North Summit Street 303",
      "codigo_postal": "43604",
      "telefono": "+1 567-585-1020",
      "web": "https://www.starbucks.com/store-locator/store/1022626/key-bank-building-floor-1-303-north-summit-street-toledo-oh-43604-us",
      "instagram": null,
      "horario": null,
      "terraza": false
    },
    {
      "id": "osm_node_5967987924",
      "nombre": "Plate One",
      "tipo": "pub",
      "lat": 41.6520238,
      "lon": -83.535431,
      "direccion": null,
      "codigo_postal": null,
      "telefono": null,
      "web": null,
      "instagram": null,
      "horario": null,
      "terraza": true
    },
    {
      "id": "osm_node_5967987927",
      "nombre": "Exclusive Bar & Grill",
      "tipo": "pub",
      "lat": 41.6525042,
      "lon": -83.5354513,
      "direccion": null,
      "codigo_postal": null,
      "telefono": null,
      "web": null,
      "instagram": null,
      "horario": null,
      "terraza": false
    },
    {
      "id": "osm_node_6002452785",
      "nombre": "Café Bar El Pesca",
      "tipo": "cafe",
      "lat": 39.459951,
      "lon": -3.6065132,
      "direccion": null,
      "codigo_postal": null,
      "telefono": null,
      "web": null,
      "instagram": null,
      "horario": null,
      "terraza": false
    },
    {
      "id": "osm_node_6004677108",
      "nombre": "Bar El rollo",
      "tipo": "bar",
      "lat": 39.8301304,
      "lon": -5.22653,
      "direccion": null,
      "codigo_postal": null,
      "telefono": null,
      "web": null,
      "instagram": null,
      "horario": null,
      "terraza": false
    },
    {
      "id": "osm_node_6048531849",
      "nombre": "Starbucks",
      "tipo": "cafe",
      "lat": 41.6601296,
      "lon": -83.6149739,
      "direccion": "West Bancroft 2801",
      "codigo_postal": "43606",
      "telefono": "+1 419-530-5097",
      "web": "https://www.starbucks.com/store-locator/store/1023409/university-of-toledo-library-2801-w-bancroft-sa-1280-toledo-oh-436063328-us",
      "instagram": null,
      "horario": "Mo-Fr 08:00-19:00; Sa 10:00-15:00",
      "terraza": false
    },
    {
      "id": "osm_node_6048531850",
      "nombre": "Frogtown Cafe",
      "tipo": "cafe",
      "lat": 41.6604098,
      "lon": -83.6147405,
      "direccion": null,
      "codigo_postal": null,
      "telefono": null,
      "web": null,
      "instagram": null,
      "horario": "Mo-Fr 08:00-16:00; Su 09:00-15:00",
      "terraza": false
    },
    {
      "id": "osm_node_6048531861",
      "nombre": "Java City",
      "tipo": "cafe",
      "lat": 41.6549869,
      "lon": -83.6200074,
      "direccion": null,
      "codigo_postal": null,
      "telefono": null,
      "web": null,
      "instagram": null,
      "horario": null,
      "terraza": false
    },
    {
      "id": "osm_node_6137409961",
      "nombre": "Bar el Paraguas",
      "tipo": "cafe",
      "lat": 40.1657646,
      "lon": -4.3868566,
      "direccion": null,
      "codigo_postal": null,
      "telefono": null,
      "web": null,
      "instagram": null,
      "horario": null,
      "terraza": false
    },
    {
      "id": "osm_node_6140743130",
      "nombre": "Bar Alberche",
      "tipo": "bar",
      "lat": 39.8637488,
      "lon": -3.9549509,
      "direccion": null,
      "codigo_postal": null,
      "telefono": null,
      "web": null,
      "instagram": null,
      "horario": null,
      "terraza": false
    },
    {
      "id": "osm_node_6140743131",
      "nombre": "Bar El Secreto",
      "tipo": "bar",
      "lat": 39.8638559,
      "lon": -3.9559541,
      "direccion": null,
      "codigo_postal": null,
      "telefono": null,
      "web": null,
      "instagram": null,
      "horario": null,
      "terraza": false
    },
    {
      "id": "osm_node_6140757706",
      "nombre": "Bar Sardi",
      "tipo": "bar",
      "lat": 39.8038345,
      "lon": -4.0235515,
      "direccion": "Calle Juan Carlos I 12",
      "codigo_postal": "45111",
      "telefono": null,
      "web": null,
      "instagram": null,
      "horario": null,
      "terraza": false
    },
    {
      "id": "osm_node_6166322023",
      "nombre": "Café bar Mati",
      "tipo": "bar",
      "lat": 39.9639358,
      "lon": -4.8228977,
      "direccion": "Avenida de Pío XII 21",
      "codigo_postal": "45600",
      "telefono": null,
      "web": null,
      "instagram": null,
      "horario": null,
      "terraza": false
    },
    {
      "id": "osm_node_6166550436",
      "nombre": "Peco's",
      "tipo": "bar",
      "lat": 39.9632027,
      "lon": -4.8233436,
      "direccion": "Calle de Juan Ruiz de Luna 12",
      "codigo_postal": "45600",
      "telefono": null,
      "web": null,
      "instagram": null,
      "horario": null,
      "terraza": false
    },
    {
      "id": "osm_node_6166550469",
      "nombre": "La Deliciosa",
      "tipo": "cafe",
      "lat": 39.9629572,
      "lon": -4.8192406,
      "direccion": "Calle de Joaquina Santander 53",
      "codigo_postal": "45600",
      "telefono": null,
      "web": null,
      "instagram": null,
      "horario": null,
      "terraza": false
    },
    {
      "id": "osm_node_6166550470",
      "nombre": "Marcos",
      "tipo": "bar",
      "lat": 39.9629585,
      "lon": -4.8191426,
      "direccion": "Calle de Joaquina Santander",
      "codigo_postal": "45600",
      "telefono": null,
      "web": null,
      "instagram": null,
      "horario": null,
      "terraza": false
    },
    {
      "id": "osm_node_6166550473",
      "nombre": "La Dehesa",
      "tipo": "bar",
      "lat": 39.962958,
      "lon": -4.818909,
      "direccion": "Calle de Joaquina Santander 59",
      "codigo_postal": "45600",
      "telefono": null,
      "web": null,
      "instagram": null,
      "horario": null,
      "terraza": false
    },
    {
      "id": "osm_node_6166550474",
      "nombre": "Primer café",
      "tipo": "bar",
      "lat": 39.962957,
      "lon": -4.8188179,
      "direccion": "Calle de Joaquina Santander",
      "codigo_postal": "45600",
      "telefono": null,
      "web": null,
      "instagram": null,
      "horario": null,
      "terraza": false
    },
    {
      "id": "osm_node_6166550795",
      "nombre": "Minerva",
      "tipo": "bar",
      "lat": 39.9632745,
      "lon": -4.8200428,
      "direccion": "Calle Ángel del Alcázar",
      "codigo_postal": "45600",
      "telefono": null,
      "web": null,
      "instagram": null,
      "horario": null,
      "terraza": false
    },
    {
      "id": "osm_node_6166550796",
      "nombre": "Eureka",
      "tipo": "bar",
      "lat": 39.963279,
      "lon": -4.820203,
      "direccion": "Calle Ángel del Alcázar 54",
      "codigo_postal": "45600",
      "telefono": null,
      "web": null,
      "instagram": null,
      "horario": null,
      "terraza": false
    },
    {
      "id": "osm_node_6167236531",
      "nombre": "La Mexicana",
      "tipo": "cafe",
      "lat": 39.9628485,
      "lon": -4.8244483,
      "direccion": "Calle de Joaquina Santander 4",
      "codigo_postal": "45600",
      "telefono": null,
      "web": null,
      "instagram": null,
      "horario": null,
      "terraza": false
    },
    {
      "id": "osm_node_6167236548",
      "nombre": "Los Talaveranos",
      "tipo": "bar",
      "lat": 39.9628332,
      "lon": -4.8221809,
      "direccion": "Calle de Joaquina Santander 28",
      "codigo_postal": "45600",
      "telefono": null,
      "web": null,
      "instagram": null,
      "horario": null,
      "terraza": false
    },
    {
      "id": "osm_node_6167236560",
      "nombre": "El rincón de Blady",
      "tipo": "bar",
      "lat": 39.9628199,
      "lon": -4.8191387,
      "direccion": "Calle de Joaquina Santander",
      "codigo_postal": "45600",
      "telefono": null,
      "web": null,
      "instagram": null,
      "horario": null,
      "terraza": false
    },
    {
      "id": "osm_node_6167236565",
      "nombre": "Sport",
      "tipo": "bar",
      "lat": 39.9628106,
      "lon": -4.8185126,
      "direccion": "Calle de Joaquina Santander 62",
      "codigo_postal": "45600",
      "telefono": null,
      "web": null,
      "instagram": null,
      "horario": null,
      "terraza": false
    },
    {
      "id": "osm_node_6167236575",
      "nombre": "Moraleja",
      "tipo": "bar",
      "lat": 39.9626804,
      "lon": -4.817643,
      "direccion": "Calle de Banderas de Castilla",
      "codigo_postal": "45600",
      "telefono": null,
      "web": null,
      "instagram": null,
      "horario": null,
      "terraza": false
    },
    {
      "id": "osm_node_6167236579",
      "nombre": "Tout va bien",
      "tipo": "bar",
      "lat": 39.9626142,
      "lon": -4.8179765,
      "direccion": "Calle de Banderas de Castilla",
      "codigo_postal": "45600",
      "telefono": null,
      "web": null,
      "instagram": null,
      "horario": null,
      "terraza": false
    },
    {
      "id": "osm_node_6167236580",
      "nombre": "Diverxa",
      "tipo": "bar",
      "lat": 39.96258,
      "lon": -4.8182603,
      "direccion": "Calle de Banderas de Castilla",
      "codigo_postal": "45600",
      "telefono": null,
      "web": null,
      "instagram": null,
      "horario": null,
      "terraza": false
    },
    {
      "id": "osm_node_6167236799",
      "nombre": "Don Pincho",
      "tipo": "bar",
      "lat": 39.9625115,
      "lon": -4.8197061,
      "direccion": "Calle de Banderas de Castilla",
      "codigo_postal": "45600",
      "telefono": null,
      "web": null,
      "instagram": null,
      "horario": null,
      "terraza": false
    },