{
  "ciudad": "Torrevieja",
  "total": 163,
  "locales": [
    {
      "id": "osm_node_1094382974",
      "nombre": "Goya",
      "tipo": "cafe",
      "lat": 37.9628922,
      "lon": -0.7219147,
      "direccion": null,
      "codigo_postal": null,
      "telefono": null,
      "web": null,
      "instagram": null,
      "horario": null,
      "terraza": false
    },
    {
      "id": "osm_node_1478344651",
      "nombre": "San Remo",
      "tipo": "bar",
      "lat": 38.0104586,
      "lon": -0.6942739,
      "direccion": null,
      "codigo_postal": null,
      "telefono": null,
      "web": null,
      "instagram": null,
      "horario": null,
      "terraza": false
    },
    {
      "id": "osm_node_1478350315",
      "nombre": "Waikiki Bar",
      "tipo": "bar",
      "lat": 38.0104684,
      "lon": -0.6946771,
      "direccion": null,
      "codigo_postal": null,
      "telefono": null,
      "web": null,
      "instagram": null,
      "horario": null,
      "terraza": false
    },
    {
      "id": "osm_node_1787194019",
      "nombre": "Bar Washington",
      "tipo": "bar",
      "lat": 38.0185383,
      "lon": -0.6913734,
      "direccion": null,
      "codigo_postal": null,
      "telefono": null,
      "web": null,
      "instagram": null,
      "horario": null,
      "terraza": false
    },
    {
      "id": "osm_node_1787197560",
      "nombre": "Churchills",
      "tipo": "bar",
      "lat": 38.0184321,
      "lon": -0.6974506,
      "direccion": null,
      "codigo_postal": null,
      "telefono": null,
      "web": null,
      "instagram": null,
      "horario": null,
      "terraza": false
    },
    {
      "id": "osm_node_1787212748",
      "nombre": "The watering hole",
      "tipo": "bar",
      "lat": 38.0216228,
      "lon": -0.70355,
      "direccion": null,
      "codigo_postal": null,
      "telefono": null,
      "web": null,
      "instagram": null,
      "horario": null,
      "terraza": false
    },
    {
      "id": "osm_node_1788526402",
      "nombre": "Black Bull",
      "tipo": "bar",
      "lat": 38.0111348,
      "lon": -0.6827899,
      "direccion": null,
      "codigo_postal": null,
      "telefono": "+34 966 19 06 63",
      "web": null,
      "instagram": null,
      "horario": "12:00-01:00",
      "terraza": true
    },
    {
      "id": "osm_node_1788632589",
      "nombre": "Hoggies",
      "tipo": "bar",
      "lat": 38.0183024,
      "lon": -0.6977822,
      "direccion": null,
      "codigo_postal": null,
      "telefono": null,
      "web": null,
      "instagram": null,
      "horario": null,
      "terraza": false
    },
    {
      "id": "osm_node_1789860250",
      "nombre": "Da Vincis Bistro",
      "tipo": "bar",
      "lat": 38.0220005,
      "lon": -0.7071325,
      "direccion": null,
      "codigo_postal": null,
      "telefono": null,
      "web": null,
      "instagram": null,
      "horario": null,
      "terraza": false
    },
    {
      "id": "osm_node_1789900974",
      "nombre": "Ocean International",
      "tipo": "bar",
      "lat": 37.9965637,
      "lon": -0.6691263,
      "direccion": null,
      "codigo_postal": null,
      "telefono": null,
      "web": null,
      "instagram": null,
      "horario": null,
      "terraza": false
    },
    {
      "id": "osm_node_1791532383",
      "nombre": "Oz",
      "tipo": "bar",
      "lat": 37.993659,
      "lon": -0.6790782,
      "direccion": null,
      "codigo_postal": null,
      "telefono": null,
      "web": null,
      "instagram": null,
      "horario": null,
      "terraza": false
    },
    {
      "id": "osm_node_1936993645",
      "nombre": "Cafetería Cutillas",
      "tipo": "cafe",
      "lat": 37.9801686,
      "lon": -0.6788113,
      "direccion": null,
      "codigo_postal": null,
      "telefono": null,
      "web": null,
      "instagram": null,
      "horario": null,
      "terraza": false
    },
    {
      "id": "osm_node_1986975107",
      "nombre": "Sports Bar Los Frutales",
      "tipo": "bar",
      "lat": 37.9904567,
      "lon": -0.6594812,
      "direccion": null,
      "codigo_postal": null,
      "telefono": null,
      "web": null,
      "instagram": null,
      "horario": null,
      "terraza": false
    },
    {
      "id": "osm_node_2088686604",
      "nombre": "El Nido Rock Café",
      "tipo": "bar",
      "lat": 37.9775381,
      "lon": -0.6805661,
      "direccion": "Calle María Parodi 21B",
      "codigo_postal": null,
      "telefono": null,
      "web": null,
      "instagram": null,
      "horario": null,
      "terraza": false
    },
    {
      "id": "osm_node_2096602641",
      "nombre": "El Asturiano",
      "tipo": "bar",
      "lat": 38.0287172,
      "lon": -0.6523653,
      "direccion": null,
      "codigo_postal": null,
      "telefono": null,
      "web": null,
      "instagram": null,
      "horario": "Su-Sa 08:00-00:00",
      "terraza": false
    },
    {
      "id": "osm_node_2110796823",
      "nombre": "Jandel's Beach Cafe",
      "tipo": "cafe",
      "lat": 38.0275505,
      "lon": -0.65264,
      "direccion": null,
      "codigo_postal": null,
      "telefono": null,
      "web": null,
      "instagram": null,
      "horario": null,
      "terraza": false
    },
    {
      "id": "osm_node_2125307971",
      "nombre": "Genius Torrevieja",
      "tipo": "pub",
      "lat": 37.9892554,
      "lon": -0.6818123,
      "direccion": null,
      "codigo_postal": null,
      "telefono": null,
      "web": null,
      "instagram": null,
      "horario": null,
      "terraza": false
    },
    {
      "id": "osm_node_2146845786",
      "nombre": "El Ocho",
      "tipo": "cafe",
      "lat": 37.9854482,
      "lon": -0.6785085,
      "direccion": "Avenida de las Cortes Valencianas 8",
      "codigo_postal": null,
      "telefono": null,
      "web": null,
      "instagram": null,
      "horario": null,
      "terraza": false
    },
    {
      "id": "osm_node_2344910800",
      "nombre": "Il Bacio",
      "tipo": "pub",
      "lat": 38.0229513,
      "lon": -0.6535149,
      "direccion": null,
      "codigo_postal": null,
      "telefono": null,
      "web": null,
      "instagram": null,
      "horario": null,
      "terraza": false
    },
    {
      "id": "osm_node_2344910811",
      "nombre": "El Camarote",
      "tipo": "pub",
      "lat": 38.0249205,
      "lon": -0.6543088,
      "direccion": null,
      "codigo_postal": null,
      "telefono": null,
      "web": null,
      "instagram": null,
      "horario": null,
      "terraza": false
    },
    {
      "id": "osm_node_2344939521",
      "nombre": "Boys Bar Gay",
      "tipo": "bar",
      "lat": 38.0274531,
      "lon": -0.6548804,
      "direccion": null,
      "codigo_postal": null,
      "telefono": null,
      "web": null,
      "instagram": null,
      "horario": null,
      "terraza": false
    },
    {
      "id": "osm_node_2427879755",
      "nombre": "Cocedero Marisquería Aguamarina",
      "tipo": "bar",
      "lat": 37.979911,
      "lon": -0.68071,
      "direccion": "Calle de María Parodi",
      "codigo_postal": "03181",
      "telefono": "+34 96 570 58 68",
      "web": "https://gastroranking.es/r/cocedero-marisqueria-aguamarina_57666/",
      "instagram": null,
      "horario": null,
      "terraza": false
    },
    {
      "id": "osm_node_2428006863",
      "nombre": "El Pica",
      "tipo": "bar",
      "lat": 37.978456,
      "lon": -0.677539,
      "direccion": "Calle Zoa",
      "codigo_postal": "03182",
      "telefono": "+34 666 770 542",
      "web": null,
      "instagram": null,
      "horario": null,
      "terraza": false
    },
    {
      "id": "osm_node_2428006921",
      "nombre": "Rincón de las Jarras",
      "tipo": "bar",
      "lat": 37.9766557,
      "lon": -0.6804646,
      "direccion": "Calle María Parodi",
      "codigo_postal": "03181",
      "telefono": "+34 965710960",
      "web": null,
      "instagram": null,
      "horario": null,
      "terraza": false
    },
    {
      "id": "osm_node_2428006970",
      "nombre": "Bar la Marina",
      "tipo": "bar",
      "lat": 37.975496,
      "lon": -0.681373,
      "direccion": "Muelle pesquero",
      "codigo_postal": "03181",
      "telefono": "+34 965710025",
      "web": null,
      "instagram": null,
      "horario": null,
      "terraza": true
    },
    {
      "id": "osm_node_2428250608",
      "nombre": "La Bodeguilla del Mullins",
      "tipo": "bar",
      "lat": 37.979371,
      "lon": -0.6695129,
      "direccion": "Calle Caballero de Rodas 211",
      "codigo_postal": "03182",
      "telefono": "+34 965 70 32 39",
      "web": "https://www.torrevieja.com/es/restaurantes/la-bodeguilla-del-mullins-3525.html",
      "instagram": null,
      "horario": null,
      "terraza": false
    },
    {
      "id": "osm_node_2434336872",
      "nombre": "Cafetería Habaneras",
      "tipo": "bar",
      "lat": 37.9805443,
      "lon": -0.6674921,
      "direccion": "Avenida de las Habaneras 91",
      "codigo_postal": "03182",
      "telefono": "+34 865 671 650",
      "web": null,
      "instagram": null,
      "horario": null,
      "terraza": false
    },
    {
      "id": "osm_node_2434336873",
      "nombre": "Tapa Caña",
      "tipo": "bar",
      "lat": 37.977508,
      "lon": -0.665349,
      "direccion": "La Sal",
      "codigo_postal": null,
      "telefono": null,
      "web": null,
      "instagram": null,
      "horario": null,
      "terraza": true
    },
    {
      "id": "osm_node_2434336966",
      "nombre": "La Musola",
      "tipo": "bar",
      "lat": 37.976242,
      "lon": -0.681593,
      "direccion": "Plaza Isabel II",
      "codigo_postal": "03181",
      "telefono": "+34 966706851",
      "web": null,
      "instagram": null,
      "horario": null,
      "terraza": false
    },
    {
      "id": "osm_node_2434337225",
      "nombre": "Bollywood",
      "tipo": "bar",
      "lat": 37.980198,
      "lon": -0.678,
      "direccion": "Calle Zoa 61",
      "codigo_postal": "03182",
      "telefono": "+34 641 14 71 43",
      "web": null,
      "instagram": null,
      "horario": null,
      "terraza": false
    },
    {
      "id": "osm_node_2434337829",
      "nombre": "Cervecería la Mejillonería",
      "tipo": "bar",
      "lat": 37.980763,
      "lon": -0.670237,
      "direccion": "Felix Rodriguez de la Fuente",
      "codigo_postal": "03182",
      "telefono": "+34 660 42 49 67",
      "web": null,
      "instagram": null,
      "horario": null,
      "terraza": false
    },
    {
      "id": "osm_node_2584948308",
      "nombre": "Ramë",
      "tipo": "bar",
      "lat": 37.9761796,
      "lon": -0.6838265,
      "direccion": "Calle Clemente Gosálvez 5",
      "codigo_postal": null,
      "telefono": null,
      "web": null,
      "instagram": null,
      "horario": null,
      "terraza": false
    },
    {
      "id": "osm_node_2982381986",
      "nombre": "Senap & Ketchup",
      "tipo": "cafe",
      "lat": 38.0020217,
      "lon": -0.6591611,
      "direccion": null,
      "codigo_postal": null,
      "telefono": null,
      "web": null,
      "instagram": null,
      "horario": null,
      "terraza": false
    },
    {
      "id": "osm_node_2986011992",
      "nombre": "Wok Buffet",
      "tipo": "cafe",
      "lat": 37.9896509,
      "lon": -0.6850303,
      "direccion": null,
      "codigo_postal": null,
      "telefono": null,
      "web": null,
      "instagram": null,
      "horario": null,
      "terraza": false
    },
    {
      "id": "osm_node_2999532488",
      "nombre": "Correcaminos",
      "tipo": "bar",
      "lat": 37.9803628,
      "lon": -0.6672438,
      "direccion": null,
      "codigo_postal": null,
      "telefono": null,
      "web": null,
      "instagram": null,
      "horario": null,
      "terraza": false
    },
    {
      "id": "osm_node_2999532489",
      "nombre": "Las Dunas",
      "tipo": "cafe",
      "lat": 37.9803826,
      "lon": -0.6666872,
      "direccion": null,
      "codigo_postal": null,
      "telefono": null,
      "web": null,
      "instagram": null,
      "horario": null,
      "terraza": false
    },
    {
      "id": "osm_node_2999557215",
      "nombre": "Mediterráneo",
      "tipo": "cafe",
      "lat": 37.9758327,
      "lon": -0.6814999,
      "direccion": "Calle Azorín 2",
      "codigo_postal": "03181",
      "telefono": "+34 965 71 15 62",
      "web": null,
      "instagram": null,
      "horario": null,
      "terraza": true
    },
    {
      "id": "osm_node_3089830275",
      "nombre": "B-52",
      "tipo": "bar",
      "lat": 38.0294682,
      "lon": -0.6543861,
      "direccion": null,
      "codigo_postal": null,
      "telefono": null,
      "web": null,
      "instagram": null,
      "horario": null,
      "terraza": false
    },
    {
      "id": "osm_node_3241119663",
      "nombre": "Zoo Pub",
      "tipo": "pub",
      "lat": 38.006052,
      "lon": -0.6574712,
      "direccion": null,
      "codigo_postal": null,
      "telefono": null,
      "web": null,
      "instagram": null,
      "horario": null,
      "terraza": false
    },
    {
      "id": "osm_node_3244651503",
      "nombre": "Kiosco Gloria",
      "tipo": "cafe",
      "lat": 37.9814118,
      "lon": -0.6625671,
      "direccion": null,
      "codigo_postal": null,
      "telefono": null,
      "web": null,
      "instagram": null,
      "horario": null,
      "terraza": false
    },
    {
      "id": "osm_node_3287465660",
      "nombre": "JF sport bar",
      "tipo": "bar",
      "lat": 38.001092,
      "lon": -0.661358,
      "direccion": null,
      "codigo_postal": null,
      "telefono": null,
      "web": null,
      "instagram": null,
      "horario": null,
      "terraza": false
    },
    {
      "id": "osm_node_3486126468",
      "nombre": "Bar + 47",
      "tipo": "bar",
      "lat": 38.003429,
      "lon": -0.6593894,
      "direccion": null,
      "codigo_postal": null,
      "telefono": null,
      "web": null,
      "instagram": null,
      "horario": null,
      "terraza": false
    },
    {
      "id": "osm_node_3486147728",
      "nombre": "Briens",
      "tipo": "pub",
      "lat": 38.0047524,
      "lon": -0.6562912,
      "direccion": null,
      "codigo_postal": null,
      "telefono": null,
      "web": null,
      "instagram": null,
      "horario": null,
      "terraza": false
    },
    {
      "id": "osm_node_3642091522",
      "nombre": "Bar de la Estacion",
      "tipo": "cafe",
      "lat": 37.9794264,
      "lon": -0.6757045,
      "direccion": null,
      "codigo_postal": null,
      "telefono": null,
      "web": null,
      "instagram": null,
      "horario": null,
      "terraza": false
    },
    {
      "id": "osm_node_3646440203",
      "nombre": "Sidrería el Lagar de Isa",
      "tipo": "bar",
      "lat": 37.9775747,
      "lon": -0.6666995,
      "direccion": null,
      "codigo_postal": null,
      "telefono": null,
      "web": null,
      "instagram": null,
      "horario": null,
      "terraza": false
    },
    {
      "id": "osm_node_3646440204",
      "nombre": "Rincón del Dulce",
      "tipo": "bar",
      "lat": 37.9774097,
      "lon": -0.6668027,
      "direccion": "Calle Bergatin 8",
      "codigo_postal": null,
      "telefono": null,
      "web": null,
      "instagram": null,
      "horario": null,
      "terraza": false
    },
    {
      "id": "osm_node_3650230299",
      "nombre": "El Capitan",
      "tipo": "bar",
      "lat": 37.9638122,
      "lon": -0.7364281,
      "direccion": null,
      "codigo_postal": null,
      "telefono": null,
      "web": null,
      "instagram": null,
      "horario": null,
      "terraza": false
    },
    {
      "id": "osm_node_3656896557",
      "nombre": "Bar Tortuga Cafè",
      "tipo": "bar",
      "lat": 37.9645129,
      "lon": -0.7314759,
      "direccion": null,
      "codigo_postal": null,
      "telefono": null,
      "web": null,
      "instagram": null,
      "horario": null,
      "terraza": false
    },
    {
      "id": "osm_node_3656924451",
      "nombre": "Caffé Milano",
      "tipo": "cafe",
      "lat": 37.9651958,
      "lon": -0.7015362,
      "direccion": null,
      "codigo_postal": null,
      "telefono": null,
      "web": null,
      "instagram": null,
      "horario": null,
      "terraza": false
    },
    {
      "id": "osm_node_4165911303",
      "nombre": "El Bosque",
      "tipo": "bar",
      "lat": 37.9927682,
      "lon": -0.6856217,
      "direccion": null,
      "codigo_postal": null,
      "telefono": null,
      "web": null,
      "instagram": null,
      "horario": null,
      "terraza": false
    },
    {
      "id": "osm_node_4165921070",
      "nombre": "La Brasería",
      "tipo": "cafe",
      "lat": 37.9903773,
      "lon": -0.6795512,
      "direccion": null,
      "codigo_postal": null,
      "telefono": null,
      "web": null,
      "instagram": null,
      "horario": null,
      "terraza": false
    },
    {
      "id": "osm_node_4165921071",
      "nombre": "Ultra - Skandinavisk Bar & Nattklubb",
      "tipo": "bar",
      "lat": 37.9901649,
      "lon": -0.680216,
      "direccion": null,
      "codigo_postal": null,
      "telefono": null,
      "web": null,
      "instagram": null,
      "horario": null,
      "terraza": false
    },
    {
      "id": "osm_node_4166089241",
      "nombre": "Cerveceria La Sureña",
      "tipo": "biergarten",
      "lat": 37.9758646,
      "lon": -0.6729969,
      "direccion": "Calle Ramón y Cajal 63",
      "codigo_postal": "03182",
      "telefono": null,
      "web": null,
      "instagram": null,
      "horario": null,
      "terraza": false
    },
    {
      "id": "osm_node_4166089271",
      "nombre": "Pub-Bar-Café Tango",
      "tipo": "pub",
      "lat": 37.9771497,
      "lon": -0.6712113,
      "direccion": null,
      "codigo_postal": null,
      "telefono": null,
      "web": null,
      "instagram": null,
      "horario": null,
      "terraza": true
    },
    {
      "id": "osm_node_4166183735",
      "nombre": "La Esquina",
      "tipo": "bar",
      "lat": 37.9806181,
      "lon": -0.6872924,
      "direccion": null,
      "codigo_postal": null,
      "telefono": null,
      "web": null,
      "instagram": null,
      "horario": null,
      "terraza": false
    },
    {
      "id": "osm_node_4166223489",
      "nombre": "Albalajedo",
      "tipo": "cafe",
      "lat": 37.9784243,
      "lon": -0.6874121,
      "direccion": "Calle Huerto 18",
      "codigo_postal": "03181",
      "telefono": "+34 965 71 45 89",
      "web": null,
      "instagram": null,
      "horario": null,
      "terraza": false
    },
    {
      "id": "osm_node_4167223344",
      "nombre": "El Rincon de Madrid",
      "tipo": "pub",
      "lat": 37.9697943,
      "lon": -0.6985069,
      "direccion": null,
      "codigo_postal": null,
      "telefono": null,
      "web": null,
      "instagram": null,
      "horario": null,
      "terraza": false
    },
    {
      "id": "osm_node_4167223347",
      "nombre": "Los Amigos",
      "tipo": "bar",
      "lat": 37.9701493,
      "lon": -0.6981894,
      "direccion": null,
      "codigo_postal": null,
      "telefono": null,
      "web": null,
      "instagram": null,
      "horario": null,
      "terraza": false
    },
    {
      "id": "osm_node_4167240341",
      "nombre": "La Teraza",
      "tipo": "cafe",
      "lat": 37.9702017,
      "lon": -0.698377,
      "direccion": null,
      "codigo_postal": null,
      "telefono": null,
      "web": null,
      "instagram": null,
      "horario": null,
      "terraza": false
    },
    {
      "id": "osm_node_4167240347",
      "nombre": "Miño",
      "tipo": "bar",
      "lat": 37.9675253,
      "lon": -0.6987254,
      "direccion": null,
      "codigo_postal": null,
      "telefono": null,
      "web": null,
      "instagram": null,
      "horario": null,
      "terraza": false
    },
    {
      "id": "osm_node_4167248959",
      "nombre": "Evelin",
      "tipo": "cafe",
      "lat": 37.9669386,
      "lon": -0.6992358,
      "direccion": null,
      "codigo_postal": null,
      "telefono": null,
      "web": null,
      "instagram": null,
      "horario": null,
      "terraza": false
    },
    {
      "id": "osm_node_4167248960",
      "nombre": "Mare Nostrum",
      "tipo": "cafe",
      "lat": 37.9672965,
      "lon": -0.6995448,
      "direccion": null,
      "codigo_postal": null,
      "telefono": null,
      "web": null,
      "instagram": null,
      "horario": null,
      "terraza": false
    },
    {
      "id": "osm_node_4167282099",
      "nombre": "Jelúa",
      "tipo": "cafe",
      "lat": 37.974675,
      "lon": -0.6933247,
      "direccion": null,
      "codigo_postal": null,
      "telefono": null,
      "web": null,
      "instagram": null,
      "horario": null,
      "terraza": false
    },
    {
      "id": "osm_node_4169807898",
      "nombre": "Swevi Café El Molino",
      "tipo": "cafe",
      "lat": 37.9839275,
      "lon": -0.683648,
      "direccion": null,
      "codigo_postal": null,
      "telefono": null,
      "web": null,
      "instagram": null,
      "horario": null,
      "terraza": false
    },
    {
      "id": "osm_node_4319339989",
      "nombre": "Blondy Beach Club",
      "tipo": "bar",
      "lat": 38.0173722,
      "lon": -0.6530687,
      "direccion": "Avenida de Soria 1",
      "codigo_postal": "03188",
      "telefono": null,
      "web": null,
      "instagram": null,
      "horario": null,
      "terraza": false
    },
    {
      "id": "osm_node_4347735697",
      "nombre": "Plantaciones de origen",
      "tipo": "cafe",
      "lat": 37.9763317,
      "lon": -0.6819226,
      "direccion": null,
      "codigo_postal": null,
      "telefono": null,
      "web": null,
      "instagram": null,
      "horario": null,
      "terraza": false
    },
    {
      "id": "osm_node_4352156890",
      "nombre": "Chocolatería Valor",
      "tipo": "cafe",
      "lat": 37.9769627,
      "lon": -0.6828976,
      "direccion": "Calle Concepción 7",
      "codigo_postal": "03181",
      "telefono": "+34 965 71 57 41",
      "web": "https://www.valor.es/",
      "instagram": null,
      "horario": null,
      "terraza": true
    },
    {
      "id": "osm_node_4352786934",
      "nombre": "Tilleys Bar",
      "tipo": "bar",
      "lat": 37.9579636,
      "lon": -0.7064338,
      "direccion": null,
      "codigo_postal": null,
      "telefono": null,
      "web": null,
      "instagram": null,
      "horario": null,
      "terraza": false
    },
    {
      "id": "osm_node_4352786936",
      "nombre": "Central Bar and Swimming Pool",
      "tipo": "bar",
      "lat": 37.958216,
      "lon": -0.706543,
      "direccion": null,
      "codigo_postal": null,
      "telefono": null,
      "web": null,
      "instagram": null,
      "horario": null,
      "terraza": false
    },
    {
      "id": "osm_node_4584102194",
      "nombre": "Ratto-Talli",
      "tipo": "bar",
      "lat": 37.9792697,
      "lon": -0.671112,
      "direccion": "Calle de la Concordia",
      "codigo_postal": null,
      "telefono": null,
      "web": null,
      "instagram": null,
      "horario": null,
      "terraza": false
    },
    {
      "id": "osm_node_4594603689",
      "nombre": "Think Pink",
      "tipo": "bar",
      "lat": 37.9791337,
      "lon": -0.6721418,
      "direccion": null,
      "codigo_postal": null,
      "telefono": null,
      "web": null,
      "instagram": null,
      "horario": null,
      "terraza": false
    },
    {
      "id": "osm_node_4843269282",
      "nombre": "Keeper bar",
      "tipo": "bar",
      "lat": 37.9744004,
      "lon": -0.6777471,
      "direccion": "Paseo Marítimo Juan Aparicio 1",
      "codigo_postal": "03181",
      "telefono": null,
      "web": null,
      "instagram": null,
      "horario": null,
      "terraza": true
    },
    {
      "id": "osm_node_4843269283",
      "nombre": "Bella Mar Beach",
      "tipo": "bar",
      "lat": 37.9744389,
      "lon": -0.6775762,
      "direccion": "Paseo Marítimo Juan Aparicio 1",
      "codigo_postal": "03182",
      "telefono": null,
      "web": null,
      "instagram": null,
      "horario": null,
      "terraza": true
    },
    {
      "id": "osm_node_4845273016",
      "nombre": "Torreoro",
      "tipo": "bar",
      "lat": 37.9839298,
      "lon": -0.6735417,
      "direccion": null,
      "codigo_postal": null,
      "telefono": null,
      "web": null,
      "instagram": null,
      "horario": null,
      "terraza": false
    },
    {
      "id": "osm_node_4845311422",
      "nombre": "Los Manchegos",
      "tipo": "bar",
      "lat": 37.9793291,
      "lon": -0.6758311,
      "direccion": null,
      "codigo_postal": null,
      "telefono": null,
      "web": null,
      "instagram": null,
      "horario": null,
      "terraza": false
    },
    {
      "id": "osm_node_4845932288",
      "nombre": "Bar Britania",
      "tipo": "bar",
      "lat": 38.0066977,
      "lon": -0.6559589,
      "direccion": null,
      "codigo_postal": null,
      "telefono": null,
      "web": null,
      "instagram": null,
      "horario": null,
      "terraza": false
    },
    {
      "id": "osm_node_4847973064",
      "nombre": "Bar Sayra Cafetería",
      "tipo": "bar",
      "lat": 37.9838157,
      "lon": -0.6623184,
      "direccion": null,
      "codigo_postal": null,
      "telefono": null,
      "web": null,
      "instagram": null,
      "horario": null,
      "terraza": true
    },
    {
      "id": "osm_node_4847973066",
      "nombre": "Durty Nelly's",
      "tipo": "bar",
      "lat": 37.9840554,
      "lon": -0.6615708,
      "direccion": null,
      "codigo_postal": null,
      "telefono": null,
      "web": null,
      "instagram": null,
      "horario": null,
      "terraza": false
    },
    {
      "id": "osm_node_4848005833",
      "nombre": "Murphy Irish Bar",
      "tipo": "pub",
      "lat": 37.9836071,
      "lon": -0.6607319,
      "direccion": null,
      "codigo_postal": null,
      "telefono": null,
      "web": null,
      "instagram": null,
      "horario": null,
      "terraza": true
    },
    {
      "id": "osm_node_4848007754",
      "nombre": "Cafetería Bulacan",
      "tipo": "cafe",
      "lat": 37.9833181,
      "lon": -0.6651619,
      "direccion": null,
      "codigo_postal": null,
      "telefono": null,
      "web": null,
      "instagram": null,
      "horario": null,
      "terraza": false
    },
    {
      "id": "osm_node_4849105614",
      "nombre": "Cafeteria Sorte Sport Bar Magani",
      "tipo": "cafe",
      "lat": 37.9762011,
      "lon": -0.6910619,
      "direccion": null,
      "codigo_postal": null,
      "telefono": null,
      "web": null,
      "instagram": null,
      "horario": null,
      "terraza": false
    },
    {
      "id": "osm_node_4849541781",
      "nombre": "El Ocho Cafe Lounge & Cocktail Bar",
      "tipo": "bar",
      "lat": 37.9628588,
      "lon": -0.721755,
      "direccion": null,
      "codigo_postal": null,
      "telefono": null,
      "web": null,
      "instagram": null,
      "horario": null,
      "terraza": false
    },
    {
      "id": "osm_node_4884194521",
      "nombre": "Shanon Taberna Irlandesa",
      "tipo": "pub",
      "lat": 38.001543,
      "lon": -0.6930507,
      "direccion": null,
      "codigo_postal": null,
      "telefono": null,
      "web": null,
      "instagram": null,
      "horario": null,
      "terraza": false
    },
    {
      "id": "osm_node_4893523932",
      "nombre": "Cafetería Concierto Lucano",
      "tipo": "cafe",
      "lat": 38.0017075,
      "lon": -0.6930753,
      "direccion": null,
      "codigo_postal": null,
      "telefono": null,
      "web": null,
      "instagram": null,
      "horario": null,
      "terraza": false
    },
    {
      "id": "osm_node_4928726921",
      "nombre": "Lolyta Cafe",
      "tipo": "cafe",
      "lat": 37.9780851,
      "lon": -0.6837865,
      "direccion": "Calle Maestro Francisco Vallejos 2",
      "codigo_postal": null,
      "telefono": "+34 649 69 16 55",
      "web": null,
      "instagram": null,
      "horario": null,
      "terraza": false
    },
    {
      "id": "osm_node_5266147122",
      "nombre": "Cervecería Artesanal Amber",
      "tipo": "pub",
      "lat": 37.9807966,
      "lon": -0.6642196,
      "direccion": "Avenida del Doctor Mariano Ruiz Cánovas 1",
      "codigo_postal": "03182",
      "telefono": null,
      "web": null,
      "instagram": null,
      "horario": null,
      "terraza": true
    },
    {
      "id": "osm_node_5266151721",
      "nombre": "Monroe's",
      "tipo": "bar",
      "lat": 37.9760736,
      "lon": -0.6779317,
      "direccion": "Calle Torrevejenses Ausentes",
      "codigo_postal": null,
      "telefono": null,
      "web": null,
      "instagram": null,
      "horario": null,
      "terraza": false
    },
    {
      "id": "osm_node_5266151821",
      "nombre": "Viuna",
      "tipo": "cafe",
      "lat": 37.9781555,
      "lon": -0.6775781,
      "direccion": "Calle Zoa",
      "codigo_postal": null,
      "telefono": null,
      "web": null,
      "instagram": null,
      "horario": null,
      "terraza": false
    },
    {
      "id": "osm_node_5516034625",
      "nombre": "New st James Gate",
      "tipo": "pub",
      "lat": 37.9887604,
      "lon": -0.691093,
      "direccion": "Avenida Miguel de Unamuno 1E",
      "codigo_postal": null,
      "telefono": null,
      "web": null,
      "instagram": null,
      "horario": null,
      "terraza": true
    },
    {
      "id": "osm_node_5742546151",
      "nombre": "Veromar",
      "tipo": "cafe",
      "lat": 37.9735176,
      "lon": -0.6927119,
      "direccion": "Avenida Doctor Gregorio Marañón 43",
      "codigo_postal": "03185",
      "telefono": null,
      "web": null,
      "instagram": null,
      "horario": null,
      "terraza": true
    },
    {
      "id": "osm_node_5743589622",
      "nombre": "The ship",
      "tipo": "bar",
      "lat": 38.0014033,
      "lon": -0.6618101,
      "direccion": null,
      "codigo_postal": null,
      "telefono": null,
      "web": null,
      "instagram": null,
      "horario": null,
      "terraza": false
    },
    {
      "id": "osm_node_5809558554",
      "nombre": "Chic del Puerto",
      "tipo": "pub",
      "lat": 37.9702906,
      "lon": -0.6803472,
      "direccion": null,
      "codigo_postal": null,
      "telefono": null,
      "web": null,
      "instagram": null,
      "horario": null,
      "terraza": true
    },
    {
      "id": "osm_node_6344705877",
      "nombre": "Edu y Raquel",
      "tipo": "cafe",
      "lat": 37.980533,
      "lon": -0.6681529,
      "direccion": "Avenida de las Habaneras",
      "codigo_postal": null,
      "telefono": null,
      "web": null,
      "instagram": null,
      "horario": null,
      "terraza": false
    },
    {
      "id": "osm_node_6406893122",
      "nombre": "Nordic",
      "tipo": "cafe",
      "lat": 37.9830407,
      "lon": -0.6613582,
      "direccion": null,
      "codigo_postal": null,
      "telefono": null,
      "web": null,
      "instagram": null,
      "horario": "Mo-Su 12:00-21:00",
      "terraza": true
    },
    {
      "id": "osm_node_6431009976",
      "nombre": "Jefe's bar",
      "tipo": "bar",
      "lat": 38.0113946,
      "lon": -0.6608824,
      "direccion": null,
      "codigo_postal": null,
      "telefono": null,
      "web": null,
      "instagram": null,
      "horario": null,
      "terraza": false
    },
    {
      "id": "osm_node_6508555914",
      "nombre": "Crepería Torregofre",
      "tipo": "cafe",
      "lat": 37.9764068,
      "lon": -0.6805878,
      "direccion": "Calle Pedro Lorca 5",
      "codigo_postal": "03181",
      "telefono": null,
      "web": null,
      "instagram": null,
      "horario": null,
      "terraza": false
    },
    {
      "id": "osm_node_6510869688",
      "nombre": "Cafer Bar Esmeralda",
      "tipo": "cafe",
      "lat": 37.9746463,
      "lon": -0.678107,
      "direccion": null,
      "codigo_postal": null,
      "telefono": null,
      "web": null,
      "instagram": null,
      "horario": null,
      "terraza": false
    },
    {
      "id": "osm_node_6514037072",
      "nombre": "Bendita Cafeteria",
      "tipo": "cafe",
      "lat": 37.9779149,
      "lon": -0.6821327,
      "direccion": "Calle Caballero de Rodas 35",
      "codigo_postal": "03181",
      "telefono": null,
      "web": "@benditacafeteria",
      "instagram": null,
      "horario": "Mo-Su 09:00-20:00",
      "terraza": true
    },
    {
      "id": "osm_node_6514045886",
      "nombre": "Cafetería Olga",
      "tipo": "cafe",
      "lat": 37.978037,
      "lon": -0.681888,
      "direccion": "Calle Azorín 25",
      "codigo_postal": "03181",
      "telefono": null,
      "web": null,
      "instagram": null,
      "horario": null,
      "terraza": false
    },
    {
      "id": "osm_node_6514072313",
      "nombre": "Café Viena",
      "tipo": "cafe",
      "lat": 37.9768879,
      "lon": -0.6837088,
      "direccion": null,
      "codigo_postal": null,
      "telefono": null,
      "web": null,
      "instagram": null,
      "horario": null,
      "terraza": false
    },
    {
      "id": "osm_node_6541820715",
      "nombre": "Cafetería JM",
      "tipo": "cafe",
      "lat": 37.9778999,
      "lon": -0.6796885,
      "direccion": null,
      "codigo_postal": null,
      "telefono": null,
      "web": null,
      "instagram": null,
      "horario": null,
      "terraza": false
    },
    {
      "id": "osm_node_6541890802",
      "nombre": "Ina Expresso",
      "tipo": "cafe",
      "lat": 37.9779231,
      "lon": -0.679296,
      "direccion": null,
      "codigo_postal": null,
      "telefono": null,
      "web": null,
      "instagram": null,
      "horario": null,
      "terraza": false
    },
    {
      "id": "osm_node_6547530885",
      "nombre": "Puerto Rico",
      "tipo": "bar",
      "lat": 37.9784189,
      "lon": -0.6831769,
      "direccion": null,
      "codigo_postal": null,
      "telefono": null,
      "web": null,
      "instagram": null,
      "horario": null,
      "terraza": false
    },
    {
      "id": "osm_node_6552461472",
      "nombre": "La Glorieta Café",
      "tipo": "cafe",
      "lat": 37.9781143,
      "lon": -0.6833305,
      "direccion": "Calle Maldonado 1",
      "codigo_postal": "03181",
      "telefono": "+34 965 03 94 72",
      "web": null,
      "instagram": null,
      "horario": null,
      "terraza": false
    },
    {
      "id": "osm_node_6552523526",
      "nombre": "Bar Cafetería Entre Tres",
      "tipo": "cafe",
      "lat": 37.9777368,
      "lon": -0.6835184,
      "direccion": "Calle Caballero de Rodas 12",
      "codigo_postal": "03181",
      "telefono": "+34 966 11 58 09",
      "web": null,
      "instagram": null,
      "horario": null,
      "terraza": false
    },
    {
      "id": "osm_node_6556076756",
      "nombre": "Isigue",
      "tipo": "cafe",
      "lat": 37.9774569,
      "lon": -0.6844046,
      "direccion": "Calle Patricio Pérez",
      "codigo_postal": "03181",
      "telefono": null,
      "web": null,
      "instagram": null,
      "horario": null,
      "terraza": false
    },
    {
      "id": "osm_node_6572003560",
      "nombre": "Teteria Arabesco",
      "tipo": "cafe",
      "lat": 37.9766175,
      "lon": -0.6780492,
      "direccion": "Calle Pedro Lorca 38",
      "codigo_postal": "03182",
      "telefono": null,
      "web": null,
      "instagram": null,
      "horario": null,
      "terraza": false
    },
    {
      "id": "osm_node_6572006807",
      "nombre": "Malabar Ermita",
      "tipo": "cafe",
      "lat": 37.9763114,
      "lon": -0.6771881,
      "direccion": "Calle Zoa 17",
      "codigo_postal": "03182",
      "telefono": "+34 655 33 29 22",
      "web": null,
      "instagram": null,
      "horario": null,
      "terraza": false
    },
    {
      "id": "osm_node_6572059059",
      "nombre": "The Alchemist Pub",
      "tipo": "bar",
      "lat": 37.975813,
      "lon": -0.6778733,
      "direccion": "Calle Apolo 10",
      "codigo_postal": "03182",
      "telefono": null,
      "web": null,
      "instagram": null,
      "horario": null,
      "terraza": false
    },
    {
      "id": "osm_node_6577003534",
      "nombre": "Cafetería Vintage",
      "tipo": "cafe",
      "lat": 37.976605,
      "lon": -0.675139,
      "direccion": null,
      "codigo_postal": null,
      "telefono": null,
      "web": null,
      "instagram": null,
      "horario": null,
      "terraza": false
    },
    {
      "id": "osm_node_6577039742",
      "nombre": "Cafetería La Vida",
      "tipo": "cafe",
      "lat": 37.977158,
      "lon": -0.6754012,
      "direccion": "Calle del Mar 29",
      "codigo_postal": "03182",
      "telefono": "+34 865 78 25 25",
      "web": null,
      "instagram": null,
      "horario": null,
      "terraza": false
    },
    {
      "id": "osm_node_6577040093",
      "nombre": "Cafetería Capricho",
      "tipo": "cafe",
      "lat": 37.9771437,
      "lon": -0.6762985,
      "direccion": null,
      "codigo_postal": null,
      "telefono": null,
      "web": null,
      "instagram": null,
      "horario": null,
      "terraza": false
    },
    {
      "id": "osm_node_6598965085",
      "nombre": "El Pescador",
      "tipo": "bar",
      "lat": 38.0277927,
      "lon": -0.6531074,
      "direccion": null,
      "codigo_postal": null,
      "telefono": null,
      "web": null,
      "instagram": null,
      "horario": null,
      "terraza": false
    },
    {
      "id": "osm_node_6614851293",
      "nombre": "Robban's",
      "tipo": "bar",
      "lat": 38.0063506,
      "lon": -0.6579888,
      "direccion": null,
      "codigo_postal": null,
      "telefono": null,
      "web": null,
      "instagram": null,
      "horario": null,
      "terraza": false
    },
    {
      "id": "osm_node_7126908287",
      "nombre": "+.q.bien",
      "tipo": "bar",
      "lat": 38.0251206,
      "lon": -0.6542516,
      "direccion": null,
      "codigo_postal": null,
      "telefono": null,
      "web": null,
      "instagram": null,
      "horario": null,
      "terraza": false
    },
    {
      "id": "osm_node_7126955186",
      "nombre": "Bocaditos",
      "tipo": "bar",
      "lat": 38.0210778,
      "lon": -0.6541219,
      "direccion": null,
      "codigo_postal": null,
      "telefono": null,
      "web": null,
      "instagram": null,
      "horario": null,
      "terraza": false
    },
    {
      "id": "osm_node_8583460365",
      "nombre": "Pura Vida",
      "tipo": "cafe",
      "lat": 38.0086267,
      "lon": -0.6529039,
      "direccion": "Av. del Agua",
      "codigo_postal": "03188",
      "telefono": "+34 613008686",
      "web": "https://surfintorrevieja.com/",
      "instagram": null,
      "horario": null,
      "terraza": false
    },
    {
      "id": "osm_node_9905816969",
      "nombre": "Sheldon",
      "tipo": "bar",
      "lat": 37.9890543,
      "lon": -0.6914409,
      "direccion": null,
      "codigo_postal": null,
      "telefono": null,
      "web": null,
      "instagram": null,
      "horario": null,
      "terraza": false
    },
    {
      "id": "osm_node_9905816971",
      "nombre": "The Tunel Bar",
      "tipo": "bar",
      "lat": 37.9890027,
      "lon": -0.6912955,
      "direccion": null,
      "codigo_postal": null,
      "telefono": null,
      "web": null,
      "instagram": null,
      "horario": null,
      "terraza": false
    },
    {
      "id": "osm_node_9905816972",
      "nombre": "La Zona",
      "tipo": "bar",
      "lat": 37.9889662,
      "lon": -0.6911927,
      "direccion": "Avenida Miguel Unamuno",
      "codigo_postal": "03184",
      "telefono": null,
      "web": null,
      "instagram": null,
      "horario": null,
      "terraza": false
    },
    {
      "id": "osm_node_9905817489",
      "nombre": "Mosquito",
      "tipo": "bar",
      "lat": 37.9892651,
      "lon": -0.6915046,
      "direccion": null,
      "codigo_postal": null,
      "telefono": null,
      "web": null,
      "instagram": null,
      "horario": null,
      "terraza": false
    },
    {
      "id": "osm_node_9905817518",
      "nombre": "Cerveceria Florida",
      "tipo": "cafe",
      "lat": 37.9887485,
      "lon": -0.6925366,
      "direccion": null,
      "codigo_postal": null,
      "telefono": null,
      "web": null,
      "instagram": null,
      "horario": null,
      "terraza": false
    },
    {
      "id": "osm_node_9905817525",
      "nombre": "La Habana Vieja",
      "tipo": "bar",
      "lat": 37.9897477,
      "lon": -0.6928788,
      "direccion": null,
      "codigo_postal": null,
      "telefono": null,
      "web": null,
      "instagram": null,
      "horario": null,
      "terraza": false
    },
    {
      "id": "osm_node_9905817526",
      "nombre": "Columbus",
      "tipo": "bar",
      "lat": 37.9898246,
      "lon": -0.6928654,
      "direccion": null,
      "codigo_postal": null,
      "telefono": null,
      "web": null,
      "instagram": null,
      "horario": null,
      "terraza": false
    },
    {
      "id": "osm_node_9945246322",
      "nombre": "Il Bacio",
      "tipo": "bar",
      "lat": 38.0226846,
      "lon": -0.6535145,
      "direccion": null,
      "codigo_postal": null,
      "telefono": null,
      "web": null,
      "instagram": null,
      "horario": null,
      "terraza": false
    },
    {
      "id": "osm_node_9945458275",
      "nombre": "Olga",
      "tipo": "bar",
      "lat": 38.0209377,
      "lon": -0.6541201,
      "direccion": null,
      "codigo_postal": null,
      "telefono": null,
      "web": null,
      "instagram": null,
      "horario": null,
      "terraza": false
    },
    {
      "id": "osm_node_10061401589",
      "nombre": "La Veleta",
      "tipo": "cafe",
      "lat": 37.9624318,
      "lon": -0.7021789,
      "direccion": null,
      "codigo_postal": null,
      "telefono": null,
      "web": null,
      "instagram": null,
      "horario": null,
      "terraza": false
    },
    {
      "id": "osm_node_10116668453",
      "nombre": "Oasis",
      "tipo": "bar",
      "lat": 38.001255,
      "lon": -0.7025802,
      "direccion": null,
      "codigo_postal": null,
      "telefono": null,
      "web": null,
      "instagram": null,
      "horario": null,
      "terraza": false
    },
    {
      "id": "osm_node_10116668463",
      "nombre": "Burgos",
      "tipo": "bar",
      "lat": 38.000455,
      "lon": -0.7039327,
      "direccion": null,
      "codigo_postal": null,
      "telefono": null,
      "web": null,
      "instagram": null,
      "horario": null,
      "terraza": false
    },
    {
      "id": "osm_node_10228286334",
      "nombre": "El Chiringuito",
      "tipo": "bar",
      "lat": 38.0061704,
      "lon": -0.6979651,
      "direccion": null,
      "codigo_postal": null,
      "telefono": null,
      "web": null,
      "instagram": null,
      "horario": null,
      "terraza": true
    },
    {
      "id": "osm_node_10313397607",
      "nombre": "Dublin Pub",
      "tipo": "pub",
      "lat": 37.9615298,
      "lon": -0.7239567,
      "direccion": null,
      "codigo_postal": null,
      "telefono": null,
      "web": null,
      "instagram": null,
      "horario": null,
      "terraza": true
    },
    {
      "id": "osm_node_10669467904",
      "nombre": "Els",
      "tipo": "bar",
      "lat": 37.9887734,
      "lon": -0.6908143,
      "direccion": "Avenida Miguel de Unamuno 1E",
      "codigo_postal": null,
      "telefono": null,
      "web": null,
      "instagram": null,
      "horario": null,
      "terraza": true
    },
    {
      "id": "osm_node_10786858324",
      "nombre": "El Happy Days",
      "tipo": "bar",
      "lat": 37.9752521,
      "lon": -0.677769,
      "direccion": "Calle Apolo 6",
      "codigo_postal": "03182",
      "telefono": null,
      "web": null,
      "instagram": null,
      "horario": null,
      "terraza": false
    },
    {
      "id": "osm_node_10789214897",
      "nombre": "Pub California Drrink & Shishas",
      "tipo": "bar",
      "lat": 37.989168,
      "lon": -0.6814876,
      "direccion": "Avenida Delfina Viudes 62",
      "codigo_postal": "03183",
      "telefono": null,
      "web": null,
      "instagram": null,
      "horario": "18:00-07:00",
      "terraza": true
    },
    {
      "id": "osm_node_10821397049",
      "nombre": "Coffee & Toffee",
      "tipo": "cafe",
      "lat": 37.9768576,
      "lon": -0.6809995,
      "direccion": "Calle Joaquín Chapapietra 10",
      "codigo_postal": "03181",
      "telefono": null,
      "web": null,
      "instagram": null,
      "horario": null,
      "terraza": false
    },
    {
      "id": "osm_node_10823878470",
      "nombre": "El Rincón de las Jarras",
      "tipo": "cafe",
      "lat": 37.9766057,
      "lon": -0.680451,
      "direccion": "Calle María Parodi 3",
      "codigo_postal": "03181",
      "telefono": null,
      "web": null,
      "instagram": null,
      "horario": null,
      "terraza": false
    },
    {
      "id": "osm_node_10826351686",
      "nombre": "Delicious Bakery",
      "tipo": "cafe",
      "lat": 37.9778023,
      "lon": -0.6815229,
      "direccion": "Calle Caballero de Rodas 22",
      "codigo_postal": "03181",
      "telefono": "+34 623 03 04 04",
      "web": null,
      "instagram": null,
      "horario": null,
      "terraza": false
    },
    {
      "id": "osm_node_10839293614",
      "nombre": "Lolyta Food and Coffee",
      "tipo": "cafe",
      "lat": 37.9779751,
      "lon": -0.681061,
      "direccion": "Calle Joaquín Chapapietra 26",
      "codigo_postal": "03181",
      "telefono": "+34865750561",
      "web": null,
      "instagram": null,
      "horario": null,
      "terraza": false
    },
    {
      "id": "osm_node_10864374990",
      "nombre": "Bar Y Pesca",
      "tipo": "cafe",
      "lat": 37.9774971,
      "lon": -0.6872153,
      "direccion": "Calle Huerto 4",
      "codigo_postal": "03181",
      "telefono": "+34 965 71 86 71",
      "web": null,
      "instagram": null,
      "horario": null,
      "terraza": false
    },
    {
      "id": "osm_node_10921129629",
      "nombre": "SAFARI",
      "tipo": "bar",
      "lat": 37.9813494,
      "lon": -0.6759707,
      "direccion": "Calle Patricio Zammit 72",
      "codigo_postal": "03182",
      "telefono": null,
      "web": null,
      "instagram": null,
      "horario": null,
      "terraza": false
    },
    {
      "id": "osm_node_10921171249",
      "nombre": "La Piada Loca",
      "tipo": "bar",
      "lat": 37.9802359,
      "lon": -0.6778807,
      "direccion": "Calle Zoa 58",
      "codigo_postal": "03182",
      "telefono": null,
      "web": null,
      "instagram": null,
      "horario": null,
      "terraza": false
    },
    {
      "id": "osm_node_10921180320",
      "nombre": "Los Amigos",
      "tipo": "cafe",
      "lat": 37.9798623,
      "lon": -0.6770635,
      "direccion": "Calle Moriones",
      "codigo_postal": "03182",
      "telefono": "+34 631 87 59 53",
      "web": null,
      "instagram": null,
      "horario": null,
      "terraza": false
    },
    {
      "id": "osm_node_10921227011",
      "nombre": "Los Angeles",
      "tipo": "cafe",
      "lat": 37.979623,
      "lon": -0.6771358,
      "direccion": "Calle Antonio Machado 123",
      "codigo_postal": "03182",
      "telefono": "+34 663 88 16 47",
      "web": null,
      "instagram": null,
      "horario": null,
      "terraza": false
    },
    {
      "id": "osm_node_10923635120",
      "nombre": "Teteria Al Andalus",
      "tipo": "cafe",
      "lat": 37.9767021,
      "lon": -0.6783222,
      "direccion": "Calle Pedro Lorca 39",
      "codigo_postal": "03181",
      "telefono": null,
      "web": null,
      "instagram": null,
      "horario": null,
      "terraza": false
    },
    {
      "id": "osm_node_10978466675",
      "nombre": "MANGO'S SHISHA LOUNGE",
      "tipo": "bar",
      "lat": 37.9757361,
      "lon": -0.6778708,
      "direccion": "Calle Apolo 9",
      "codigo_postal": "03182",
      "telefono": null,
      "web": null,
      "instagram": null,
      "horario": null,
      "terraza": false
    },
    {
      "id": "osm_node_10994749719",
      "nombre": "Miño",
      "tipo": "bar",
      "lat": 37.9915081,
      "lon": -0.6749269,
      "direccion": null,
      "codigo_postal": null,
      "telefono": null,
      "web": null,
      "instagram": null,
      "horario": null,
      "terraza": true
    },
    {
      "id": "osm_node_11177901078",
      "nombre": "Polly's Bar",
      "tipo": "bar",
      "lat": 37.9885791,
      "lon": -0.6918497,
      "direccion": null,
      "codigo_postal": null,
      "telefono": null,
      "web": null,
      "instagram": null,
      "horario": null,
      "terraza": true
    },
    {
      "id": "osm_node_11177901084",
      "nombre": "Necoshea",
      "tipo": "bar",
      "lat": 37.9886265,
      "lon": -0.6915018,
      "direccion": null,
      "codigo_postal": null,
      "telefono": null,
      "web": null,
      "instagram": null,
      "horario": null,
      "terraza": true
    },
    {
      "id": "osm_node_11293498510",
      "nombre": "Kiosco Gloria Beach Bar",
      "tipo": "pub",
      "lat": 37.9818767,
      "lon": -0.6620505,
      "direccion": null,
      "codigo_postal": null,
      "telefono": null,
      "web": "https://lomyu.com/es-view.php?seo=kiosco-gloria-722675",
      "instagram": null,
      "horario": null,
      "terraza": false
    },
    {
      "id": "osm_node_12308298317",
      "nombre": "Bonanza",
      "tipo": "bar",
      "lat": 38.0111517,
      "lon": -0.6832532,
      "direccion": null,
      "codigo_postal": null,
      "telefono": "+34 966 78 63 65",
      "web": null,
      "instagram": null,
      "horario": "We-Mo 12:00-15:00; 18:00-24:00",
      "terraza": true
    },
    {
      "id": "osm_node_12308298320",
      "nombre": "The Unity Bar",
      "tipo": "bar",
      "lat": 38.0112301,
      "lon": -0.6827839,
      "direccion": null,
      "codigo_postal": null,
      "telefono": "+34 711 06 78 80",
      "web": null,
      "instagram": null,
      "horario": "Mo-Sa 10:00-00:00; Su 12:00-00:00",
      "terraza": true
    },
    {
      "id": "osm_node_12308298321",
      "nombre": "Family",
      "tipo": "bar",
      "lat": 38.0110396,
      "lon": -0.6828287,
      "direccion": null,
      "codigo_postal": null,
      "telefono": null,
      "web": null,
      "instagram": null,
      "horario": "Mo-Fr 16:00-01:00; Su 13:30-01:00; Sa 13:00-01:00",
      "terraza": true
    },
    {
      "id": "osm_node_12308298324",
      "nombre": "Boz",
      "tipo": "bar",
      "lat": 38.0109395,
      "lon": -0.6828691,
      "direccion": null,
      "codigo_postal": null,
      "telefono": null,
      "web": null,
      "instagram": null,
      "horario": null,
      "terraza": true
    },
    {
      "id": "osm_node_12332388201",
      "nombre": "Nueva Torrevieja",
      "tipo": "bar",
      "lat": 37.9885068,
      "lon": -0.6750554,
      "direccion": null,
      "codigo_postal": null,
      "telefono": null,
      "web": null,
      "instagram": null,
      "horario": null,
      "terraza": true
    },
    {
      "id": "osm_node_12660783629",
      "nombre": "BAR 32",
      "tipo": "pub",
      "lat": 37.9726837,
      "lon": -0.6937648,
      "direccion": null,
      "codigo_postal": null,
      "telefono": null,
      "web": null,
      "instagram": null,
      "horario": null,
      "terraza": false
    },
    {
      "id": "osm_node_12692128175",
      "nombre": "Mai Flanagan's",
      "tipo": "pub",
      "lat": 37.9809016,
      "lon": -0.6893505,
      "direccion": null,
      "codigo_postal": null,
      "telefono": null,
      "web": null,
      "instagram": null,
      "horario": null,
      "terraza": false
    },
    {
      "id": "osm_node_12692676681",
      "nombre": "Cafateria Alaska",
      "tipo": "bar",
      "lat": 37.975726,
      "lon": -0.6931994,
      "direccion": null,
      "codigo_postal": null,
      "telefono": null,
      "web": null,
      "instagram": null,
      "horario": null,
      "terraza": false
    },
    {
      "id": "osm_node_13113048085",
      "nombre": "BLUR — Specialty Coffee, Brunch & Wine",
      "tipo": "cafe",
      "lat": 37.9772026,
      "lon": -0.6656629,
      "direccion": "Calle Timonel 9",
      "codigo_postal": "03182",
      "telefono": "+34692317277",
      "web": "https://instagram.com/blur.coffee.torrevieja",
      "instagram": null,
      "horario": "Mo-Fr 09:00-14:00, Sa-Su 09:00-15:00",
      "terraza": true
    },
    {
      "id": "osm_node_13397366102",
      "nombre": "Marina Club",
      "tipo": "bar",
      "lat": 37.9747698,
      "lon": -0.6878418,
      "direccion": null,
      "codigo_postal": null,
      "telefono": null,
      "web": null,
      "instagram": null,
      "horario": null,
      "terraza": false
    },
    {
      "id": "osm_way_323956374",
      "nombre": "Pub Menfis",
      "tipo": "pub",
      "lat": 37.974888,
      "lon": -0.677638,
      "direccion": "Calle Ramón y Cajal 7",
      "codigo_postal": null,
      "telefono": null,
      "web": null,
      "instagram": null,
      "horario": null,
      "terraza": false
    },
    {
      "id": "osm_way_410590456",
      "nombre": "Las Flores Playa",
      "tipo": "bar",
      "lat": 38.020647,
      "lon": -0.653945,
      "direccion": null,
      "codigo_postal": null,
      "telefono": null,
      "web": null,
      "instagram": null,
      "horario": null,
      "terraza": false
    },
    {
      "id": "osm_way_854703880",
      "nombre": "Bar La Barraca",
      "tipo": "pub",
      "lat": 38.00055,
      "lon": -0.651335,
      "direccion": null,
      "codigo_postal": null,
      "telefono": "+34 605 328668",
      "web": null,
      "instagram": null,
      "horario": null,
      "terraza": true
    },
    {
      "id": "osm_way_1106693911",
      "nombre": "Kiosko El Limonar",
      "tipo": "cafe",
      "lat": 38.000203,
      "lon": -0.695169,
      "direccion": null,
      "codigo_postal": null,
      "telefono": null,
      "web": null,
      "instagram": null,
      "horario": "Mo-Sa 10:00-19:00",
      "terraza": true
    }
  ]
}