{
  "ciudad": "Vélez-Málaga",
  "total": 62,
  "locales": [
    {
      "id": "osm_node_602495485",
      "nombre": "Cafeteria Bayleys",
      "tipo": "bar",
      "lat": 36.7495062,
      "lon": -4.0644703,
      "direccion": null,
      "codigo_postal": null,
      "telefono": null,
      "web": null,
      "instagram": null,
      "horario": null,
      "terraza": false,
      "musica": null,
      "fuente": "openstreetmap"
    },
    {
      "id": "osm_node_1290072506",
      "nombre": "Cafe Toto",
      "tipo": "cafe",
      "lat": 36.7812872,
      "lon": -4.104239,
      "direccion": "Plaza Carmelitas",
      "codigo_postal": "29700",
      "telefono": null,
      "web": null,
      "instagram": null,
      "horario": null,
      "terraza": true,
      "musica": null,
      "fuente": "openstreetmap"
    },
    {
      "id": "osm_node_1979022132",
      "nombre": "Géminis",
      "tipo": "cafe",
      "lat": 36.7403727,
      "lon": -4.0915878,
      "direccion": null,
      "codigo_postal": null,
      "telefono": null,
      "web": null,
      "instagram": null,
      "horario": null,
      "terraza": false,
      "musica": null,
      "fuente": "openstreetmap"
    },
    {
      "id": "osm_node_2105861084",
      "nombre": "Medel",
      "tipo": "cafe",
      "lat": 36.7400151,
      "lon": -4.0921627,
      "direccion": null,
      "codigo_postal": null,
      "telefono": "+34 952540557",
      "web": null,
      "instagram": null,
      "horario": null,
      "terraza": false,
      "musica": null,
      "fuente": "openstreetmap"
    },
    {
      "id": "osm_node_2110655735",
      "nombre": "Cónico",
      "tipo": "cafe",
      "lat": 36.7551763,
      "lon": -4.1011664,
      "direccion": null,
      "codigo_postal": null,
      "telefono": null,
      "web": null,
      "instagram": null,
      "horario": null,
      "terraza": false,
      "musica": null,
      "fuente": "openstreetmap"
    },
    {
      "id": "osm_node_2111982775",
      "nombre": "Cafe Centro",
      "tipo": "cafe",
      "lat": 36.7413009,
      "lon": -4.0946182,
      "direccion": null,
      "codigo_postal": null,
      "telefono": null,
      "web": null,
      "instagram": null,
      "horario": null,
      "terraza": false,
      "musica": null,
      "fuente": "openstreetmap"
    },
    {
      "id": "osm_node_2761475070",
      "nombre": "Sala Casarte Azul",
      "tipo": "bar",
      "lat": 36.7734277,
      "lon": -4.1033886,
      "direccion": "Avenida Camino Viejo de Málaga 22",
      "codigo_postal": "29700",
      "telefono": null,
      "web": null,
      "instagram": null,
      "horario": null,
      "terraza": false,
      "musica": null,
      "fuente": "openstreetmap"
    },
    {
      "id": "osm_node_3274291545",
      "nombre": "Los Pescadores",
      "tipo": "bar",
      "lat": 36.7436989,
      "lon": -4.0871561,
      "direccion": null,
      "codigo_postal": null,
      "telefono": null,
      "web": null,
      "instagram": null,
      "horario": null,
      "terraza": true,
      "musica": null,
      "fuente": "openstreetmap"
    },
    {
      "id": "osm_node_4008189300",
      "nombre": "La Carve",
      "tipo": "pub",
      "lat": 36.7584573,
      "lon": -4.1843146,
      "direccion": null,
      "codigo_postal": null,
      "telefono": null,
      "web": null,
      "instagram": null,
      "horario": null,
      "terraza": false,
      "musica": null,
      "fuente": "openstreetmap"
    },
    {
      "id": "osm_node_4233632764",
      "nombre": "El Llano",
      "tipo": "pub",
      "lat": 36.7308314,
      "lon": -4.1301411,
      "direccion": null,
      "codigo_postal": null,
      "telefono": null,
      "web": null,
      "instagram": null,
      "horario": null,
      "terraza": false,
      "musica": null,
      "fuente": "openstreetmap"
    },
    {
      "id": "osm_node_4233638080",
      "nombre": "Riera La Moncloa",
      "tipo": "pub",
      "lat": 36.7308261,
      "lon": -4.1292492,
      "direccion": null,
      "codigo_postal": null,
      "telefono": null,
      "web": null,
      "instagram": null,
      "horario": null,
      "terraza": false,
      "musica": null,
      "fuente": "openstreetmap"
    },
    {
      "id": "osm_node_4254255520",
      "nombre": "Legends",
      "tipo": "cafe",
      "lat": 36.7422952,
      "lon": -4.0977178,
      "direccion": null,
      "codigo_postal": null,
      "telefono": null,
      "web": null,
      "instagram": null,
      "horario": null,
      "terraza": false,
      "musica": null,
      "fuente": "openstreetmap"
    },
    {
      "id": "osm_node_4396193592",
      "nombre": "Bar Johan",
      "tipo": "bar",
      "lat": 36.7433146,
      "lon": -4.0904612,
      "direccion": "Calle Plazamar Centro",
      "codigo_postal": null,
      "telefono": "+34952540434",
      "web": null,
      "instagram": null,
      "horario": null,
      "terraza": false,
      "musica": null,
      "fuente": "openstreetmap"
    },
    {
      "id": "osm_node_4517412735",
      "nombre": "Barra Fina",
      "tipo": "bar",
      "lat": 36.7400533,
      "lon": -4.096796,
      "direccion": null,
      "codigo_postal": null,
      "telefono": null,
      "web": null,
      "instagram": null,
      "horario": null,
      "terraza": false,
      "musica": null,
      "fuente": "openstreetmap"
    },
    {
      "id": "osm_node_4519562192",
      "nombre": "Paco Hijano",
      "tipo": "bar",
      "lat": 36.7798325,
      "lon": -4.1114849,
      "direccion": null,
      "codigo_postal": null,
      "telefono": null,
      "web": null,
      "instagram": null,
      "horario": null,
      "terraza": true,
      "musica": null,
      "fuente": "openstreetmap"
    },
    {
      "id": "osm_node_4519562204",
      "nombre": "Bar Manolo",
      "tipo": "bar",
      "lat": 36.7829423,
      "lon": -4.110461,
      "direccion": null,
      "codigo_postal": null,
      "telefono": null,
      "web": null,
      "instagram": null,
      "horario": null,
      "terraza": true,
      "musica": null,
      "fuente": "openstreetmap"
    },
    {
      "id": "osm_node_4519562237",
      "nombre": "Salon Juebos",
      "tipo": "cafe",
      "lat": 36.7824408,
      "lon": -4.1079049,
      "direccion": null,
      "codigo_postal": null,
      "telefono": null,
      "web": null,
      "instagram": null,
      "horario": null,
      "terraza": false,
      "musica": null,
      "fuente": "openstreetmap"
    },
    {
      "id": "osm_node_4519562240",
      "nombre": "Maspan Espressobar",
      "tipo": "cafe",
      "lat": 36.7824277,
      "lon": -4.1075214,
      "direccion": null,
      "codigo_postal": null,
      "telefono": null,
      "web": null,
      "instagram": null,
      "horario": null,
      "terraza": true,
      "musica": null,
      "fuente": "openstreetmap"
    },
    {
      "id": "osm_node_4519562252",
      "nombre": "Cafetería Iris",
      "tipo": "cafe",
      "lat": 36.7817058,
      "lon": -4.1049112,
      "direccion": null,
      "codigo_postal": null,
      "telefono": null,
      "web": null,
      "instagram": null,
      "horario": null,
      "terraza": false,
      "musica": null,
      "fuente": "openstreetmap"
    },
    {
      "id": "osm_node_4519562264",
      "nombre": "Massé",
      "tipo": "pub",
      "lat": 36.7790973,
      "lon": -4.1018003,
      "direccion": null,
      "codigo_postal": null,
      "telefono": null,
      "web": null,
      "instagram": null,
      "horario": null,
      "terraza": false,
      "musica": null,
      "fuente": "openstreetmap"
    },
    {
      "id": "osm_node_4519562306",
      "nombre": "La Casa de los Martinez",
      "tipo": "pub",
      "lat": 36.7785653,
      "lon": -4.1008414,
      "direccion": null,
      "codigo_postal": null,
      "telefono": null,
      "web": null,
      "instagram": null,
      "horario": null,
      "terraza": false,
      "musica": null,
      "fuente": "openstreetmap"
    },
    {
      "id": "osm_node_4524805577",
      "nombre": "Don Pedro *****",
      "tipo": "cafe",
      "lat": 36.7445747,
      "lon": -4.0891379,
      "direccion": null,
      "codigo_postal": null,
      "telefono": null,
      "web": null,
      "instagram": null,
      "horario": null,
      "terraza": true,
      "musica": null,
      "fuente": "openstreetmap"
    },
    {
      "id": "osm_node_4530591167",
      "nombre": "Pasteleria Las Yucas",
      "tipo": "cafe",
      "lat": 36.7425133,
      "lon": -4.0928281,
      "direccion": null,
      "codigo_postal": null,
      "telefono": null,
      "web": null,
      "instagram": null,
      "horario": null,
      "terraza": false,
      "musica": null,
      "fuente": "openstreetmap"
    },
    {
      "id": "osm_node_4530591168",
      "nombre": "La Bella Julieta",
      "tipo": "cafe",
      "lat": 36.7418004,
      "lon": -4.0939633,
      "direccion": null,
      "codigo_postal": null,
      "telefono": null,
      "web": null,
      "instagram": null,
      "horario": null,
      "terraza": false,
      "musica": null,
      "fuente": "openstreetmap"
    },
    {
      "id": "osm_node_4530604166",
      "nombre": "Churrería Fortuna",
      "tipo": "bar",
      "lat": 36.7499961,
      "lon": -4.0725187,
      "direccion": null,
      "codigo_postal": null,
      "telefono": null,
      "web": null,
      "instagram": null,
      "horario": null,
      "terraza": false,
      "musica": null,
      "fuente": "openstreetmap"
    },
    {
      "id": "osm_node_4530629021",
      "nombre": "Virgen del Carmen",
      "tipo": "pub",
      "lat": 36.7492582,
      "lon": -4.065548,
      "direccion": null,
      "codigo_postal": null,
      "telefono": null,
      "web": null,
      "instagram": null,
      "horario": null,
      "terraza": false,
      "musica": null,
      "fuente": "openstreetmap"
    },
    {
      "id": "osm_node_4530678878",
      "nombre": "Ramos",
      "tipo": "bar",
      "lat": 36.7488679,
      "lon": -4.062501,
      "direccion": null,
      "codigo_postal": null,
      "telefono": null,
      "web": null,
      "instagram": null,
      "horario": null,
      "terraza": true,
      "musica": null,
      "fuente": "openstreetmap"
    },
    {
      "id": "osm_node_4545205411",
      "nombre": "Granada",
      "tipo": "pub",
      "lat": 36.7697341,
      "lon": -4.0986238,
      "direccion": null,
      "codigo_postal": null,
      "telefono": null,
      "web": null,
      "instagram": null,
      "horario": null,
      "terraza": false,
      "musica": null,
      "fuente": "openstreetmap"
    },
    {
      "id": "osm_node_4560240498",
      "nombre": "Heladería La Golosa",
      "tipo": "cafe",
      "lat": 36.7430642,
      "lon": -4.0883945,
      "direccion": null,
      "codigo_postal": null,
      "telefono": null,
      "web": null,
      "instagram": null,
      "horario": null,
      "terraza": false,
      "musica": null,
      "fuente": "openstreetmap"
    },
    {
      "id": "osm_node_4560240505",
      "nombre": "Karma café",
      "tipo": "cafe",
      "lat": 36.7428321,
      "lon": -4.0885635,
      "direccion": null,
      "codigo_postal": null,
      "telefono": null,
      "web": null,
      "instagram": null,
      "horario": null,
      "terraza": true,
      "musica": null,
      "fuente": "openstreetmap"
    },
    {
      "id": "osm_node_4560240508",
      "nombre": "Latino",
      "tipo": "pub",
      "lat": 36.7424828,
      "lon": -4.0890999,
      "direccion": null,
      "codigo_postal": null,
      "telefono": null,
      "web": null,
      "instagram": null,
      "horario": null,
      "terraza": false,
      "musica": null,
      "fuente": "openstreetmap"
    },
    {
      "id": "osm_node_4567172423",
      "nombre": "Sanches",
      "tipo": "cafe",
      "lat": 36.7161874,
      "lon": -4.1962797,
      "direccion": null,
      "codigo_postal": null,
      "telefono": null,
      "web": null,
      "instagram": null,
      "horario": null,
      "terraza": true,
      "musica": null,
      "fuente": "openstreetmap"
    },
    {
      "id": "osm_node_4567427086",
      "nombre": "Route 66",
      "tipo": "bar",
      "lat": 36.7159652,
      "lon": -4.1984278,
      "direccion": null,
      "codigo_postal": null,
      "telefono": null,
      "web": null,
      "instagram": null,
      "horario": null,
      "terraza": false,
      "musica": null,
      "fuente": "openstreetmap"
    },
    {
      "id": "osm_node_4567530575",
      "nombre": "La Moina",
      "tipo": "bar",
      "lat": 36.7138965,
      "lon": -4.2207945,
      "direccion": null,
      "codigo_postal": null,
      "telefono": null,
      "web": null,
      "instagram": null,
      "horario": null,
      "terraza": false,
      "musica": null,
      "fuente": "openstreetmap"
    },
    {
      "id": "osm_node_4570972821",
      "nombre": "La Negra",
      "tipo": "bar",
      "lat": 36.7154641,
      "lon": -4.1877402,
      "direccion": null,
      "codigo_postal": null,
      "telefono": null,
      "web": null,
      "instagram": null,
      "horario": null,
      "terraza": true,
      "musica": null,
      "fuente": "openstreetmap"
    },
    {
      "id": "osm_node_4595092093",
      "nombre": "Bar Manolo",
      "tipo": "cafe",
      "lat": 36.7491625,
      "lon": -4.0628722,
      "direccion": null,
      "codigo_postal": null,
      "telefono": null,
      "web": null,
      "instagram": null,
      "horario": null,
      "terraza": false,
      "musica": null,
      "fuente": "openstreetmap"
    },
    {
      "id": "osm_node_4595092094",
      "nombre": "La Parada",
      "tipo": "bar",
      "lat": 36.7490959,
      "lon": -4.0626308,
      "direccion": null,
      "codigo_postal": null,
      "telefono": null,
      "web": null,
      "instagram": null,
      "horario": null,
      "terraza": false,
      "musica": null,
      "fuente": "openstreetmap"
    },
    {
      "id": "osm_node_4596755078",
      "nombre": "La Jasca",
      "tipo": "cafe",
      "lat": 36.7447513,
      "lon": -4.0888205,
      "direccion": null,
      "codigo_postal": null,
      "telefono": null,
      "web": null,
      "instagram": null,
      "horario": null,
      "terraza": false,
      "musica": null,
      "fuente": "openstreetmap"
    },
    {
      "id": "osm_node_4596755084",
      "nombre": "Bar de Ino",
      "tipo": "cafe",
      "lat": 36.745636,
      "lon": -4.0872126,
      "direccion": "Avenida de Andalucía 30",
      "codigo_postal": "29740",
      "telefono": null,
      "web": null,
      "instagram": null,
      "horario": null,
      "terraza": false,
      "musica": null,
      "fuente": "openstreetmap"
    },
    {
      "id": "osm_node_4596893350",
      "nombre": "El Semáforo",
      "tipo": "pub",
      "lat": 36.7439935,
      "lon": -4.0954933,
      "direccion": null,
      "codigo_postal": null,
      "telefono": null,
      "web": null,
      "instagram": null,
      "horario": null,
      "terraza": false,
      "musica": null,
      "fuente": "openstreetmap"
    },
    {
      "id": "osm_node_4630255084",
      "nombre": "Varadero",
      "tipo": "bar",
      "lat": 36.7483473,
      "lon": -4.0614978,
      "direccion": null,
      "codigo_postal": null,
      "telefono": null,
      "web": null,
      "instagram": null,
      "horario": null,
      "terraza": true,
      "musica": null,
      "fuente": "openstreetmap"
    },
    {
      "id": "osm_node_4657147226",
      "nombre": "Haner Cafe",
      "tipo": "pub",
      "lat": 36.7492645,
      "lon": -4.067619,
      "direccion": null,
      "codigo_postal": null,
      "telefono": null,
      "web": null,
      "instagram": null,
      "horario": null,
      "terraza": false,
      "musica": null,
      "fuente": "openstreetmap"
    },
    {
      "id": "osm_node_4657147231",
      "nombre": "El Calderón",
      "tipo": "bar",
      "lat": 36.7492091,
      "lon": -4.0670745,
      "direccion": null,
      "codigo_postal": null,
      "telefono": null,
      "web": null,
      "instagram": null,
      "horario": null,
      "terraza": false,
      "musica": null,
      "fuente": "openstreetmap"
    },
    {
      "id": "osm_node_4657147238",
      "nombre": "Porto Beach Bar",
      "tipo": "bar",
      "lat": 36.7489056,
      "lon": -4.0641795,
      "direccion": null,
      "codigo_postal": null,
      "telefono": null,
      "web": null,
      "instagram": null,
      "horario": null,
      "terraza": false,
      "musica": null,
      "fuente": "openstreetmap"
    },
    {
      "id": "osm_node_5113812191",
      "nombre": "Café Victoria",
      "tipo": "cafe",
      "lat": 36.7375196,
      "lon": -4.0962684,
      "direccion": "Calle el Copo 30",
      "codigo_postal": "29740",
      "telefono": null,
      "web": null,
      "instagram": null,
      "horario": null,
      "terraza": true,
      "musica": null,
      "fuente": "openstreetmap"
    },
    {
      "id": "osm_node_6718483320",
      "nombre": "Bar Capri 2",
      "tipo": "bar",
      "lat": 36.7817292,
      "lon": -4.1081828,
      "direccion": "Calle Alcalde Juan Barranquero 4",
      "codigo_postal": null,
      "telefono": null,
      "web": null,
      "instagram": null,
      "horario": null,
      "terraza": false,
      "musica": null,
      "fuente": "openstreetmap"
    },
    {
      "id": "osm_node_6720892075",
      "nombre": "Cafetería Antonio",
      "tipo": "cafe",
      "lat": 36.7828136,
      "lon": -4.1072839,
      "direccion": "Calle Reñidero 5",
      "codigo_postal": null,
      "telefono": null,
      "web": null,
      "instagram": null,
      "horario": null,
      "terraza": false,
      "musica": null,
      "fuente": "openstreetmap"
    },
    {
      "id": "osm_node_7044644081",
      "nombre": "Cafe La Mona Chita *****",
      "tipo": "cafe",
      "lat": 36.7376941,
      "lon": -4.0984455,
      "direccion": null,
      "codigo_postal": null,
      "telefono": null,
      "web": null,
      "instagram": null,
      "horario": null,
      "terraza": true,
      "musica": null,
      "fuente": "openstreetmap"
    },
    {
      "id": "osm_node_7238197783",
      "nombre": "Prema",
      "tipo": "cafe",
      "lat": 36.7405783,
      "lon": -4.0911917,
      "direccion": null,
      "codigo_postal": null,
      "telefono": null,
      "web": null,
      "instagram": null,
      "horario": null,
      "terraza": true,
      "musica": null,
      "fuente": "openstreetmap"
    },
    {
      "id": "osm_node_8380173150",
      "nombre": "Irish Pub",
      "tipo": "bar",
      "lat": 36.7406884,
      "lon": -4.0910372,
      "direccion": null,
      "codigo_postal": null,
      "telefono": null,
      "web": null,
      "instagram": null,
      "horario": null,
      "terraza": true,
      "musica": null,
      "fuente": "openstreetmap"
    },
    {
      "id": "osm_node_8398381038",
      "nombre": "Cafetería Badara",
      "tipo": "cafe",
      "lat": 36.7732221,
      "lon": -4.1026618,
      "direccion": null,
      "codigo_postal": null,
      "telefono": null,
      "web": null,
      "instagram": null,
      "horario": null,
      "terraza": false,
      "musica": null,
      "fuente": "openstreetmap"
    },
    {
      "id": "osm_node_8930409616",
      "nombre": "La Vía",
      "tipo": "bar",
      "lat": 36.7771788,
      "lon": -4.1058774,
      "direccion": null,
      "codigo_postal": null,
      "telefono": null,
      "web": null,
      "instagram": null,
      "horario": null,
      "terraza": false,
      "musica": null,
      "fuente": "openstreetmap"
    },
    {
      "id": "osm_node_9021191791",
      "nombre": "Churrería Nueva",
      "tipo": "cafe",
      "lat": 36.7826776,
      "lon": -4.1061652,
      "direccion": null,
      "codigo_postal": null,
      "telefono": null,
      "web": null,
      "instagram": null,
      "horario": null,
      "terraza": false,
      "musica": null,
      "fuente": "openstreetmap"
    },
    {
      "id": "osm_node_9051555391",
      "nombre": "Cafetería Zalia",
      "tipo": "cafe",
      "lat": 36.7792279,
      "lon": -4.1028812,
      "direccion": null,
      "codigo_postal": null,
      "telefono": null,
      "web": null,
      "instagram": null,
      "horario": null,
      "terraza": false,
      "musica": null,
      "fuente": "openstreetmap"
    },
    {
      "id": "osm_node_10674475198",
      "nombre": "Level",
      "tipo": "cafe",
      "lat": 36.7425953,
      "lon": -4.0889467,
      "direccion": null,
      "codigo_postal": null,
      "telefono": null,
      "web": null,
      "instagram": null,
      "horario": null,
      "terraza": false,
      "musica": null,
      "fuente": "openstreetmap"
    },
    {
      "id": "osm_node_10674509052",
      "nombre": "Alma Libre",
      "tipo": "cafe",
      "lat": 36.7428043,
      "lon": -4.0886159,
      "direccion": null,
      "codigo_postal": null,
      "telefono": null,
      "web": null,
      "instagram": null,
      "horario": null,
      "terraza": false,
      "musica": null,
      "fuente": "openstreetmap"
    },
    {
      "id": "osm_node_10805282208",
      "nombre": "Café Bar Espinola Churrería",
      "tipo": "bar",
      "lat": 36.7412778,
      "lon": -4.097589,
      "direccion": null,
      "codigo_postal": null,
      "telefono": null,
      "web": null,
      "instagram": null,
      "horario": null,
      "terraza": false,
      "musica": null,
      "fuente": "openstreetmap"
    },
    {
      "id": "osm_node_12526734701",
      "nombre": "El Lagar",
      "tipo": "bar",
      "lat": 36.716454,
      "lon": -4.1932876,
      "direccion": null,
      "codigo_postal": null,
      "telefono": null,
      "web": null,
      "instagram": null,
      "horario": null,
      "terraza": false,
      "musica": null,
      "fuente": "openstreetmap"
    },
    {
      "id": "osm_node_13479149241",
      "nombre": "Jordi Tapas",
      "tipo": "pub",
      "lat": 36.7452163,
      "lon": -4.0901624,
      "direccion": "Calle Azucarera 7",
      "codigo_postal": null,
      "telefono": "+34 952 54 08 11",
      "web": "https://jordibartapas.shop",
      "instagram": "https://www.instagram.com/jorditapas",
      "horario": null,
      "terraza": false,
      "musica": null,
      "fuente": "openstreetmap"
    },
    {
      "id": "osm_way_391407073",
      "nombre": "Bar",
      "tipo": "cafe",
      "lat": 36.726595,
      "lon": -4.112989,
      "direccion": null,
      "codigo_postal": null,
      "telefono": null,
      "web": null,
      "instagram": null,
      "horario": null,
      "terraza": true,
      "musica": null,
      "fuente": "openstreetmap"
    },
    {
      "id": "osm_way_396050171",
      "nombre": "Chiringuito Frank",
      "tipo": "pub",
      "lat": 36.743346,
      "lon": -4.086912,
      "direccion": null,
      "codigo_postal": null,
      "telefono": null,
      "web": null,
      "instagram": null,
      "horario": null,
      "terraza": false,
      "musica": null,
      "fuente": "openstreetmap"
    },
    {
      "id": "osm_way_471558873",
      "nombre": "El Chiringuito",
      "tipo": "pub",
      "lat": 36.747798,
      "lon": -4.078234,
      "direccion": null,
      "codigo_postal": null,
      "telefono": null,
      "web": null,
      "instagram": null,
      "horario": null,
      "terraza": false,
      "musica": null,
      "fuente": "openstreetmap"
    }
  ]
}